{
  "type": "FeatureCollection",
  "features": [
    {
      "type": "Feature",
      "geometry": {
        "type": "Point",
        "coordinates": [
          -116.814194,
          34.037778
        ]
      },
      "properties": {
        "id": "91840",
        "call_sign": "KRTM",
        "frequency": "88.1  MHz",
        "service": "FM",
        "owner": "PENFOLD COMMUNICATIONS, INC.",
        "city": "BANNING",
        "state": "CA"
      }
    },
    {
      "type": "Feature",
      "geometry": {
        "type": "Point",
        "coordinates": [
          -116.814194,
          34.037778
        ]
      },
      "properties": {
        "id": "91840",
        "call_sign": "KRTM",
        "frequency": "88.1  MHz",
        "service": "FM",
        "owner": "PENFOLD COMMUNICATIONS, INC.",
        "city": "BANNING",
        "state": "CA"
      }
    },
    {
      "type": "Feature",
      "geometry": {
        "type": "Point",
        "coordinates": [
          -122.143833,
          38.006861
        ]
      },
      "properties": {
        "id": "35499",
        "call_sign": "K201BV",
        "frequency": "88.1  MHz",
        "service": "FX",
        "owner": "KQED INC.",
        "city": "BENICIA-MARTINEZ",
        "state": "CA"
      }
    },
    {
      "type": "Feature",
      "geometry": {
        "type": "Point",
        "coordinates": [
          -122.975167,
          38.36075
        ]
      },
      "properties": {
        "id": "175619",
        "call_sign": "KWTF",
        "frequency": "88.1  MHz",
        "service": "FM",
        "owner": "KWTF RADIO",
        "city": "BODEGA BAY",
        "state": "CA"
      }
    },
    {
      "type": "Feature",
      "geometry": {
        "type": "Point",
        "coordinates": [
          -120.092139,
          41.636833
        ]
      },
      "properties": {
        "id": "172273",
        "call_sign": "KDUP",
        "frequency": "88.1  MHz",
        "service": "FM",
        "owner": "SURPRISE VALLEY CULTURE AND ARTS",
        "city": "CEDARVILLE",
        "state": "CA"
      }
    },
    {
      "type": "Feature",
      "geometry": {
        "type": "Point",
        "coordinates": [
          -117.683944,
          35.479944
        ]
      },
      "properties": {
        "id": "28593",
        "call_sign": "K201AD",
        "frequency": "88.1  MHz",
        "service": "FX",
        "owner": "INDIAN WELLS VALLEY TV BOOSTER, INC.",
        "city": "CHINA LAKE, ETC.",
        "state": "CA"
      }
    },
    {
      "type": "Feature",
      "geometry": {
        "type": "Point",
        "coordinates": [
          -122.293833,
          37.905472
        ]
      },
      "properties": {
        "id": "19081",
        "call_sign": "KECG",
        "frequency": "88.1  MHz",
        "service": "FM",
        "owner": "WEST CONTRA COSTA UNIFIED SCHOOL DISTRICT",
        "city": "EL CERRITO",
        "state": "CA"
      }
    },
    {
      "type": "Feature",
      "geometry": {
        "type": "Point",
        "coordinates": [
          -123.972556,
          40.727361
        ]
      },
      "properties": {
        "id": "55429",
        "call_sign": "KMUE",
        "frequency": "88.1  MHz",
        "service": "FM",
        "owner": "REDWOOD COMMUNITY RADIO",
        "city": "EUREKA",
        "state": "CA"
      }
    },
    {
      "type": "Feature",
      "geometry": {
        "type": "Point",
        "coordinates": [
          -123.760556,
          39.467361
        ]
      },
      "properties": {
        "id": "41159",
        "call_sign": "K201HR",
        "frequency": "88.1  MHz",
        "service": "FX",
        "owner": "MENDOCINO COUNTY PUBLIC BROADCASTING",
        "city": "FORT BRAGG",
        "state": "CA"
      }
    },
    {
      "type": "Feature",
      "geometry": {
        "type": "Point",
        "coordinates": [
          -119.431778,
          37.073
        ]
      },
      "properties": {
        "id": "22641",
        "call_sign": "KFCF",
        "frequency": "88.1  MHz",
        "service": "FM",
        "owner": "FRESNO FREE COLLEGE FOUNDATION",
        "city": "FRESNO",
        "state": "CA"
      }
    },
    {
      "type": "Feature",
      "geometry": {
        "type": "Point",
        "coordinates": [
          -122.769139,
          38.989611
        ]
      },
      "properties": {
        "id": "90952",
        "call_sign": "KPFZ-FM",
        "frequency": "88.1  MHz",
        "service": "FM",
        "owner": "LAKE COUNTY COMMUNITY RADIO INC",
        "city": "LAKEPORT",
        "state": "CA"
      }
    },
    {
      "type": "Feature",
      "geometry": {
        "type": "Point",
        "coordinates": [
          -120.187083,
          34.909972
        ]
      },
      "properties": {
        "id": "90485",
        "call_sign": "KLWG",
        "frequency": "88.1  MHz",
        "service": "FM",
        "owner": "CALVARY CHAPEL OF LOMPOC",
        "city": "LOMPOC",
        "state": "CA"
      }
    },
    {
      "type": "Feature",
      "geometry": {
        "type": "Point",
        "coordinates": [
          -120.489056,
          34.603583
        ]
      },
      "properties": {
        "id": "90485",
        "call_sign": "KLWG",
        "frequency": "88.1  MHz",
        "service": "FS",
        "owner": "CALVARY CHAPEL OF LOMPOC",
        "city": "LOMPOC",
        "state": "CA"
      }
    },
    {
      "type": "Feature",
      "geometry": {
        "type": "Point",
        "coordinates": [
          -118.162833,
          33.799472
        ]
      },
      "properties": {
        "id": "8197",
        "call_sign": "KKJZ",
        "frequency": "88.1  MHz",
        "service": "FM",
        "owner": "CALIFORNIA STATE UNIV., LONG BEACH RESEARCH FOUNDATION",
        "city": "LONG BEACH",
        "state": "CA"
      }
    },
    {
      "type": "Feature",
      "geometry": {
        "type": "Point",
        "coordinates": [
          -118.162833,
          33.799472
        ]
      },
      "properties": {
        "id": "8197",
        "call_sign": "KKJZ",
        "frequency": "88.1  MHz",
        "service": "FS",
        "owner": "CALIFORNIA STATE UNIV., LONG BEACH RESEARCH FOUNDATION",
        "city": "LONG BEACH",
        "state": "CA"
      }
    },
    {
      "type": "Feature",
      "geometry": {
        "type": "Point",
        "coordinates": [
          -121.890722,
          37.350222
        ]
      },
      "properties": {
        "id": "93377",
        "call_sign": "K201FW",
        "frequency": "88.1  MHz",
        "service": "FX",
        "owner": "CSN INTERNATIONAL",
        "city": "LOS GATOS",
        "state": "CA"
      }
    },
    {
      "type": "Feature",
      "geometry": {
        "type": "Point",
        "coordinates": [
          -121.918278,
          37.163833
        ]
      },
      "properties": {
        "id": "93377",
        "call_sign": "K201FW",
        "frequency": "88.1  MHz",
        "service": "FX",
        "owner": "CSN INTERNATIONAL",
        "city": "LOS GATOS",
        "state": "CA"
      }
    },
    {
      "type": "Feature",
      "geometry": {
        "type": "Point",
        "coordinates": [
          -116.963056,
          34.403306
        ]
      },
      "properties": {
        "id": "768305",
        "call_sign": "KLHM",
        "frequency": "88.1  MHz",
        "service": "FM",
        "owner": "EDUCATIONAL RADIO FOUNDATION OF EAST TEXAS, INC.",
        "city": "LUCERNE VALLEY",
        "state": "CA"
      }
    },
    {
      "type": "Feature",
      "geometry": {
        "type": "Point",
        "coordinates": [
          -118.207861,
          35.122194
        ]
      },
      "properties": {
        "id": "59092",
        "call_sign": "KCRY",
        "frequency": "88.1  MHz",
        "service": "FM",
        "owner": "SANTA MONICA COMMUNITY COLLEGE DISTRICT",
        "city": "MOJAVE",
        "state": "CA"
      }
    },
    {
      "type": "Feature",
      "geometry": {
        "type": "Point",
        "coordinates": [
          -122.308611,
          41.221806
        ]
      },
      "properties": {
        "id": "62957",
        "call_sign": "KNSQ",
        "frequency": "88.1  MHz",
        "service": "FM",
        "owner": "SOUTHERN OREGON UNIVERSITY",
        "city": "MOUNT SHASTA",
        "state": "CA"
      }
    },
    {
      "type": "Feature",
      "geometry": {
        "type": "Point",
        "coordinates": [
          -122.216083,
          38.264083
        ]
      },
      "properties": {
        "id": "91413",
        "call_sign": "K201IH",
        "frequency": "88.1  MHz",
        "service": "FX",
        "owner": "CSN INTERNATIONAL",
        "city": "NAPA",
        "state": "CA"
      }
    },
    {
      "type": "Feature",
      "geometry": {
        "type": "Point",
        "coordinates": [
          -116.849031,
          33.308147
        ]
      },
      "properties": {
        "id": "91871",
        "call_sign": "K201IS",
        "frequency": "88.1  MHz",
        "service": "FX",
        "owner": "CSN INTERNATIONAL",
        "city": "OCEANSIDE",
        "state": "CA"
      }
    },
    {
      "type": "Feature",
      "geometry": {
        "type": "Point",
        "coordinates": [
          -120.948556,
          39.937111
        ]
      },
      "properties": {
        "id": "122435",
        "call_sign": "KQNC",
        "frequency": "88.1  MHz",
        "service": "FM",
        "owner": "CALIFORNIA STATE UNIVERSITY, SACRAMENTO",
        "city": "QUINCY",
        "state": "CA"
      }
    },
    {
      "type": "Feature",
      "geometry": {
        "type": "Point",
        "coordinates": [
          -121.820556,
          39.205556
        ]
      },
      "properties": {
        "id": "20776",
        "call_sign": "K213BZ",
        "frequency": "88.1  MHz",
        "service": "FX",
        "owner": "CSN INTERNATIONAL",
        "city": "RICHVALE",
        "state": "CA"
      }
    },
    {
      "type": "Feature",
      "geometry": {
        "type": "Point",
        "coordinates": [
          -116.848889,
          33.308361
        ]
      },
      "properties": {
        "id": "91871",
        "call_sign": "K201IS",
        "frequency": "88.1  MHz",
        "service": "FX",
        "owner": "CSN INTERNATIONAL",
        "city": "RINCON",
        "state": "CA"
      }
    },
    {
      "type": "Feature",
      "geometry": {
        "type": "Point",
        "coordinates": [
          -114.773306,
          33.617528
        ]
      },
      "properties": {
        "id": "90670",
        "call_sign": "K201ES",
        "frequency": "88.1  MHz",
        "service": "FX",
        "owner": "CSN INTERNATIONAL",
        "city": "RIPLEY/BLYTHE",
        "state": "CA"
      }
    },
    {
      "type": "Feature",
      "geometry": {
        "type": "Point",
        "coordinates": [
          -121.501889,
          38.247139
        ]
      },
      "properties": {
        "id": "20746",
        "call_sign": "KEBR",
        "frequency": "88.1  MHz",
        "service": "FM",
        "owner": "LOAM MEDIA, INC.",
        "city": "SACRAMENTO",
        "state": "CA"
      }
    },
    {
      "type": "Feature",
      "geometry": {
        "type": "Point",
        "coordinates": [
          -116.586194,
          33.006361
        ]
      },
      "properties": {
        "id": "767224",
        "call_sign": "KYML",
        "frequency": "88.1  MHz",
        "service": "FM",
        "owner": "CSN INTERNATIONAL, INC.",
        "city": "SAN DIEGO COUNTRY ESTATES",
        "state": "CA"
      }
    },
    {
      "type": "Feature",
      "geometry": {
        "type": "Point",
        "coordinates": [
          -122.513056,
          37.969944
        ]
      },
      "properties": {
        "id": "58923",
        "call_sign": "KSRH",
        "frequency": "88.1  MHz",
        "service": "FM",
        "owner": "SAN RAFAEL HIGH SCHOOL",
        "city": "SAN RAFAEL",
        "state": "CA"
      }
    },
    {
      "type": "Feature",
      "geometry": {
        "type": "Point",
        "coordinates": [
          -122.052167,
          37.002722
        ]
      },
      "properties": {
        "id": "66310",
        "call_sign": "KZSC",
        "frequency": "88.1  MHz",
        "service": "FM",
        "owner": "REGENTS OF THE UNIVERSITY OF CALIFORNIA",
        "city": "SANTA CRUZ",
        "state": "CA"
      }
    },
    {
      "type": "Feature",
      "geometry": {
        "type": "Point",
        "coordinates": [
          -122.052167,
          37.002722
        ]
      },
      "properties": {
        "id": "66310",
        "call_sign": "KZSC",
        "frequency": "88.1  MHz",
        "service": "FS",
        "owner": "REGENTS OF THE UNIVERSITY OF CALIFORNIA",
        "city": "SANTA CRUZ",
        "state": "CA"
      }
    },
    {
      "type": "Feature",
      "geometry": {
        "type": "Point",
        "coordinates": [
          -119.963222,
          38.916583
        ]
      },
      "properties": {
        "id": "8353",
        "call_sign": "K201AJ",
        "frequency": "88.1  MHz",
        "service": "FX",
        "owner": "CALIFORNIA STATE UNIVERSITY, SACRAMENTO",
        "city": "SOUTH LAKE TAHOE, ET",
        "state": "CA"
      }
    },
    {
      "type": "Feature",
      "geometry": {
        "type": "Point",
        "coordinates": [
          -120.571028,
          40.45325
        ]
      },
      "properties": {
        "id": "8422",
        "call_sign": "K205EK",
        "frequency": "88.1  MHz",
        "service": "FX",
        "owner": "CSN INTERNATIONAL INC.",
        "city": "SUSANVILLE",
        "state": "CA"
      }
    },
    {
      "type": "Feature",
      "geometry": {
        "type": "Point",
        "coordinates": [
          -120.19975,
          39.325944
        ]
      },
      "properties": {
        "id": "87063",
        "call_sign": "K201FV",
        "frequency": "88.1  MHz",
        "service": "FX",
        "owner": "BOARD OF REGENTS OF THE NEVADA SYSTEM OF HIGHER EDUCATION",
        "city": "TRUCKEE",
        "state": "CA"
      }
    },
    {
      "type": "Feature",
      "geometry": {
        "type": "Point",
        "coordinates": [
          -118.124222,
          34.487222
        ]
      },
      "properties": {
        "id": "174673",
        "call_sign": "KTCN",
        "frequency": "88.3  MHz",
        "service": "FM",
        "owner": "COMMON COMMUNICATIONS SOUTHERN CALIFORNIA",
        "city": "ACTON",
        "state": "CA"
      }
    },
    {
      "type": "Feature",
      "geometry": {
        "type": "Point",
        "coordinates": [
          -117.040306,
          34.970806
        ]
      },
      "properties": {
        "id": "20525",
        "call_sign": "K202DM",
        "frequency": "88.3  MHz",
        "service": "FX",
        "owner": "FAITH COMMUNICATIONS CORPORATION",
        "city": "BARSTOW",
        "state": "CA"
      }
    },
    {
      "type": "Feature",
      "geometry": {
        "type": "Point",
        "coordinates": [
          -120.669361,
          38.749333
        ]
      },
      "properties": {
        "id": "122735",
        "call_sign": "KCPC",
        "frequency": "88.3  MHz",
        "service": "FM",
        "owner": "NEVADA CITY COMMUNITY BROADCAST GROUP",
        "city": "CAMINO",
        "state": "CA"
      }
    },
    {
      "type": "Feature",
      "geometry": {
        "type": "Point",
        "coordinates": [
          -120.644944,
          36.369667
        ]
      },
      "properties": {
        "id": "85850",
        "call_sign": "KAWK",
        "frequency": "88.3  MHz",
        "service": "FM",
        "owner": "K-LOVE, INC.",
        "city": "COALINGA",
        "state": "CA"
      }
    },
    {
      "type": "Feature",
      "geometry": {
        "type": "Point",
        "coordinates": [
          -122.876972,
          41.595694
        ]
      },
      "properties": {
        "id": "92939",
        "call_sign": "K202DA",
        "frequency": "88.3  MHz",
        "service": "FX",
        "owner": "PACIFIC CASCADE COMMUNICATIONS CORPORATION",
        "city": "FORT JONES",
        "state": "CA"
      }
    },
    {
      "type": "Feature",
      "geometry": {
        "type": "Point",
        "coordinates": [
          -119.234528,
          35.415222
        ]
      },
      "properties": {
        "id": "60582",
        "call_sign": "KAXL",
        "frequency": "88.3  MHz",
        "service": "FM",
        "owner": "SKYRIDE UNLIMITED, INCORPORATED",
        "city": "GREENACRES",
        "state": "CA"
      }
    },
    {
      "type": "Feature",
      "geometry": {
        "type": "Point",
        "coordinates": [
          -123.573056,
          38.824889
        ]
      },
      "properties": {
        "id": "174202",
        "call_sign": "KGUA",
        "frequency": "88.3  MHz",
        "service": "FM",
        "owner": "NATIVE MEDIA RESOURCE CENTER",
        "city": "GUALALA",
        "state": "CA"
      }
    },
    {
      "type": "Feature",
      "geometry": {
        "type": "Point",
        "coordinates": [
          -120.651583,
          37.608556
        ]
      },
      "properties": {
        "id": "83610",
        "call_sign": "KLVN",
        "frequency": "88.3  MHz",
        "service": "FM",
        "owner": "K-LOVE, INC.",
        "city": "LIVINGSTON",
        "state": "CA"
      }
    },
    {
      "type": "Feature",
      "geometry": {
        "type": "Point",
        "coordinates": [
          -121.711944,
          39.961167
        ]
      },
      "properties": {
        "id": "18832",
        "call_sign": "KLVC",
        "frequency": "88.3  MHz",
        "service": "FM",
        "owner": "K-LOVE, INC.",
        "city": "MAGALIA",
        "state": "CA"
      }
    },
    {
      "type": "Feature",
      "geometry": {
        "type": "Point",
        "coordinates": [
          -117.288083,
          33.966139
        ]
      },
      "properties": {
        "id": "66318",
        "call_sign": "KUCR",
        "frequency": "88.3  MHz",
        "service": "FM",
        "owner": "REGENTS OF THE UNIVERSITY OF CALIFORNIA",
        "city": "RIVERSIDE",
        "state": "CA"
      }
    },
    {
      "type": "Feature",
      "geometry": {
        "type": "Point",
        "coordinates": [
          -117.170028,
          32.804778
        ]
      },
      "properties": {
        "id": "58818",
        "call_sign": "KSDS",
        "frequency": "88.3  MHz",
        "service": "FM",
        "owner": "SAN DIEGO COMMUNITY COLLEGE DISTRICT",
        "city": "SAN DIEGO",
        "state": "CA"
      }
    },
    {
      "type": "Feature",
      "geometry": {
        "type": "Point",
        "coordinates": [
          -122.662472,
          38.508528
        ]
      },
      "properties": {
        "id": "81204",
        "call_sign": "K202CT",
        "frequency": "88.3  MHz",
        "service": "FX",
        "owner": "KQED INC.",
        "city": "SANTA ROSA",
        "state": "CA"
      }
    },
    {
      "type": "Feature",
      "geometry": {
        "type": "Point",
        "coordinates": [
          -118.945944,
          34.218056
        ]
      },
      "properties": {
        "id": "8220",
        "call_sign": "KCLU-FM",
        "frequency": "88.3  MHz",
        "service": "FM",
        "owner": "CALIFORNIA LUTHERAN UNIVERSITY",
        "city": "THOUSAND OAKS",
        "state": "CA"
      }
    },
    {
      "type": "Feature",
      "geometry": {
        "type": "Point",
        "coordinates": [
          -122.062444,
          37.81575
        ]
      },
      "properties": {
        "id": "789877",
        "call_sign": "KQED-FM2",
        "frequency": "88.5  MHz",
        "service": "FB",
        "owner": "KQED INC.",
        "city": "ALAMO",
        "state": "CA"
      }
    },
    {
      "type": "Feature",
      "geometry": {
        "type": "Point",
        "coordinates": [
          -121.828611,
          40.90625
        ]
      },
      "properties": {
        "id": "172603",
        "call_sign": "KKRN",
        "frequency": "88.5  MHz",
        "service": "FM",
        "owner": "ACORN COMMUNITY ENTERPRISES",
        "city": "BELLA VISTA",
        "state": "CA"
      }
    },
    {
      "type": "Feature",
      "geometry": {
        "type": "Point",
        "coordinates": [
          -121.828583,
          40.90625
        ]
      },
      "properties": {
        "id": "172603",
        "call_sign": "KKRN",
        "frequency": "88.5  MHz",
        "service": "FM",
        "owner": "ACORN COMMUNITY ENTERPRISES",
        "city": "BELLA VISTA",
        "state": "CA"
      }
    },
    {
      "type": "Feature",
      "geometry": {
        "type": "Point",
        "coordinates": [
          -118.1865,
          37.41325
        ]
      },
      "properties": {
        "id": "86741",
        "call_sign": "KWTW",
        "frequency": "88.5  MHz",
        "service": "FM",
        "owner": "WESTSIDE CHRISTIAN FELLOWSHIP A.V.",
        "city": "BISHOP",
        "state": "CA"
      }
    },
    {
      "type": "Feature",
      "geometry": {
        "type": "Point",
        "coordinates": [
          -114.349389,
          33.570028
        ]
      },
      "properties": {
        "id": "19750",
        "call_sign": "KERU-FM",
        "frequency": "88.5  MHz",
        "service": "FM",
        "owner": "KERU-FM",
        "city": "BLYTHE",
        "state": "CA"
      }
    },
    {
      "type": "Feature",
      "geometry": {
        "type": "Point",
        "coordinates": [
          -114.597444,
          33.611139
        ]
      },
      "properties": {
        "id": "19750",
        "call_sign": "KERU-FM",
        "frequency": "88.5  MHz",
        "service": "FS",
        "owner": "KERU-FM",
        "city": "BLYTHE",
        "state": "CA"
      }
    },
    {
      "type": "Feature",
      "geometry": {
        "type": "Point",
        "coordinates": [
          -122.123361,
          37.932361
        ]
      },
      "properties": {
        "id": "789889",
        "call_sign": "KQED-FM4",
        "frequency": "88.5  MHz",
        "service": "FB",
        "owner": "KQED INC.",
        "city": "CONCORD",
        "state": "CA"
      }
    },
    {
      "type": "Feature",
      "geometry": {
        "type": "Point",
        "coordinates": [
          -117.700333,
          35.477472
        ]
      },
      "properties": {
        "id": "93175",
        "call_sign": "KYUA",
        "frequency": "88.5  MHz",
        "service": "FM",
        "owner": "K-LOVE, INC.",
        "city": "INYOKERN",
        "state": "CA"
      }
    },
    {
      "type": "Feature",
      "geometry": {
        "type": "Point",
        "coordinates": [
          -123.579722,
          39.69375
        ]
      },
      "properties": {
        "id": "90983",
        "call_sign": "KVUH",
        "frequency": "88.5  MHz",
        "service": "FM",
        "owner": "RADIO BILINGUE, INC.",
        "city": "LAYTONVILLE",
        "state": "CA"
      }
    },
    {
      "type": "Feature",
      "geometry": {
        "type": "Point",
        "coordinates": [
          -120.434583,
          34.730528
        ]
      },
      "properties": {
        "id": "71998",
        "call_sign": "K215EQ",
        "frequency": "88.5  MHz",
        "service": "FX",
        "owner": "CSN INTERNATIONAL",
        "city": "LOMPOC",
        "state": "CA"
      }
    },
    {
      "type": "Feature",
      "geometry": {
        "type": "Point",
        "coordinates": [
          -117.755278,
          33.550417
        ]
      },
      "properties": {
        "id": "775992",
        "call_sign": "KSBR-FM1",
        "frequency": "88.5  MHz",
        "service": "FB",
        "owner": "SOUTH ORANGE COUNTY COMMUNITY COLLEGE DISTRICT",
        "city": "MISSION VIEJO",
        "state": "CA"
      }
    },
    {
      "type": "Feature",
      "geometry": {
        "type": "Point",
        "coordinates": [
          -118.555083,
          34.319444
        ]
      },
      "properties": {
        "id": "62949",
        "call_sign": "KCSN",
        "frequency": "88.5  MHz",
        "service": "FM",
        "owner": "CALIFORNIA STATE UNIVERSITY, NORTHRIDGE",
        "city": "NORTHRIDGE",
        "state": "CA"
      }
    },
    {
      "type": "Feature",
      "geometry": {
        "type": "Point",
        "coordinates": [
          -116.435278,
          33.865583
        ]
      },
      "properties": {
        "id": "69394",
        "call_sign": "KPSC",
        "frequency": "88.5  MHz",
        "service": "FM",
        "owner": "UNIVERSITY OF SOUTHERN CALIFORNIA",
        "city": "PALM SPRINGS",
        "state": "CA"
      }
    },
    {
      "type": "Feature",
      "geometry": {
        "type": "Point",
        "coordinates": [
          -121.098806,
          39.132611
        ]
      },
      "properties": {
        "id": "766461",
        "call_sign": "KFTT",
        "frequency": "88.5  MHz",
        "service": "FM",
        "owner": "SIERRA INDEPENDENT MEDIA",
        "city": "PENN VALLEY",
        "state": "CA"
      }
    },
    {
      "type": "Feature",
      "geometry": {
        "type": "Point",
        "coordinates": [
          -121.995139,
          37.738889
        ]
      },
      "properties": {
        "id": "789882",
        "call_sign": "KQED-FM3",
        "frequency": "88.5  MHz",
        "service": "FB",
        "owner": "KQED INC.",
        "city": "PLEASANTON",
        "state": "CA"
      }
    },
    {
      "type": "Feature",
      "geometry": {
        "type": "Point",
        "coordinates": [
          -122.438028,
          37.689667
        ]
      },
      "properties": {
        "id": "35501",
        "call_sign": "KQED-FM",
        "frequency": "88.5  MHz",
        "service": "FM",
        "owner": "KQED INC.",
        "city": "SAN FRANCISCO",
        "state": "CA"
      }
    },
    {
      "type": "Feature",
      "geometry": {
        "type": "Point",
        "coordinates": [
          -121.987806,
          38.02125
        ]
      },
      "properties": {
        "id": "791427",
        "call_sign": "KQED-FM5",
        "frequency": "88.5  MHz",
        "service": "FB",
        "owner": "KQED INC.",
        "city": "SAN FRANCISCO",
        "state": "CA"
      }
    },
    {
      "type": "Feature",
      "geometry": {
        "type": "Point",
        "coordinates": [
          -122.220861,
          37.882361
        ]
      },
      "properties": {
        "id": "789869",
        "call_sign": "KQED-FM1",
        "frequency": "88.5  MHz",
        "service": "FB",
        "owner": "KQED INC.",
        "city": "SAN FRANCISCO",
        "state": "CA"
      }
    },
    {
      "type": "Feature",
      "geometry": {
        "type": "Point",
        "coordinates": [
          -122.452778,
          37.755278
        ]
      },
      "properties": {
        "id": "35501",
        "call_sign": "KQED-FM",
        "frequency": "88.5  MHz",
        "service": "FS",
        "owner": "KQED INC.",
        "city": "SAN FRANCISCO",
        "state": "CA"
      }
    },
    {
      "type": "Feature",
      "geometry": {
        "type": "Point",
        "coordinates": [
          -120.656556,
          35.36025
        ]
      },
      "properties": {
        "id": "52246",
        "call_sign": "KARQ",
        "frequency": "88.5  MHz",
        "service": "FM",
        "owner": "K-LOVE, INC.",
        "city": "SAN LUIS OBISPO",
        "state": "CA"
      }
    },
    {
      "type": "Feature",
      "geometry": {
        "type": "Point",
        "coordinates": [
          -119.565556,
          36.204444
        ]
      },
      "properties": {
        "id": "89071",
        "call_sign": "KAWF",
        "frequency": "88.5  MHz",
        "service": "FM",
        "owner": "K-LOVE, INC.",
        "city": "SELMA",
        "state": "CA"
      }
    },
    {
      "type": "Feature",
      "geometry": {
        "type": "Point",
        "coordinates": [
          -117.28975,
          34.611083
        ]
      },
      "properties": {
        "id": "20539",
        "call_sign": "KHMS",
        "frequency": "88.5  MHz",
        "service": "FM",
        "owner": "FAITH COMMUNICATIONS CORP.",
        "city": "VICTORVILLE",
        "state": "CA"
      }
    },
    {
      "type": "Feature",
      "geometry": {
        "type": "Point",
        "coordinates": [
          -118.416639,
          34.061611
        ]
      },
      "properties": {
        "id": "137504",
        "call_sign": "KCSN-FM1",
        "frequency": "88.5  MHz",
        "service": "FB",
        "owner": "CALIFORNIA STATE UNIVERSITY, NORTHRIDGE",
        "city": "WEST LOS ANGELES",
        "state": "CA"
      }
    },
    {
      "type": "Feature",
      "geometry": {
        "type": "Point",
        "coordinates": [
          -121.6425,
          38.555556
        ]
      },
      "properties": {
        "id": "788278",
        "call_sign": "NEW",
        "frequency": "88.5  MHz",
        "service": "FL",
        "owner": "ATHEIST AND OTHER FREETHINKERS",
        "city": "WEST SACRAMENTO",
        "state": "CA"
      }
    },
    {
      "type": "Feature",
      "geometry": {
        "type": "Point",
        "coordinates": [
          -120.870806,
          40.33725
        ]
      },
      "properties": {
        "id": "124890",
        "call_sign": "KWLK",
        "frequency": "88.5  MHz",
        "service": "FM",
        "owner": "CALVARY CHAPEL OF SUSANVILLE",
        "city": "WESTWOOD",
        "state": "CA"
      }
    },
    {
      "type": "Feature",
      "geometry": {
        "type": "Point",
        "coordinates": [
          -118.320611,
          33.34225
        ]
      },
      "properties": {
        "id": "65567",
        "call_sign": "KISL",
        "frequency": "88.7  MHz",
        "service": "FM",
        "owner": "CATALINA ISLAND PERFORMING ARTS FOUNDATION",
        "city": "AVALON",
        "state": "CA"
      }
    },
    {
      "type": "Feature",
      "geometry": {
        "type": "Point",
        "coordinates": [
          -116.969472,
          34.036944
        ]
      },
      "properties": {
        "id": "35599",
        "call_sign": "K204GG",
        "frequency": "88.7  MHz",
        "service": "FX",
        "owner": "GOOD NEWS RADIO",
        "city": "BANNING",
        "state": "CA"
      }
    },
    {
      "type": "Feature",
      "geometry": {
        "type": "Point",
        "coordinates": [
          -116.835306,
          34.235833
        ]
      },
      "properties": {
        "id": "175096",
        "call_sign": "KFHM",
        "frequency": "88.7  MHz",
        "service": "FM",
        "owner": "ADVANCE MINISTRIES, INC.",
        "city": "BIG BEAR CITY",
        "state": "CA"
      }
    },
    {
      "type": "Feature",
      "geometry": {
        "type": "Point",
        "coordinates": [
          -116.856589,
          34.271183
        ]
      },
      "properties": {
        "id": "175096",
        "call_sign": "KFHM",
        "frequency": "88.7  MHz",
        "service": "FM",
        "owner": "ADVANCE MINISTRIES, INC.",
        "city": "BIG BEAR CITY",
        "state": "CA"
      }
    },
    {
      "type": "Feature",
      "geometry": {
        "type": "Point",
        "coordinates": [
          -115.839444,
          32.958056
        ]
      },
      "properties": {
        "id": "54495",
        "call_sign": "KUBO",
        "frequency": "88.7  MHz",
        "service": "FM",
        "owner": "RADIO BILINGUE, INC.",
        "city": "CALEXICO",
        "state": "CA"
      }
    },
    {
      "type": "Feature",
      "geometry": {
        "type": "Point",
        "coordinates": [
          -115.504167,
          32.799222
        ]
      },
      "properties": {
        "id": "54495",
        "call_sign": "KUBO",
        "frequency": "88.7  MHz",
        "service": "FM",
        "owner": "RADIO BILINGUE, INC.",
        "city": "CALEXICO",
        "state": "CA"
      }
    },
    {
      "type": "Feature",
      "geometry": {
        "type": "Point",
        "coordinates": [
          -121.68025,
          39.726833
        ]
      },
      "properties": {
        "id": "92862",
        "call_sign": "K204DK",
        "frequency": "88.7  MHz",
        "service": "FX",
        "owner": "CSN INTERNATIONAL",
        "city": "CHICO",
        "state": "CA"
      }
    },
    {
      "type": "Feature",
      "geometry": {
        "type": "Point",
        "coordinates": [
          -117.722278,
          34.1425
        ]
      },
      "properties": {
        "id": "52922",
        "call_sign": "KSPC",
        "frequency": "88.7  MHz",
        "service": "FM",
        "owner": "POMONA COLLEGE",
        "city": "CLAREMONT",
        "state": "CA"
      }
    },
    {
      "type": "Feature",
      "geometry": {
        "type": "Point",
        "coordinates": [
          -117.085889,
          36.218278
        ]
      },
      "properties": {
        "id": "16262",
        "call_sign": "K204BW",
        "frequency": "88.7  MHz",
        "service": "FX",
        "owner": "DEATH VALLEY NATURAL HISTORY ASSOCIATION",
        "city": "DEATH VALLEY, ETC.",
        "state": "CA"
      }
    },
    {
      "type": "Feature",
      "geometry": {
        "type": "Point",
        "coordinates": [
          -124.286139,
          40.500667
        ]
      },
      "properties": {
        "id": "34543",
        "call_sign": "K204GA",
        "frequency": "88.7  MHz",
        "service": "FX",
        "owner": "CALIFORNIA STATE POLYTECHNIC UNIVERSITY, HUMBOLDT",
        "city": "FERNDALE, ETC.",
        "state": "CA"
      }
    },
    {
      "type": "Feature",
      "geometry": {
        "type": "Point",
        "coordinates": [
          -123.14,
          38.930556
        ]
      },
      "properties": {
        "id": "88397",
        "call_sign": "KORB",
        "frequency": "88.7  MHz",
        "service": "FM",
        "owner": "ONE MINISTRIES, INC.",
        "city": "HOPLAND",
        "state": "CA"
      }
    },
    {
      "type": "Feature",
      "geometry": {
        "type": "Point",
        "coordinates": [
          -123.141917,
          38.931778
        ]
      },
      "properties": {
        "id": "88397",
        "call_sign": "KORB",
        "frequency": "88.7  MHz",
        "service": "FM",
        "owner": "ONE MINISTRIES, INC.",
        "city": "HOPLAND",
        "state": "CA"
      }
    },
    {
      "type": "Feature",
      "geometry": {
        "type": "Point",
        "coordinates": [
          -116.389806,
          34.153028
        ]
      },
      "properties": {
        "id": "768181",
        "call_sign": "KXAO",
        "frequency": "88.7  MHz",
        "service": "FM",
        "owner": "CSN INTERNATIONAL, INC.",
        "city": "JOSHUA TREE",
        "state": "CA"
      }
    },
    {
      "type": "Feature",
      "geometry": {
        "type": "Point",
        "coordinates": [
          -120.025722,
          37.533278
        ]
      },
      "properties": {
        "id": "54493",
        "call_sign": "KMPO",
        "frequency": "88.7  MHz",
        "service": "FM",
        "owner": "RADIO BILINGUE, INC.",
        "city": "MODESTO",
        "state": "CA"
      }
    },
    {
      "type": "Feature",
      "geometry": {
        "type": "Point",
        "coordinates": [
          -119.677889,
          34.46525
        ]
      },
      "properties": {
        "id": "69085",
        "call_sign": "KDRW",
        "frequency": "88.7  MHz",
        "service": "FM",
        "owner": "SANTA MONICA COMMUNITY COLLEGE DISTRICT",
        "city": "SANTA BARBARA",
        "state": "CA"
      }
    },
    {
      "type": "Feature",
      "geometry": {
        "type": "Point",
        "coordinates": [
          -121.8205,
          39.205444
        ]
      },
      "properties": {
        "id": "91702",
        "call_sign": "KXJS",
        "frequency": "88.7  MHz",
        "service": "FM",
        "owner": "CALIFORNIA STATE UNIVERSITY, SACRAMENTO",
        "city": "SUTTER",
        "state": "CA"
      }
    },
    {
      "type": "Feature",
      "geometry": {
        "type": "Point",
        "coordinates": [
          -118.591194,
          35.453
        ]
      },
      "properties": {
        "id": "122216",
        "call_sign": "KBLV",
        "frequency": "88.7  MHz",
        "service": "FM",
        "owner": "K-LOVE, INC.",
        "city": "TEHACHAPI",
        "state": "CA"
      }
    },
    {
      "type": "Feature",
      "geometry": {
        "type": "Point",
        "coordinates": [
          -122.776417,
          41.734556
        ]
      },
      "properties": {
        "id": "92613",
        "call_sign": "K204DM",
        "frequency": "88.7  MHz",
        "service": "FX",
        "owner": "CSN INTERNATIONAL",
        "city": "YREKA",
        "state": "CA"
      }
    },
    {
      "type": "Feature",
      "geometry": {
        "type": "Point",
        "coordinates": [
          -120.622778,
          41.499167
        ]
      },
      "properties": {
        "id": "764441",
        "call_sign": "KBVD",
        "frequency": "88.9  MHz",
        "service": "FM",
        "owner": "OPEN SKY RADIO CORP",
        "city": "ALTURAS",
        "state": "CA"
      }
    },
    {
      "type": "Feature",
      "geometry": {
        "type": "Point",
        "coordinates": [
          -121.019083,
          40.232611
        ]
      },
      "properties": {
        "id": "92074",
        "call_sign": "K205EJ",
        "frequency": "88.9  MHz",
        "service": "FX",
        "owner": "CSN INTERNATIONAL, INC.",
        "city": "CHESTER",
        "state": "CA"
      }
    },
    {
      "type": "Feature",
      "geometry": {
        "type": "Point",
        "coordinates": [
          -121.020778,
          40.233194
        ]
      },
      "properties": {
        "id": "92074",
        "call_sign": "K205EJ",
        "frequency": "88.9  MHz",
        "service": "FX",
        "owner": "CSN INTERNATIONAL, INC.",
        "city": "CHESTER",
        "state": "CA"
      }
    },
    {
      "type": "Feature",
      "geometry": {
        "type": "Point",
        "coordinates": [
          -116.225833,
          33.801694
        ]
      },
      "properties": {
        "id": "94146",
        "call_sign": "K205DT",
        "frequency": "88.9  MHz",
        "service": "FX",
        "owner": "CSN INTERNATIONAL, INC.",
        "city": "INDIO",
        "state": "CA"
      }
    },
    {
      "type": "Feature",
      "geometry": {
        "type": "Point",
        "coordinates": [
          -117.844222,
          33.64475
        ]
      },
      "properties": {
        "id": "55570",
        "call_sign": "KUCI",
        "frequency": "88.9  MHz",
        "service": "FM",
        "owner": "REGENTS OF THE UNIVERSITY OF CALIFORNIA",
        "city": "IRVINE",
        "state": "CA"
      }
    },
    {
      "type": "Feature",
      "geometry": {
        "type": "Point",
        "coordinates": [
          -120.9325,
          35.777222
        ]
      },
      "properties": {
        "id": "766225",
        "call_sign": "-",
        "frequency": "88.9  MHz",
        "service": "FM",
        "owner": "CENTRO FAMILIAR DE RESTAURACION Y VIDA",
        "city": "LAKE NACIMIENTO",
        "state": "CA"
      }
    },
    {
      "type": "Feature",
      "geometry": {
        "type": "Point",
        "coordinates": [
          -118.157028,
          34.850806
        ]
      },
      "properties": {
        "id": "37813",
        "call_sign": "KTLW",
        "frequency": "88.9  MHz",
        "service": "FM",
        "owner": "K-LOVE, INC.",
        "city": "LANCASTER",
        "state": "CA"
      }
    },
    {
      "type": "Feature",
      "geometry": {
        "type": "Point",
        "coordinates": [
          -118.416472,
          33.971111
        ]
      },
      "properties": {
        "id": "38938",
        "call_sign": "KXLU",
        "frequency": "88.9  MHz",
        "service": "FM",
        "owner": "LOYOLA MARYMOUNT UNIVERSITY",
        "city": "LOS ANGELES",
        "state": "CA"
      }
    },
    {
      "type": "Feature",
      "geometry": {
        "type": "Point",
        "coordinates": [
          -121.909944,
          37.159667
        ]
      },
      "properties": {
        "id": "18797",
        "call_sign": "K205BN",
        "frequency": "88.9  MHz",
        "service": "FX",
        "owner": "K-LOVE, INC.",
        "city": "LOS GATOS",
        "state": "CA"
      }
    },
    {
      "type": "Feature",
      "geometry": {
        "type": "Point",
        "coordinates": [
          -120.402639,
          34.835528
        ]
      },
      "properties": {
        "id": "174137",
        "call_sign": "KXWB",
        "frequency": "88.9  MHz",
        "service": "FM",
        "owner": "IGLESIA DE DIOS, EL CUERPO DE CRISTO",
        "city": "NIPOMO",
        "state": "CA"
      }
    },
    {
      "type": "Feature",
      "geometry": {
        "type": "Point",
        "coordinates": [
          -122.233278,
          37.881861
        ]
      },
      "properties": {
        "id": "18788",
        "call_sign": "K205BM",
        "frequency": "88.9  MHz",
        "service": "FX",
        "owner": "K-LOVE, INC.",
        "city": "OAKLAND",
        "state": "CA"
      }
    },
    {
      "type": "Feature",
      "geometry": {
        "type": "Point",
        "coordinates": [
          -122.650556,
          40.602639
        ]
      },
      "properties": {
        "id": "66567",
        "call_sign": "KFPR",
        "frequency": "88.9  MHz",
        "service": "FM",
        "owner": "CHICO STATE ENTERPRISES",
        "city": "REDDING",
        "state": "CA"
      }
    },
    {
      "type": "Feature",
      "geometry": {
        "type": "Point",
        "coordinates": [
          -121.255222,
          38.492306
        ]
      },
      "properties": {
        "id": "8358",
        "call_sign": "KXPR",
        "frequency": "88.9  MHz",
        "service": "FM",
        "owner": "CALIFORNIA STATE UNIVERSITY, SACRAMENTO",
        "city": "SACRAMENTO",
        "state": "CA"
      }
    },
    {
      "type": "Feature",
      "geometry": {
        "type": "Point",
        "coordinates": [
          -118.599806,
          34.329972
        ]
      },
      "properties": {
        "id": "93751",
        "call_sign": "K205EP",
        "frequency": "88.9  MHz",
        "service": "FX",
        "owner": "K-LOVE, INC.",
        "city": "SANTA CLARITA",
        "state": "CA"
      }
    },
    {
      "type": "Feature",
      "geometry": {
        "type": "Point",
        "coordinates": [
          -121.621583,
          36.534667
        ]
      },
      "properties": {
        "id": "51718",
        "call_sign": "KLVM",
        "frequency": "88.9  MHz",
        "service": "FM",
        "owner": "K-LOVE, INC.",
        "city": "SANTA CRUZ",
        "state": "CA"
      }
    },
    {
      "type": "Feature",
      "geometry": {
        "type": "Point",
        "coordinates": [
          -120.643833,
          40.4435
        ]
      },
      "properties": {
        "id": "8422",
        "call_sign": "K205EK",
        "frequency": "88.9  MHz",
        "service": "FX",
        "owner": "CSN INTERNATIONAL INC.",
        "city": "SUSANVILLE",
        "state": "CA"
      }
    },
    {
      "type": "Feature",
      "geometry": {
        "type": "Point",
        "coordinates": [
          -116.936111,
          33.369472
        ]
      },
      "properties": {
        "id": "52141",
        "call_sign": "KSDW",
        "frequency": "88.9  MHz",
        "service": "FM",
        "owner": "K-LOVE, INC.",
        "city": "TEMECULA",
        "state": "CA"
      }
    },
    {
      "type": "Feature",
      "geometry": {
        "type": "Point",
        "coordinates": [
          -116.972222,
          33.008917
        ]
      },
      "properties": {
        "id": "52141",
        "call_sign": "KSDW",
        "frequency": "88.9  MHz",
        "service": "FM",
        "owner": "K-LOVE, INC.",
        "city": "TEMECULA",
        "state": "CA"
      }
    },
    {
      "type": "Feature",
      "geometry": {
        "type": "Point",
        "coordinates": [
          -117.288361,
          34.61025
        ]
      },
      "properties": {
        "id": "76689",
        "call_sign": "K212EK",
        "frequency": "88.9  MHz",
        "service": "FX",
        "owner": "CSN INTERNATIONAL",
        "city": "VICTORVILLE",
        "state": "CA"
      }
    },
    {
      "type": "Feature",
      "geometry": {
        "type": "Point",
        "coordinates": [
          -118.838972,
          36.287167
        ]
      },
      "properties": {
        "id": "12912",
        "call_sign": "KDUV",
        "frequency": "88.9  MHz",
        "service": "FM",
        "owner": "COMMUNITY EDUCATIONAL BROADCASTNG, INC.",
        "city": "VISALIA",
        "state": "CA"
      }
    },
    {
      "type": "Feature",
      "geometry": {
        "type": "Point",
        "coordinates": [
          -119.385,
          36.330556
        ]
      },
      "properties": {
        "id": "12912",
        "call_sign": "KDUV",
        "frequency": "88.9  MHz",
        "service": "FS",
        "owner": "COMMUNITY EDUCATIONAL BROADCASTNG, INC.",
        "city": "VISALIA",
        "state": "CA"
      }
    },
    {
      "type": "Feature",
      "geometry": {
        "type": "Point",
        "coordinates": [
          -116.343056,
          34.081944
        ]
      },
      "properties": {
        "id": "92058",
        "call_sign": "K205DK",
        "frequency": "88.9  MHz",
        "service": "FX",
        "owner": "EDUCATIONAL RADIO FOUNDATION OF EAST TEXAS, INC.",
        "city": "YUCCA VALLEY",
        "state": "CA"
      }
    },
    {
      "type": "Feature",
      "geometry": {
        "type": "Point",
        "coordinates": [
          -116.343056,
          34.081944
        ]
      },
      "properties": {
        "id": "92058",
        "call_sign": "K205DK",
        "frequency": "88.9  MHz",
        "service": "FX",
        "owner": "EDUCATIONAL RADIO FOUNDATION OF EAST TEXAS, INC.",
        "city": "YUCCA VALLEY",
        "state": "CA"
      }
    },
    {
      "type": "Feature",
      "geometry": {
        "type": "Point",
        "coordinates": [
          -122.2755,
          37.492139
        ]
      },
      "properties": {
        "id": "41168",
        "call_sign": "KCEA",
        "frequency": "89.1  MHz",
        "service": "FM",
        "owner": "SEQUOIA UNION HIGH SCHOOL DISTRICT",
        "city": "ATHERTON",
        "state": "CA"
      }
    },
    {
      "type": "Feature",
      "geometry": {
        "type": "Point",
        "coordinates": [
          -118.889806,
          35.486056
        ]
      },
      "properties": {
        "id": "72186",
        "call_sign": "KPRX",
        "frequency": "89.1  MHz",
        "service": "FM",
        "owner": "WHITE ASH BROADCASTING, INC.",
        "city": "BAKERSFIELD",
        "state": "CA"
      }
    },
    {
      "type": "Feature",
      "geometry": {
        "type": "Point",
        "coordinates": [
          -117.040167,
          34.970833
        ]
      },
      "properties": {
        "id": "122214",
        "call_sign": "KODV",
        "frequency": "89.1  MHz",
        "service": "FM",
        "owner": "EDUCATIONAL RADIO FOUNDATION OF EAST TEXAS, INC.",
        "city": "BARSTOW",
        "state": "CA"
      }
    },
    {
      "type": "Feature",
      "geometry": {
        "type": "Point",
        "coordinates": [
          -122.616083,
          38.656278
        ]
      },
      "properties": {
        "id": "5310",
        "call_sign": "KBBF",
        "frequency": "89.1  MHz",
        "service": "FM",
        "owner": "BILINGUAL BROADCASTING FOUNDATION, INC.",
        "city": "CALISTOGA",
        "state": "CA"
      }
    },
    {
      "type": "Feature",
      "geometry": {
        "type": "Point",
        "coordinates": [
          -122.795028,
          41.27375
        ]
      },
      "properties": {
        "id": "62984",
        "call_sign": "K206AN",
        "frequency": "89.1  MHz",
        "service": "FX",
        "owner": "SOUTHERN OREGON UNIVERSITY",
        "city": "CALLAHAN",
        "state": "CA"
      }
    },
    {
      "type": "Feature",
      "geometry": {
        "type": "Point",
        "coordinates": [
          -121.68025,
          39.726833
        ]
      },
      "properties": {
        "id": "20732",
        "call_sign": "KHAP",
        "frequency": "89.1  MHz",
        "service": "FM",
        "owner": "LOAM MEDIA, INC.",
        "city": "CHICO",
        "state": "CA"
      }
    },
    {
      "type": "Feature",
      "geometry": {
        "type": "Point",
        "coordinates": [
          -123.877,
          41.830389
        ]
      },
      "properties": {
        "id": "62070",
        "call_sign": "K206AE",
        "frequency": "89.1  MHz",
        "service": "FX",
        "owner": "SOUTHERN OREGON UNIVERSITY",
        "city": "CRESCENT CITY",
        "state": "CA"
      }
    },
    {
      "type": "Feature",
      "geometry": {
        "type": "Point",
        "coordinates": [
          -116.419722,
          32.891972
        ]
      },
      "properties": {
        "id": "172605",
        "call_sign": "KNSJ",
        "frequency": "89.1  MHz",
        "service": "FM",
        "owner": "ACTIVIST SAN DIEGO",
        "city": "DESCANSO",
        "state": "CA"
      }
    },
    {
      "type": "Feature",
      "geometry": {
        "type": "Point",
        "coordinates": [
          -123.693083,
          40.120417
        ]
      },
      "properties": {
        "id": "89457",
        "call_sign": "KADV",
        "frequency": "89.1  MHz",
        "service": "FM",
        "owner": "GROWING TRUTH MINISTRIES INC.",
        "city": "GARBERVILLE",
        "state": "CA"
      }
    },
    {
      "type": "Feature",
      "geometry": {
        "type": "Point",
        "coordinates": [
          -115.034583,
          32.98575
        ]
      },
      "properties": {
        "id": "766663",
        "call_sign": "KUMI",
        "frequency": "89.1  MHz",
        "service": "FM",
        "owner": "ACTIVIST SAN DIEGO",
        "city": "GLAMIS",
        "state": "CA"
      }
    },
    {
      "type": "Feature",
      "geometry": {
        "type": "Point",
        "coordinates": [
          -121.502722,
          36.756083
        ]
      },
      "properties": {
        "id": "51715",
        "call_sign": "K206BQ",
        "frequency": "89.1  MHz",
        "service": "FX",
        "owner": "K-LOVE, INC.",
        "city": "HOLLISTER",
        "state": "CA"
      }
    },
    {
      "type": "Feature",
      "geometry": {
        "type": "Point",
        "coordinates": [
          -117.755056,
          33.550306
        ]
      },
      "properties": {
        "id": "58524",
        "call_sign": "K206AA",
        "frequency": "89.1  MHz",
        "service": "FX",
        "owner": "SOUTH ORANGE COUNTY COMMUNITY COLLEGE DISTRICT",
        "city": "LAGUNA BEACH",
        "state": "CA"
      }
    },
    {
      "type": "Feature",
      "geometry": {
        "type": "Point",
        "coordinates": [
          -120.847694,
          37.579389
        ]
      },
      "properties": {
        "id": "63466",
        "call_sign": "KCJH",
        "frequency": "89.1  MHz",
        "service": "FM",
        "owner": "YOUR CHRISTIAN COMPANION NETWORK, INC.",
        "city": "LIVINGSTON",
        "state": "CA"
      }
    },
    {
      "type": "Feature",
      "geometry": {
        "type": "Point",
        "coordinates": [
          -119.060389,
          34.113056
        ]
      },
      "properties": {
        "id": "59085",
        "call_sign": "KCRU",
        "frequency": "89.1  MHz",
        "service": "FM",
        "owner": "SANTA MONICA COMMUNITY COLLEGE DISTRICT",
        "city": "OXNARD",
        "state": "CA"
      }
    },
    {
      "type": "Feature",
      "geometry": {
        "type": "Point",
        "coordinates": [
          -119.060389,
          34.113056
        ]
      },
      "properties": {
        "id": "59085",
        "call_sign": "KCRU",
        "frequency": "89.1  MHz",
        "service": "FM",
        "owner": "SANTA MONICA COMMUNITY COLLEGE DISTRICT",
        "city": "OXNARD",
        "state": "CA"
      }
    },
    {
      "type": "Feature",
      "geometry": {
        "type": "Point",
        "coordinates": [
          -119.060389,
          34.113056
        ]
      },
      "properties": {
        "id": "59085",
        "call_sign": "KCRU",
        "frequency": "89.1  MHz",
        "service": "FS",
        "owner": "SANTA MONICA COMMUNITY COLLEGE DISTRICT",
        "city": "OXNARD",
        "state": "CA"
      }
    },
    {
      "type": "Feature",
      "geometry": {
        "type": "Point",
        "coordinates": [
          -117.048889,
          34.196389
        ]
      },
      "properties": {
        "id": "69217",
        "call_sign": "KUOR-FM",
        "frequency": "89.1  MHz",
        "service": "FM",
        "owner": "UNIVERSITY OF REDLANDS",
        "city": "REDLANDS",
        "state": "CA"
      }
    },
    {
      "type": "Feature",
      "geometry": {
        "type": "Point",
        "coordinates": [
          -117.163361,
          34.059722
        ]
      },
      "properties": {
        "id": "69217",
        "call_sign": "KUOR-FM",
        "frequency": "89.1  MHz",
        "service": "FS",
        "owner": "UNIVERSITY OF REDLANDS",
        "city": "REDLANDS",
        "state": "CA"
      }
    },
    {
      "type": "Feature",
      "geometry": {
        "type": "Point",
        "coordinates": [
          -117.16475,
          34.061667
        ]
      },
      "properties": {
        "id": "69217",
        "call_sign": "KUOR-FM",
        "frequency": "89.1  MHz",
        "service": "FS",
        "owner": "UNIVERSITY OF REDLANDS",
        "city": "REDLANDS",
        "state": "CA"
      }
    },
    {
      "type": "Feature",
      "geometry": {
        "type": "Point",
        "coordinates": [
          -117.276694,
          32.846139
        ]
      },
      "properties": {
        "id": "62951",
        "call_sign": "K206AC",
        "frequency": "89.1  MHz",
        "service": "FX",
        "owner": "BOARD OF TRUSTEES, CALIFORNIA STATE UNIVERSITY FOR SAN DIEGO STATE UNIVERSITY",
        "city": "SAN DIEGO",
        "state": "CA"
      }
    },
    {
      "type": "Feature",
      "geometry": {
        "type": "Point",
        "coordinates": [
          -117.276417,
          32.848083
        ]
      },
      "properties": {
        "id": "62951",
        "call_sign": "K206AC",
        "frequency": "89.1  MHz",
        "service": "FX",
        "owner": "BOARD OF TRUSTEES, CALIFORNIA STATE UNIVERSITY FOR SAN DIEGO STATE UNIVERSITY",
        "city": "SAN DIEGO",
        "state": "CA"
      }
    },
    {
      "type": "Feature",
      "geometry": {
        "type": "Point",
        "coordinates": [
          -123.233333,
          39.115722
        ]
      },
      "properties": {
        "id": "91893",
        "call_sign": "K206DF",
        "frequency": "89.1  MHz",
        "service": "FX",
        "owner": "CSN INTERNATIONAL",
        "city": "TALMAGE",
        "state": "CA"
      }
    },
    {
      "type": "Feature",
      "geometry": {
        "type": "Point",
        "coordinates": [
          -118.500611,
          33.440722
        ]
      },
      "properties": {
        "id": "175014",
        "call_sign": "KCFH",
        "frequency": "89.1  MHz",
        "service": "FM",
        "owner": "COMMON FREQUENCY, INC",
        "city": "TWO HARBORS",
        "state": "CA"
      }
    },
    {
      "type": "Feature",
      "geometry": {
        "type": "Point",
        "coordinates": [
          -122.272722,
          37.872139
        ]
      },
      "properties": {
        "id": "51243",
        "call_sign": "KPFB",
        "frequency": "89.3  MHz",
        "service": "FM",
        "owner": "PACIFICA FOUNDATION, INC.",
        "city": "BERKELEY",
        "state": "CA"
      }
    },
    {
      "type": "Feature",
      "geometry": {
        "type": "Point",
        "coordinates": [
          -114.350222,
          33.577806
        ]
      },
      "properties": {
        "id": "67809",
        "call_sign": "K207AN",
        "frequency": "89.3  MHz",
        "service": "FX",
        "owner": "ADVANCED MINISTRIES, INC.",
        "city": "BLYTHE",
        "state": "CA"
      }
    },
    {
      "type": "Feature",
      "geometry": {
        "type": "Point",
        "coordinates": [
          -122.103861,
          37.12075
        ]
      },
      "properties": {
        "id": "175847",
        "call_sign": "KBCZ",
        "frequency": "89.3  MHz",
        "service": "FM",
        "owner": "BOULDER CREEK RECREATION & PARK DISTRICT",
        "city": "BOULDER CREEK",
        "state": "CA"
      }
    },
    {
      "type": "Feature",
      "geometry": {
        "type": "Point",
        "coordinates": [
          -122.121986,
          37.125278
        ]
      },
      "properties": {
        "id": "175847",
        "call_sign": "KBCZ",
        "frequency": "89.3  MHz",
        "service": "FS",
        "owner": "BOULDER CREEK RECREATION & PARK DISTRICT",
        "city": "BOULDER CREEK",
        "state": "CA"
      }
    },
    {
      "type": "Feature",
      "geometry": {
        "type": "Point",
        "coordinates": [
          -121.771639,
          40.875139
        ]
      },
      "properties": {
        "id": "91484",
        "call_sign": "K207ER",
        "frequency": "89.3  MHz",
        "service": "FX",
        "owner": "CSN INTERNATIONAL",
        "city": "BURNEY",
        "state": "CA"
      }
    },
    {
      "type": "Feature",
      "geometry": {
        "type": "Point",
        "coordinates": [
          -120.092139,
          41.636833
        ]
      },
      "properties": {
        "id": "90662",
        "call_sign": "K207CR",
        "frequency": "89.3  MHz",
        "service": "FX",
        "owner": "PACIFIC CASCADE COMMUNICATIONS CORPORATION",
        "city": "CEDARVILLE",
        "state": "CA"
      }
    },
    {
      "type": "Feature",
      "geometry": {
        "type": "Point",
        "coordinates": [
          -121.94775,
          40.344583
        ]
      },
      "properties": {
        "id": "78615",
        "call_sign": "K207CE",
        "frequency": "89.3  MHz",
        "service": "FX",
        "owner": "CSN INTERNATIONAL, INC.",
        "city": "COTTONWOOD",
        "state": "CA"
      }
    },
    {
      "type": "Feature",
      "geometry": {
        "type": "Point",
        "coordinates": [
          -121.9475,
          40.344722
        ]
      },
      "properties": {
        "id": "78615",
        "call_sign": "K207CE",
        "frequency": "89.3  MHz",
        "service": "FX",
        "owner": "CSN INTERNATIONAL, INC.",
        "city": "COTTONWOOD",
        "state": "CA"
      }
    },
    {
      "type": "Feature",
      "geometry": {
        "type": "Point",
        "coordinates": [
          -121.904944,
          37.537139
        ]
      },
      "properties": {
        "id": "22626",
        "call_sign": "KOHL",
        "frequency": "89.3  MHz",
        "service": "FM",
        "owner": "FREMONT-NEWARK COMMUNITY COLLEGE DISTRICT",
        "city": "FREMONT",
        "state": "CA"
      }
    },
    {
      "type": "Feature",
      "geometry": {
        "type": "Point",
        "coordinates": [
          -119.432056,
          37.073556
        ]
      },
      "properties": {
        "id": "72188",
        "call_sign": "KVPR",
        "frequency": "89.3  MHz",
        "service": "FM",
        "owner": "WHITE ASH BROADCASTING, INC.",
        "city": "FRESNO",
        "state": "CA"
      }
    },
    {
      "type": "Feature",
      "geometry": {
        "type": "Point",
        "coordinates": [
          -119.667194,
          36.84525
        ]
      },
      "properties": {
        "id": "72188",
        "call_sign": "KVPR",
        "frequency": "89.3  MHz",
        "service": "FS",
        "owner": "WHITE ASH BROADCASTING, INC.",
        "city": "FRESNO",
        "state": "CA"
      }
    },
    {
      "type": "Feature",
      "geometry": {
        "type": "Point",
        "coordinates": [
          -121.019944,
          40.232917
        ]
      },
      "properties": {
        "id": "92527",
        "call_sign": "KPJP",
        "frequency": "89.3  MHz",
        "service": "FM",
        "owner": "RELEVANT RADIO, INC.",
        "city": "GREENVILLE",
        "state": "CA"
      }
    },
    {
      "type": "Feature",
      "geometry": {
        "type": "Point",
        "coordinates": [
          -116.224972,
          33.801611
        ]
      },
      "properties": {
        "id": "59087",
        "call_sign": "KCRI",
        "frequency": "89.3  MHz",
        "service": "FM",
        "owner": "SANTA MONICA COMMUNITY COLLEGE DISTRICT",
        "city": "INDIO",
        "state": "CA"
      }
    },
    {
      "type": "Feature",
      "geometry": {
        "type": "Point",
        "coordinates": [
          -122.444722,
          40.907361
        ]
      },
      "properties": {
        "id": "91286",
        "call_sign": "K207CT",
        "frequency": "89.3  MHz",
        "service": "FX",
        "owner": "CSN INTERNATIONAL",
        "city": "LAKEHEAD",
        "state": "CA"
      }
    },
    {
      "type": "Feature",
      "geometry": {
        "type": "Point",
        "coordinates": [
          -118.559528,
          35.705778
        ]
      },
      "properties": {
        "id": "106681",
        "call_sign": "K207DJ",
        "frequency": "89.3  MHz",
        "service": "FX",
        "owner": "CSN INTERNATIONAL",
        "city": "LAKE ISABELLA",
        "state": "CA"
      }
    },
    {
      "type": "Feature",
      "geometry": {
        "type": "Point",
        "coordinates": [
          -121.110028,
          37.898722
        ]
      },
      "properties": {
        "id": "90988",
        "call_sign": "KCAI",
        "frequency": "89.3  MHz",
        "service": "FM",
        "owner": "K-LOVE, INC.",
        "city": "LINDEN",
        "state": "CA"
      }
    },
    {
      "type": "Feature",
      "geometry": {
        "type": "Point",
        "coordinates": [
          -124.002556,
          40.825417
        ]
      },
      "properties": {
        "id": "89458",
        "call_sign": "KNDZ",
        "frequency": "89.3  MHz",
        "service": "FM",
        "owner": "PACIFIC CASCADE COMMUNICATIONS CORPORATION",
        "city": "MCKINLEYVILLE",
        "state": "CA"
      }
    },
    {
      "type": "Feature",
      "geometry": {
        "type": "Point",
        "coordinates": [
          -123.783611,
          39.312667
        ]
      },
      "properties": {
        "id": "41164",
        "call_sign": "KAKX",
        "frequency": "89.3  MHz",
        "service": "FM",
        "owner": "MENDOCINO UNIFIED SCHOOL DISTRICT",
        "city": "MENDOCINO",
        "state": "CA"
      }
    },
    {
      "type": "Feature",
      "geometry": {
        "type": "Point",
        "coordinates": [
          -122.4805,
          37.562222
        ]
      },
      "properties": {
        "id": "91795",
        "call_sign": "KMVS",
        "frequency": "89.3  MHz",
        "service": "FM",
        "owner": "K-LOVE, INC.",
        "city": "MOSS BEACH",
        "state": "CA"
      }
    },
    {
      "type": "Feature",
      "geometry": {
        "type": "Point",
        "coordinates": [
          -121.482722,
          38.710444
        ]
      },
      "properties": {
        "id": "20791",
        "call_sign": "KQEI-FM",
        "frequency": "89.3  MHz",
        "service": "FM",
        "owner": "KQED INC.",
        "city": "NORTH HIGHLANDS",
        "state": "CA"
      }
    },
    {
      "type": "Feature",
      "geometry": {
        "type": "Point",
        "coordinates": [
          -118.067,
          34.226667
        ]
      },
      "properties": {
        "id": "51701",
        "call_sign": "KPCC",
        "frequency": "89.3  MHz",
        "service": "FM",
        "owner": "PASADENA AREA COMMUNITY COLLEGE DISTRICT",
        "city": "PASADENA",
        "state": "CA"
      }
    },
    {
      "type": "Feature",
      "geometry": {
        "type": "Point",
        "coordinates": [
          -118.196194,
          34.163222
        ]
      },
      "properties": {
        "id": "51701",
        "call_sign": "KPCC",
        "frequency": "89.3  MHz",
        "service": "FS",
        "owner": "PASADENA AREA COMMUNITY COLLEGE DISTRICT",
        "city": "PASADENA",
        "state": "CA"
      }
    },
    {
      "type": "Feature",
      "geometry": {
        "type": "Point",
        "coordinates": [
          -122.41025,
          37.244389
        ]
      },
      "properties": {
        "id": "89081",
        "call_sign": "KPDO",
        "frequency": "89.3  MHz",
        "service": "FM",
        "owner": "PESCADERO PUBLIC RADIO SERVICE, INC.",
        "city": "PESCADERO",
        "state": "CA"
      }
    },
    {
      "type": "Feature",
      "geometry": {
        "type": "Point",
        "coordinates": [
          -122.222472,
          40.158472
        ]
      },
      "properties": {
        "id": "89199",
        "call_sign": "K207CM",
        "frequency": "89.3  MHz",
        "service": "FX",
        "owner": "CENTRO CRISTIANO DE VIDA ETERNA",
        "city": "RED BLUFF",
        "state": "CA"
      }
    },
    {
      "type": "Feature",
      "geometry": {
        "type": "Point",
        "coordinates": [
          -117.700333,
          35.477472
        ]
      },
      "properties": {
        "id": "175757",
        "call_sign": "KRSF",
        "frequency": "89.3  MHz",
        "service": "FM",
        "owner": "RADIO 74 INTERNATIONALE",
        "city": "RIDGECREST",
        "state": "CA"
      }
    },
    {
      "type": "Feature",
      "geometry": {
        "type": "Point",
        "coordinates": [
          -121.862722,
          37.201611
        ]
      },
      "properties": {
        "id": "58847",
        "call_sign": "KMTG",
        "frequency": "89.3  MHz",
        "service": "FM",
        "owner": "SAN JOSE UNIFIED SCHOOL DISTRICT",
        "city": "SAN JOSE",
        "state": "CA"
      }
    },
    {
      "type": "Feature",
      "geometry": {
        "type": "Point",
        "coordinates": [
          -120.655722,
          35.36025
        ]
      },
      "properties": {
        "id": "38281",
        "call_sign": "KLFF",
        "frequency": "89.3  MHz",
        "service": "FM",
        "owner": "INTENTIONAL LIFE MEDIA",
        "city": "SAN LUIS OBISPO",
        "state": "CA"
      }
    },
    {
      "type": "Feature",
      "geometry": {
        "type": "Point",
        "coordinates": [
          -118.32925,
          34.386111
        ]
      },
      "properties": {
        "id": "178427",
        "call_sign": "KPCC-FM1",
        "frequency": "89.3  MHz",
        "service": "FB",
        "owner": "PASADENA AREA COMMUNITY COLLEGE DISTRICT",
        "city": "SANTA CLARITA",
        "state": "CA"
      }
    },
    {
      "type": "Feature",
      "geometry": {
        "type": "Point",
        "coordinates": [
          -116.197972,
          34.154194
        ]
      },
      "properties": {
        "id": "83662",
        "call_sign": "K207FA",
        "frequency": "89.3  MHz",
        "service": "FX",
        "owner": "SANTA MONICA COMMUNITY COLLEGE DISTRICT",
        "city": "TWENTYNINE PALMS",
        "state": "CA"
      }
    },
    {
      "type": "Feature",
      "geometry": {
        "type": "Point",
        "coordinates": [
          -118.470083,
          34.041472
        ]
      },
      "properties": {
        "id": "198690",
        "call_sign": "KPCC-FM2",
        "frequency": "89.3  MHz",
        "service": "FB",
        "owner": "PASADENA AREA COMMUNITY COLLEGE DISTRICT",
        "city": "WEST LOS ANGELES",
        "state": "CA"
      }
    },
    {
      "type": "Feature",
      "geometry": {
        "type": "Point",
        "coordinates": [
          -118.470083,
          34.041472
        ]
      },
      "properties": {
        "id": "198689",
        "call_sign": "KPCC-FM3",
        "frequency": "89.3  MHz",
        "service": "FB",
        "owner": "PASADENA AREA COMMUNITY COLLEGE DISTRICT",
        "city": "WEST LOS ANGELES",
        "state": "CA"
      }
    },
    {
      "type": "Feature",
      "geometry": {
        "type": "Point",
        "coordinates": [
          -122.625,
          41.609861
        ]
      },
      "properties": {
        "id": "63025",
        "call_sign": "K207BU",
        "frequency": "89.3  MHz",
        "service": "FX",
        "owner": "SOUTHERN OREGON UNIVERSITY",
        "city": "YREKA",
        "state": "CA"
      }
    },
    {
      "type": "Feature",
      "geometry": {
        "type": "Point",
        "coordinates": [
          -118.186194,
          37.411583
        ]
      },
      "properties": {
        "id": "71806",
        "call_sign": "K208BS",
        "frequency": "89.5  MHz",
        "service": "FX",
        "owner": "LAWRENCE AMUNDSEN",
        "city": "BISHOP",
        "state": "CA"
      }
    },
    {
      "type": "Feature",
      "geometry": {
        "type": "Point",
        "coordinates": [
          -120.957528,
          37.589167
        ]
      },
      "properties": {
        "id": "4938",
        "call_sign": "KBES",
        "frequency": "89.5  MHz",
        "service": "FM",
        "owner": "BET-NAHRAIN, INC.",
        "city": "CERES",
        "state": "CA"
      }
    },
    {
      "type": "Feature",
      "geometry": {
        "type": "Point",
        "coordinates": [
          -123.353639,
          41.857889
        ]
      },
      "properties": {
        "id": "93278",
        "call_sign": "K208DU",
        "frequency": "89.5  MHz",
        "service": "FX",
        "owner": "PACIFIC CASCADE COMMUNICATIONS CORPORATION",
        "city": "HAPPY CAMP",
        "state": "CA"
      }
    },
    {
      "type": "Feature",
      "geometry": {
        "type": "Point",
        "coordinates": [
          -116.198056,
          34.154167
        ]
      },
      "properties": {
        "id": "768189",
        "call_sign": "KYZZ",
        "frequency": "89.5  MHz",
        "service": "FM",
        "owner": "LA NUEVA BROADCASTING, INC.",
        "city": "JOSHUA TREE",
        "state": "CA"
      }
    },
    {
      "type": "Feature",
      "geometry": {
        "type": "Point",
        "coordinates": [
          -121.620167,
          36.534778
        ]
      },
      "properties": {
        "id": "88578",
        "call_sign": "K208GE",
        "frequency": "89.5  MHz",
        "service": "FX",
        "owner": "NATURAL BRIDGES MEDIA",
        "city": "MONTEREY",
        "state": "CA"
      }
    },
    {
      "type": "Feature",
      "geometry": {
        "type": "Point",
        "coordinates": [
          -121.758861,
          37.050722
        ]
      },
      "properties": {
        "id": "176421",
        "call_sign": "KHCF",
        "frequency": "89.5  MHz",
        "service": "FM",
        "owner": "COMMON FREQUENCY, INC.",
        "city": "MORGAN HILL",
        "state": "CA"
      }
    },
    {
      "type": "Feature",
      "geometry": {
        "type": "Point",
        "coordinates": [
          -120.964389,
          39.246278
        ]
      },
      "properties": {
        "id": "48338",
        "call_sign": "KVMR",
        "frequency": "89.5  MHz",
        "service": "FM",
        "owner": "NEVADA CITY COMMUNITY BROADCAST GROUP",
        "city": "NEVADA CITY",
        "state": "CA"
      }
    },
    {
      "type": "Feature",
      "geometry": {
        "type": "Point",
        "coordinates": [
          -120.998167,
          37.258056
        ]
      },
      "properties": {
        "id": "768408",
        "call_sign": "KCUD",
        "frequency": "89.5  MHz",
        "service": "FM",
        "owner": "MODESTO INDEPENDENT MEDIA",
        "city": "NEWMAN",
        "state": "CA"
      }
    },
    {
      "type": "Feature",
      "geometry": {
        "type": "Point",
        "coordinates": [
          -117.929778,
          33.62475
        ]
      },
      "properties": {
        "id": "58525",
        "call_sign": "K208AM",
        "frequency": "89.5  MHz",
        "service": "FX",
        "owner": "SOUTH ORANGE COUNTY COMMUNITY COLLEGE DISTRICT",
        "city": "NEWPORT BEACH",
        "state": "CA"
      }
    },
    {
      "type": "Feature",
      "geometry": {
        "type": "Point",
        "coordinates": [
          -119.187611,
          34.412417
        ]
      },
      "properties": {
        "id": "60140",
        "call_sign": "KJAI",
        "frequency": "89.5  MHz",
        "service": "FM",
        "owner": "SOUTHERN CALIFORNIA PUBLIC RADIO",
        "city": "OJAI",
        "state": "CA"
      }
    },
    {
      "type": "Feature",
      "geometry": {
        "type": "Point",
        "coordinates": [
          -122.595556,
          38.332139
        ]
      },
      "properties": {
        "id": "156262",
        "call_sign": "K208GA",
        "frequency": "89.5  MHz",
        "service": "FX",
        "owner": "ONE MINISTRIES, INC.",
        "city": "PETALUMA",
        "state": "CA"
      }
    },
    {
      "type": "Feature",
      "geometry": {
        "type": "Point",
        "coordinates": [
          -117.25,
          32.838056
        ]
      },
      "properties": {
        "id": "58823",
        "call_sign": "KPBS-FM",
        "frequency": "89.5  MHz",
        "service": "FM",
        "owner": "BOARD OF TRUSTEES, CALIFORNIA STATE UNIVERSITY FOR SAN DIEGO STATE UNIVERSITY",
        "city": "SAN DIEGO",
        "state": "CA"
      }
    },
    {
      "type": "Feature",
      "geometry": {
        "type": "Point",
        "coordinates": [
          -116.935028,
          32.698111
        ]
      },
      "properties": {
        "id": "58823",
        "call_sign": "KPBS-FM",
        "frequency": "89.5  MHz",
        "service": "FS",
        "owner": "BOARD OF TRUSTEES, CALIFORNIA STATE UNIVERSITY FOR SAN DIEGO STATE UNIVERSITY",
        "city": "SAN DIEGO",
        "state": "CA"
      }
    },
    {
      "type": "Feature",
      "geometry": {
        "type": "Point",
        "coordinates": [
          -122.4155,
          37.792417
        ]
      },
      "properties": {
        "id": "53008",
        "call_sign": "KPOO",
        "frequency": "89.5  MHz",
        "service": "FM",
        "owner": "POOR PEOPLE'S RADIO, INC.",
        "city": "SAN FRANCISCO",
        "state": "CA"
      }
    },
    {
      "type": "Feature",
      "geometry": {
        "type": "Point",
        "coordinates": [
          -122.0205,
          36.960361
        ]
      },
      "properties": {
        "id": "51719",
        "call_sign": "K208GJ",
        "frequency": "89.5  MHz",
        "service": "FX",
        "owner": "UNIVERSITY CORPORATION AT MONTEREY BAY",
        "city": "SANTA CRUZ",
        "state": "CA"
      }
    },
    {
      "type": "Feature",
      "geometry": {
        "type": "Point",
        "coordinates": [
          -119.472056,
          35.614667
        ]
      },
      "properties": {
        "id": "124884",
        "call_sign": "KAIB",
        "frequency": "89.5  MHz",
        "service": "FM",
        "owner": "K-LOVE, INC.",
        "city": "SHAFTER",
        "state": "CA"
      }
    },
    {
      "type": "Feature",
      "geometry": {
        "type": "Point",
        "coordinates": [
          -119.472056,
          35.614667
        ]
      },
      "properties": {
        "id": "124884",
        "call_sign": "KAIB",
        "frequency": "89.5  MHz",
        "service": "FM",
        "owner": "K-LOVE, INC.",
        "city": "SHAFTER",
        "state": "CA"
      }
    },
    {
      "type": "Feature",
      "geometry": {
        "type": "Point",
        "coordinates": [
          -120.280667,
          38.052194
        ]
      },
      "properties": {
        "id": "767111",
        "call_sign": "KFUT",
        "frequency": "89.5  MHz",
        "service": "FM",
        "owner": "THE GREATER GOOD CULTURAL EXCHANGE, INC.",
        "city": "TWAIN HARTE",
        "state": "CA"
      }
    },
    {
      "type": "Feature",
      "geometry": {
        "type": "Point",
        "coordinates": [
          -123.232778,
          39.116833
        ]
      },
      "properties": {
        "id": "20877",
        "call_sign": "KPRA",
        "frequency": "89.5  MHz",
        "service": "FM",
        "owner": "UKIAH CHRISTIAN RADIO",
        "city": "UKIAH",
        "state": "CA"
      }
    },
    {
      "type": "Feature",
      "geometry": {
        "type": "Point",
        "coordinates": [
          -122.191333,
          38.151583
        ]
      },
      "properties": {
        "id": "174017",
        "call_sign": "KZCT",
        "frequency": "89.5  MHz",
        "service": "FM",
        "owner": "OZCAT ENTERTAINMENT",
        "city": "VALLEJO",
        "state": "CA"
      }
    },
    {
      "type": "Feature",
      "geometry": {
        "type": "Point",
        "coordinates": [
          -117.292417,
          34.61225
        ]
      },
      "properties": {
        "id": "60139",
        "call_sign": "KLXD",
        "frequency": "89.5  MHz",
        "service": "FM",
        "owner": "K-LOVE, INC.",
        "city": "VICTORVILLE",
        "state": "CA"
      }
    },
    {
      "type": "Feature",
      "geometry": {
        "type": "Point",
        "coordinates": [
          -121.087,
          37.231194
        ]
      },
      "properties": {
        "id": "768408",
        "call_sign": "KCUD",
        "frequency": "89.5  MHz",
        "service": "FM",
        "owner": "MODESTO INDEPENDENT MEDIA",
        "city": "VOLTA",
        "state": "CA"
      }
    },
    {
      "type": "Feature",
      "geometry": {
        "type": "Point",
        "coordinates": [
          -122.980556,
          40.719583
        ]
      },
      "properties": {
        "id": "71378",
        "call_sign": "K208BJ",
        "frequency": "89.5  MHz",
        "service": "FX",
        "owner": "WEAVERVILLE TRANSLATOR CO., INC.",
        "city": "WEAVERVILLE, ETC.",
        "state": "CA"
      }
    },
    {
      "type": "Feature",
      "geometry": {
        "type": "Point",
        "coordinates": [
          -122.541944,
          41.446806
        ]
      },
      "properties": {
        "id": "62968",
        "call_sign": "K208AH",
        "frequency": "89.5  MHz",
        "service": "FX",
        "owner": "SOUTHERN OREGON UNIVERSITY",
        "city": "WEED, ETC.",
        "state": "CA"
      }
    },
    {
      "type": "Feature",
      "geometry": {
        "type": "Point",
        "coordinates": [
          -114.773306,
          33.617528
        ]
      },
      "properties": {
        "id": "90667",
        "call_sign": "K209CY",
        "frequency": "89.7  MHz",
        "service": "FX",
        "owner": "CSN INTERNATIONAL",
        "city": "BLYTHE",
        "state": "CA"
      }
    },
    {
      "type": "Feature",
      "geometry": {
        "type": "Point",
        "coordinates": [
          -121.828306,
          40.905694
        ]
      },
      "properties": {
        "id": "50621",
        "call_sign": "KNCA",
        "frequency": "89.7  MHz",
        "service": "FM",
        "owner": "SOUTHERN OREGON UNIVERSITY",
        "city": "BURNEY",
        "state": "CA"
      }
    },
    {
      "type": "Feature",
      "geometry": {
        "type": "Point",
        "coordinates": [
          -121.032722,
          40.239306
        ]
      },
      "properties": {
        "id": "66556",
        "call_sign": "K209AY",
        "frequency": "89.7  MHz",
        "service": "FX",
        "owner": "CHICO STATE ENTERPRISES",
        "city": "CHESTER",
        "state": "CA"
      }
    },
    {
      "type": "Feature",
      "geometry": {
        "type": "Point",
        "coordinates": [
          -121.680278,
          39.726944
        ]
      },
      "properties": {
        "id": "92826",
        "call_sign": "K213EH",
        "frequency": "89.7  MHz",
        "service": "FX",
        "owner": "CSN INTERNATIONAL",
        "city": "CHICO",
        "state": "CA"
      }
    },
    {
      "type": "Feature",
      "geometry": {
        "type": "Point",
        "coordinates": [
          -118.727861,
          34.744694
        ]
      },
      "properties": {
        "id": "76970",
        "call_sign": "K209CN",
        "frequency": "89.7  MHz",
        "service": "FX",
        "owner": "SANTA MONICA COMMUNITY COLLEGE DISTRICT",
        "city": "GORMAN",
        "state": "CA"
      }
    },
    {
      "type": "Feature",
      "geometry": {
        "type": "Point",
        "coordinates": [
          -121.506056,
          38.271583
        ]
      },
      "properties": {
        "id": "89079",
        "call_sign": "KLRS",
        "frequency": "89.7  MHz",
        "service": "FM",
        "owner": "K-LOVE, INC.",
        "city": "LODI",
        "state": "CA"
      }
    },
    {
      "type": "Feature",
      "geometry": {
        "type": "Point",
        "coordinates": [
          -122.142444,
          37.320472
        ]
      },
      "properties": {
        "id": "22012",
        "call_sign": "KFJC",
        "frequency": "89.7  MHz",
        "service": "FM",
        "owner": "FOOTHILL-DE ANZA COMMUNITY COLLEGE DISTRICT",
        "city": "LOS ALTOS",
        "state": "CA"
      }
    },
    {
      "type": "Feature",
      "geometry": {
        "type": "Point",
        "coordinates": [
          -121.195056,
          37.124778
        ]
      },
      "properties": {
        "id": "89028",
        "call_sign": "K209FV",
        "frequency": "89.7  MHz",
        "service": "FX",
        "owner": "THE ASSOCIATION FOR COMMUNITY EDUCATION, INC.",
        "city": "LOS BANOS",
        "state": "CA"
      }
    },
    {
      "type": "Feature",
      "geometry": {
        "type": "Point",
        "coordinates": [
          -121.820556,
          39.205556
        ]
      },
      "properties": {
        "id": "142345",
        "call_sign": "K209GF",
        "frequency": "89.7  MHz",
        "service": "FX",
        "owner": "CSN INTERNATIONAL, INC.",
        "city": "MARYSVILLE",
        "state": "CA"
      }
    },
    {
      "type": "Feature",
      "geometry": {
        "type": "Point",
        "coordinates": [
          -119.205361,
          35.631611
        ]
      },
      "properties": {
        "id": "92055",
        "call_sign": "K209DN",
        "frequency": "89.7  MHz",
        "service": "FX",
        "owner": "CENTRO CRISTIANO DE VIDA ETERNA",
        "city": "MCFARLAND",
        "state": "CA"
      }
    },
    {
      "type": "Feature",
      "geometry": {
        "type": "Point",
        "coordinates": [
          -116.435,
          33.866694
        ]
      },
      "properties": {
        "id": "35601",
        "call_sign": "K209AK",
        "frequency": "89.7  MHz",
        "service": "FX",
        "owner": "GOOD NEWS RADIO",
        "city": "PALM SPRINGS",
        "state": "CA"
      }
    },
    {
      "type": "Feature",
      "geometry": {
        "type": "Point",
        "coordinates": [
          -124.184528,
          40.627194
        ]
      },
      "properties": {
        "id": "176712",
        "call_sign": "KIPE",
        "frequency": "89.7  MHz",
        "service": "FM",
        "owner": "INK PEOPLE, INC.",
        "city": "PINE HILLS",
        "state": "CA"
      }
    },
    {
      "type": "Feature",
      "geometry": {
        "type": "Point",
        "coordinates": [
          -120.436583,
          39.769056
        ]
      },
      "properties": {
        "id": "71825",
        "call_sign": "K209AU",
        "frequency": "89.7  MHz",
        "service": "FX",
        "owner": "WESTERN INSPIRATIONAL BROADCASTERS, INC.",
        "city": "PORTOLA, ETC.",
        "state": "CA"
      }
    },
    {
      "type": "Feature",
      "geometry": {
        "type": "Point",
        "coordinates": [
          -121.502722,
          36.756083
        ]
      },
      "properties": {
        "id": "53696",
        "call_sign": "KSQT",
        "frequency": "89.7  MHz",
        "service": "FM",
        "owner": "NATURAL BRIDGES MEDIA",
        "city": "PRUNEDALE",
        "state": "CA"
      }
    },
    {
      "type": "Feature",
      "geometry": {
        "type": "Point",
        "coordinates": [
          -117.700333,
          35.477472
        ]
      },
      "properties": {
        "id": "24706",
        "call_sign": "KLXP",
        "frequency": "89.7  MHz",
        "service": "FM",
        "owner": "K-LOVE, INC.",
        "city": "RANDSBURG",
        "state": "CA"
      }
    },
    {
      "type": "Feature",
      "geometry": {
        "type": "Point",
        "coordinates": [
          -117.286778,
          34.197472
        ]
      },
      "properties": {
        "id": "35600",
        "call_sign": "KSGN",
        "frequency": "89.7  MHz",
        "service": "FM",
        "owner": "GOOD NEWS RADIO",
        "city": "RIVERSIDE",
        "state": "CA"
      }
    },
    {
      "type": "Feature",
      "geometry": {
        "type": "Point",
        "coordinates": [
          -117.28675,
          34.197472
        ]
      },
      "properties": {
        "id": "35600",
        "call_sign": "KSGN",
        "frequency": "89.7  MHz",
        "service": "FS",
        "owner": "GOOD NEWS RADIO",
        "city": "RIVERSIDE",
        "state": "CA"
      }
    },
    {
      "type": "Feature",
      "geometry": {
        "type": "Point",
        "coordinates": [
          -120.186528,
          34.91025
        ]
      },
      "properties": {
        "id": "87300",
        "call_sign": "KCLM",
        "frequency": "89.7  MHz",
        "service": "FM",
        "owner": "CALIFORNIA LUTHERAN UNIVERSITY",
        "city": "SANTA MARIA",
        "state": "CA"
      }
    },
    {
      "type": "Feature",
      "geometry": {
        "type": "Point",
        "coordinates": [
          -120.123194,
          39.017028
        ]
      },
      "properties": {
        "id": "768324",
        "call_sign": "KWNK-FM",
        "frequency": "89.7  MHz",
        "service": "FM",
        "owner": "RENO BIKE PROJECT",
        "city": "TAHOMA",
        "state": "CA"
      }
    },
    {
      "type": "Feature",
      "geometry": {
        "type": "Point",
        "coordinates": [
          -118.943139,
          36.636056
        ]
      },
      "properties": {
        "id": "26360",
        "call_sign": "KARM",
        "frequency": "89.7  MHz",
        "service": "FM",
        "owner": "HARVEST BROADCASTING COMPANY, INC.",
        "city": "VISALIA",
        "state": "CA"
      }
    },
    {
      "type": "Feature",
      "geometry": {
        "type": "Point",
        "coordinates": [
          -122.631639,
          38.669
        ]
      },
      "properties": {
        "id": "27946",
        "call_sign": "KOSC",
        "frequency": "89.9  MHz",
        "service": "FM",
        "owner": "UNIVERSITY OF SOUTHERN CALIFORNIA",
        "city": "ANGWIN",
        "state": "CA"
      }
    },
    {
      "type": "Feature",
      "geometry": {
        "type": "Point",
        "coordinates": [
          -117.288361,
          34.61025
        ]
      },
      "properties": {
        "id": "93333",
        "call_sign": "K210DL",
        "frequency": "89.9  MHz",
        "service": "FX",
        "owner": "CSN INTERNATIONAL",
        "city": "APPLE VALLEY",
        "state": "CA"
      }
    },
    {
      "type": "Feature",
      "geometry": {
        "type": "Point",
        "coordinates": [
          -122.72025,
          37.930472
        ]
      },
      "properties": {
        "id": "93568",
        "call_sign": "K210EH",
        "frequency": "89.9  MHz",
        "service": "FX",
        "owner": "KWMR INC",
        "city": "BOLINAS",
        "state": "CA"
      }
    },
    {
      "type": "Feature",
      "geometry": {
        "type": "Point",
        "coordinates": [
          -120.82275,
          38.857472
        ]
      },
      "properties": {
        "id": "766465",
        "call_sign": "KFOS",
        "frequency": "89.9  MHz",
        "service": "FM",
        "owner": "COLOMA EDUCATIONAL BROADCASTING",
        "city": "COLOMA",
        "state": "CA"
      }
    },
    {
      "type": "Feature",
      "geometry": {
        "type": "Point",
        "coordinates": [
          -123.733889,
          39.442944
        ]
      },
      "properties": {
        "id": "87930",
        "call_sign": "KJCU",
        "frequency": "89.9  MHz",
        "service": "FM",
        "owner": "CSN INTERNATIONAL",
        "city": "FORT BRAGG",
        "state": "CA"
      }
    },
    {
      "type": "Feature",
      "geometry": {
        "type": "Point",
        "coordinates": [
          -123.692806,
          40.119861
        ]
      },
      "properties": {
        "id": "172843",
        "call_sign": "KHSG",
        "frequency": "89.9  MHz",
        "service": "FM",
        "owner": "CALIFORNIA STATE POLYTECHNIC UNIVERSITY, HUMBOLDT",
        "city": "GARBERVILLE",
        "state": "CA"
      }
    },
    {
      "type": "Feature",
      "geometry": {
        "type": "Point",
        "coordinates": [
          -120.357972,
          40.446833
        ]
      },
      "properties": {
        "id": "71805",
        "call_sign": "K210BC",
        "frequency": "89.9  MHz",
        "service": "FX",
        "owner": "WESTERN INSPIRATIONAL BROADCASTERS, INC.",
        "city": "JOHNSTONVILLE, ETC.",
        "state": "CA"
      }
    },
    {
      "type": "Feature",
      "geometry": {
        "type": "Point",
        "coordinates": [
          -116.389722,
          34.153056
        ]
      },
      "properties": {
        "id": "83977",
        "call_sign": "K210EN",
        "frequency": "89.9  MHz",
        "service": "FX",
        "owner": "CSN INTERNATIONAL, INC.",
        "city": "JOSHUA TREE",
        "state": "CA"
      }
    },
    {
      "type": "Feature",
      "geometry": {
        "type": "Point",
        "coordinates": [
          -116.343056,
          34.081944
        ]
      },
      "properties": {
        "id": "83977",
        "call_sign": "K210EN",
        "frequency": "89.9  MHz",
        "service": "FX",
        "owner": "CSN INTERNATIONAL, INC.",
        "city": "JOSHUA TREE",
        "state": "CA"
      }
    },
    {
      "type": "Feature",
      "geometry": {
        "type": "Point",
        "coordinates": [
          -120.031556,
          37.533556
        ]
      },
      "properties": {
        "id": "20997",
        "call_sign": "KEFR",
        "frequency": "89.9  MHz",
        "service": "FM",
        "owner": "LOAM MEDIA, INC.",
        "city": "LE GRAND",
        "state": "CA"
      }
    },
    {
      "type": "Feature",
      "geometry": {
        "type": "Point",
        "coordinates": [
          -116.936389,
          32.696139
        ]
      },
      "properties": {
        "id": "90642",
        "call_sign": "K210CL",
        "frequency": "89.9  MHz",
        "service": "FX",
        "owner": "SANTA MONICA COMMUNITY COLLEGE DISTRICT",
        "city": "LEMON GROVE",
        "state": "CA"
      }
    },
    {
      "type": "Feature",
      "geometry": {
        "type": "Point",
        "coordinates": [
          -121.662972,
          37.594889
        ]
      },
      "properties": {
        "id": "766057",
        "call_sign": "KDFL",
        "frequency": "89.9  MHz",
        "service": "FM",
        "owner": "UNIVERSITY OF SOUTHERN CALIFORNIA",
        "city": "LIVERMORE",
        "state": "CA"
      }
    },
    {
      "type": "Feature",
      "geometry": {
        "type": "Point",
        "coordinates": [
          -120.589917,
          38.415722
        ]
      },
      "properties": {
        "id": "91412",
        "call_sign": "K210EV",
        "frequency": "89.9  MHz",
        "service": "FX",
        "owner": "CSN INTERNATIONAL",
        "city": "PINE GROVE",
        "state": "CA"
      }
    },
    {
      "type": "Feature",
      "geometry": {
        "type": "Point",
        "coordinates": [
          -116.595861,
          33.262167
        ]
      },
      "properties": {
        "id": "176023",
        "call_sign": "DKUMI",
        "frequency": "89.9  MHz",
        "service": "FS",
        "owner": "ACTIVIST SAN DIEGO",
        "city": "RAMONA",
        "state": "CA"
      }
    },
    {
      "type": "Feature",
      "geometry": {
        "type": "Point",
        "coordinates": [
          -118.171194,
          34.827472
        ]
      },
      "properties": {
        "id": "90332",
        "call_sign": "K210EW",
        "frequency": "89.9  MHz",
        "service": "FX",
        "owner": "THE ASSOCIATION FOR COMMUNITY EDUCATION, INC.",
        "city": "ROSAMOND",
        "state": "CA"
      }
    },
    {
      "type": "Feature",
      "geometry": {
        "type": "Point",
        "coordinates": [
          -119.678167,
          34.465528
        ]
      },
      "properties": {
        "id": "33702",
        "call_sign": "K210AD",
        "frequency": "89.9  MHz",
        "service": "FX",
        "owner": "SOUTHERN CALIFORNIA PUBLIC RADIO",
        "city": "SANTA BARBARA",
        "state": "CA"
      }
    },
    {
      "type": "Feature",
      "geometry": {
        "type": "Point",
        "coordinates": [
          -121.974722,
          37.013611
        ]
      },
      "properties": {
        "id": "59064",
        "call_sign": "KFER",
        "frequency": "89.9  MHz",
        "service": "FM",
        "owner": "VIDA VALE VIVIR, INC.",
        "city": "SANTA CRUZ",
        "state": "CA"
      }
    },
    {
      "type": "Feature",
      "geometry": {
        "type": "Point",
        "coordinates": [
          -121.974667,
          37.012444
        ]
      },
      "properties": {
        "id": "59064",
        "call_sign": "KFER",
        "frequency": "89.9  MHz",
        "service": "FM",
        "owner": "VIDA VALE VIVIR, INC.",
        "city": "SANTA CRUZ",
        "state": "CA"
      }
    },
    {
      "type": "Feature",
      "geometry": {
        "type": "Point",
        "coordinates": [
          -121.974667,
          37.012444
        ]
      },
      "properties": {
        "id": "59064",
        "call_sign": "KFER",
        "frequency": "89.9  MHz",
        "service": "FM",
        "owner": "VIDA VALE VIVIR, INC.",
        "city": "SANTA CRUZ",
        "state": "CA"
      }
    },
    {
      "type": "Feature",
      "geometry": {
        "type": "Point",
        "coordinates": [
          -118.392583,
          34.118889
        ]
      },
      "properties": {
        "id": "59086",
        "call_sign": "KCRW",
        "frequency": "89.9  MHz",
        "service": "FM",
        "owner": "SANTA MONICA COMMUNITY COLLEGE DISTRICT",
        "city": "SANTA MONICA",
        "state": "CA"
      }
    },
    {
      "type": "Feature",
      "geometry": {
        "type": "Point",
        "coordinates": [
          -118.392583,
          34.118889
        ]
      },
      "properties": {
        "id": "59086",
        "call_sign": "KCRW",
        "frequency": "89.9  MHz",
        "service": "FS",
        "owner": "SANTA MONICA COMMUNITY COLLEGE DISTRICT",
        "city": "SANTA MONICA",
        "state": "CA"
      }
    },
    {
      "type": "Feature",
      "geometry": {
        "type": "Point",
        "coordinates": [
          -119.024833,
          34.330278
        ]
      },
      "properties": {
        "id": "93735",
        "call_sign": "K210EO",
        "frequency": "89.9  MHz",
        "service": "FX",
        "owner": "CALIFORNIA STATE UNIVERSITY, NORTHRIDGE",
        "city": "SANTA PAULA",
        "state": "CA"
      }
    },
    {
      "type": "Feature",
      "geometry": {
        "type": "Point",
        "coordinates": [
          -121.271028,
          36.273556
        ]
      },
      "properties": {
        "id": "86669",
        "call_sign": "KFRS",
        "frequency": "89.9  MHz",
        "service": "FM",
        "owner": "CSN INTERNATIONAL, INC.",
        "city": "SOLEDAD",
        "state": "CA"
      }
    },
    {
      "type": "Feature",
      "geometry": {
        "type": "Point",
        "coordinates": [
          -119.273444,
          34.296389
        ]
      },
      "properties": {
        "id": "90441",
        "call_sign": "K210CH",
        "frequency": "89.9  MHz",
        "service": "FX",
        "owner": "CALIFORNIA STATE UNIVERSITY, NORTHRIDGE",
        "city": "VENTURA",
        "state": "CA"
      }
    },
    {
      "type": "Feature",
      "geometry": {
        "type": "Point",
        "coordinates": [
          -122.748583,
          41.734139
        ]
      },
      "properties": {
        "id": "92613",
        "call_sign": "K204DM",
        "frequency": "89.9  MHz",
        "service": "FX",
        "owner": "CSN INTERNATIONAL",
        "city": "YREKA",
        "state": "CA"
      }
    },
    {
      "type": "Feature",
      "geometry": {
        "type": "Point",
        "coordinates": [
          -118.591194,
          35.453
        ]
      },
      "properties": {
        "id": "54494",
        "call_sign": "KTQX",
        "frequency": "90.1  MHz",
        "service": "FM",
        "owner": "RADIO BILINGUE, INC.",
        "city": "BAKERSFIELD",
        "state": "CA"
      }
    },
    {
      "type": "Feature",
      "geometry": {
        "type": "Point",
        "coordinates": [
          -118.121194,
          36.977139
        ]
      },
      "properties": {
        "id": "173373",
        "call_sign": "KWBP",
        "frequency": "90.1  MHz",
        "service": "FM",
        "owner": "CEDAR BROADCASTING, INC.",
        "city": "BIG PINE",
        "state": "CA"
      }
    },
    {
      "type": "Feature",
      "geometry": {
        "type": "Point",
        "coordinates": [
          -121.801278,
          36.255361
        ]
      },
      "properties": {
        "id": "768419",
        "call_sign": "KSUR",
        "frequency": "90.1  MHz",
        "service": "FM",
        "owner": "COMMON FREQUENCY, INC.",
        "city": "BIG SUR",
        "state": "CA"
      }
    },
    {
      "type": "Feature",
      "geometry": {
        "type": "Point",
        "coordinates": [
          -121.805278,
          36.275
        ]
      },
      "properties": {
        "id": "768419",
        "call_sign": "KSUR",
        "frequency": "90.1  MHz",
        "service": "FM",
        "owner": "COMMON FREQUENCY, INC.",
        "city": "BIG SUR",
        "state": "CA"
      }
    },
    {
      "type": "Feature",
      "geometry": {
        "type": "Point",
        "coordinates": [
          -121.627472,
          39.806806
        ]
      },
      "properties": {
        "id": "24541",
        "call_sign": "KZFR",
        "frequency": "90.1  MHz",
        "service": "FM",
        "owner": "GOLDEN VALLEY COMMUNITY BROADCASTERS",
        "city": "CHICO",
        "state": "CA"
      }
    },
    {
      "type": "Feature",
      "geometry": {
        "type": "Point",
        "coordinates": [
          -124.286139,
          40.500667
        ]
      },