{
  "type": "FeatureCollection",
  "features": [
    {
      "type": "Feature",
      "geometry": {
        "type": "Point",
        "coordinates": [
          -82.393972,
          27.131972
        ]
      },
      "properties": {
        "id": "54857",
        "call_sign": "WJIS",
        "frequency": "88.1  MHz",
        "service": "FM",
        "owner": "RADIO TRAINING NETWORK, INC.",
        "city": "BRADENTON",
        "state": "FL"
      }
    },
    {
      "type": "Feature",
      "geometry": {
        "type": "Point",
        "coordinates": [
          -82.607056,
          29.809389
        ]
      },
      "properties": {
        "id": "175104",
        "call_sign": "WUBA",
        "frequency": "88.1  MHz",
        "service": "FM",
        "owner": "NEIGHBORHOODS UNITED FOR A BETTER ALACHUA, INC.",
        "city": "HIGH SPRINGS",
        "state": "FL"
      }
    },
    {
      "type": "Feature",
      "geometry": {
        "type": "Point",
        "coordinates": [
          -80.468389,
          25.540361
        ]
      },
      "properties": {
        "id": "21777",
        "call_sign": "WRGP",
        "frequency": "88.1  MHz",
        "service": "FM",
        "owner": "FLORIDA INTERNATIONAL UNIVERSITY BOARD OF TRUSTEES",
        "city": "HOMESTEAD",
        "state": "FL"
      }
    },
    {
      "type": "Feature",
      "geometry": {
        "type": "Point",
        "coordinates": [
          -81.563972,
          30.276361
        ]
      },
      "properties": {
        "id": "48390",
        "call_sign": "WCRJ",
        "frequency": "88.1  MHz",
        "service": "FM",
        "owner": "RADIO TRAINING NETWORK, INC.",
        "city": "JACKSONVILLE",
        "state": "FL"
      }
    },
    {
      "type": "Feature",
      "geometry": {
        "type": "Point",
        "coordinates": [
          -82.120917,
          29.238028
        ]
      },
      "properties": {
        "id": "40160",
        "call_sign": "WHIJ",
        "frequency": "88.1  MHz",
        "service": "FM",
        "owner": "RADIO TRAINING NETWORK, INC.",
        "city": "OCALA",
        "state": "FL"
      }
    },
    {
      "type": "Feature",
      "geometry": {
        "type": "Point",
        "coordinates": [
          -86.99275,
          30.403806
        ]
      },
      "properties": {
        "id": "66570",
        "call_sign": "WUWF",
        "frequency": "88.1  MHz",
        "service": "FM",
        "owner": "THE UNIVERSITY OF WEST FLORIDA",
        "city": "PENSACOLA",
        "state": "FL"
      }
    },
    {
      "type": "Feature",
      "geometry": {
        "type": "Point",
        "coordinates": [
          -87.220194,
          30.543833
        ]
      },
      "properties": {
        "id": "66570",
        "call_sign": "WUWF",
        "frequency": "88.1  MHz",
        "service": "FS",
        "owner": "THE UNIVERSITY OF WEST FLORIDA",
        "city": "PENSACOLA",
        "state": "FL"
      }
    },
    {
      "type": "Feature",
      "geometry": {
        "type": "Point",
        "coordinates": [
          -82.528944,
          28.582167
        ]
      },
      "properties": {
        "id": "768626",
        "call_sign": "WEKI",
        "frequency": "88.1  MHz",
        "service": "FM",
        "owner": "CALL COMMUNICATIONS GROUP, INC.",
        "city": "WEEKI WACHEE",
        "state": "FL"
      }
    },
    {
      "type": "Feature",
      "geometry": {
        "type": "Point",
        "coordinates": [
          -80.212,
          26.589222
        ]
      },
      "properties": {
        "id": "61507",
        "call_sign": "WAYF",
        "frequency": "88.1  MHz",
        "service": "FM",
        "owner": "HOPE MEDIA GROUP",
        "city": "WEST PALM BEACH",
        "state": "FL"
      }
    },
    {
      "type": "Feature",
      "geometry": {
        "type": "Point",
        "coordinates": [
          -81.740083,
          24.572361
        ]
      },
      "properties": {
        "id": "90786",
        "call_sign": "WYBX",
        "frequency": "88.3  MHz",
        "service": "FM",
        "owner": "BIBLE BROADCASTING NETWORK, INC.",
        "city": "KEY WEST",
        "state": "FL"
      }
    },
    {
      "type": "Feature",
      "geometry": {
        "type": "Point",
        "coordinates": [
          -81.740083,
          24.572361
        ]
      },
      "properties": {
        "id": "90786",
        "call_sign": "WYBX",
        "frequency": "88.3  MHz",
        "service": "FM",
        "owner": "BIBLE BROADCASTING NETWORK, INC.",
        "city": "KEY WEST",
        "state": "FL"
      }
    },
    {
      "type": "Feature",
      "geometry": {
        "type": "Point",
        "coordinates": [
          -81.500917,
          26.723111
        ]
      },
      "properties": {
        "id": "86109",
        "call_sign": "WBIY",
        "frequency": "88.3  MHz",
        "service": "FM",
        "owner": "ASSOCIATION DES HAITIENS VIVANT A L'ETRANGER POUR LE DEVELOP",
        "city": "LA BELLE",
        "state": "FL"
      }
    },
    {
      "type": "Feature",
      "geometry": {
        "type": "Point",
        "coordinates": [
          -85.424083,
          30.438556
        ]
      },
      "properties": {
        "id": "40082",
        "call_sign": "WAYP",
        "frequency": "88.3  MHz",
        "service": "FM",
        "owner": "HOPE MEDIA GROUP",
        "city": "MARIANNA",
        "state": "FL"
      }
    },
    {
      "type": "Feature",
      "geometry": {
        "type": "Point",
        "coordinates": [
          -80.703194,
          28.13675
        ]
      },
      "properties": {
        "id": "778356",
        "call_sign": "WPOZ-FM1",
        "frequency": "88.3  MHz",
        "service": "FB",
        "owner": "CENTRAL FLORIDA EDUCATIONAL FOUNDATION, INC.",
        "city": "MELBOURNE",
        "state": "FL"
      }
    },
    {
      "type": "Feature",
      "geometry": {
        "type": "Point",
        "coordinates": [
          -81.093333,
          28.602222
        ]
      },
      "properties": {
        "id": "9876",
        "call_sign": "WPOZ",
        "frequency": "88.3  MHz",
        "service": "FM",
        "owner": "CENTRAL FLORIDA EDUCATIONAL FOUNDATION, INC.",
        "city": "ORLANDO",
        "state": "FL"
      }
    },
    {
      "type": "Feature",
      "geometry": {
        "type": "Point",
        "coordinates": [
          -81.093389,
          28.602222
        ]
      },
      "properties": {
        "id": "9876",
        "call_sign": "WPOZ",
        "frequency": "88.3  MHz",
        "service": "FM",
        "owner": "CENTRAL FLORIDA EDUCATIONAL FOUNDATION, INC.",
        "city": "ORLANDO",
        "state": "FL"
      }
    },
    {
      "type": "Feature",
      "geometry": {
        "type": "Point",
        "coordinates": [
          -81.093389,
          28.602222
        ]
      },
      "properties": {
        "id": "9876",
        "call_sign": "WPOZ",
        "frequency": "88.3  MHz",
        "service": "FS",
        "owner": "CENTRAL FLORIDA EDUCATIONAL FOUNDATION, INC.",
        "city": "ORLANDO",
        "state": "FL"
      }
    },
    {
      "type": "Feature",
      "geometry": {
        "type": "Point",
        "coordinates": [
          -81.425889,
          28.65775
        ]
      },
      "properties": {
        "id": "9876",
        "call_sign": "WPOZ",
        "frequency": "88.3  MHz",
        "service": "FS",
        "owner": "CENTRAL FLORIDA EDUCATIONAL FOUNDATION, INC.",
        "city": "ORLANDO",
        "state": "FL"
      }
    },
    {
      "type": "Feature",
      "geometry": {
        "type": "Point",
        "coordinates": [
          -80.482833,
          25.873694
        ]
      },
      "properties": {
        "id": "27304",
        "call_sign": "WGNK",
        "frequency": "88.3  MHz",
        "service": "FM",
        "owner": "GENESIS LICENSE SUBSIDIARY LLC",
        "city": "PENNSUCO",
        "state": "FL"
      }
    },
    {
      "type": "Feature",
      "geometry": {
        "type": "Point",
        "coordinates": [
          -82.100389,
          29.909694
        ]
      },
      "properties": {
        "id": "62344",
        "call_sign": "WLSF",
        "frequency": "88.3  MHz",
        "service": "FM",
        "owner": "K-LOVE, INC.",
        "city": "STARKE",
        "state": "FL"
      }
    },
    {
      "type": "Feature",
      "geometry": {
        "type": "Point",
        "coordinates": [
          -80.913389,
          26.729778
        ]
      },
      "properties": {
        "id": "84098",
        "call_sign": "WQJS",
        "frequency": "88.5  MHz",
        "service": "FM",
        "owner": "INDIAN RIVER STATE COLLEGE",
        "city": "CLEWISTON",
        "state": "FL"
      }
    },
    {
      "type": "Feature",
      "geometry": {
        "type": "Point",
        "coordinates": [
          -82.783083,
          29.569361
        ]
      },
      "properties": {
        "id": "121772",
        "call_sign": "WUFQ",
        "frequency": "88.5  MHz",
        "service": "FM",
        "owner": "BOARD OF TRUSTEES, UNIVERSITY OF FLORIDA",
        "city": "CROSS CITY",
        "state": "FL"
      }
    },
    {
      "type": "Feature",
      "geometry": {
        "type": "Point",
        "coordinates": [
          -80.205056,
          26.763389
        ]
      },
      "properties": {
        "id": "91393",
        "call_sign": "W203AY",
        "frequency": "88.5  MHz",
        "service": "FX",
        "owner": "CSN INTERNATIONAL",
        "city": "GOLDEN LAKES",
        "state": "FL"
      }
    },
    {
      "type": "Feature",
      "geometry": {
        "type": "Point",
        "coordinates": [
          -80.349222,
          25.613361
        ]
      },
      "properties": {
        "id": "61088",
        "call_sign": "WMFL",
        "frequency": "88.5  MHz",
        "service": "FM",
        "owner": "CALL COMMUNICATIONS GROUP, INC.",
        "city": "PALMETTO BAY",
        "state": "FL"
      }
    },
    {
      "type": "Feature",
      "geometry": {
        "type": "Point",
        "coordinates": [
          -81.335611,
          29.854944
        ]
      },
      "properties": {
        "id": "21688",
        "call_sign": "WFCF",
        "frequency": "88.5  MHz",
        "service": "FM",
        "owner": "FLAGLER COLLEGE",
        "city": "ST. AUGUSTINE",
        "state": "FL"
      }
    },
    {
      "type": "Feature",
      "geometry": {
        "type": "Point",
        "coordinates": [
          -80.256139,
          26.177583
        ]
      },
      "properties": {
        "id": "66342",
        "call_sign": "WKPX",
        "frequency": "88.5  MHz",
        "service": "FM",
        "owner": "SCHOOL BOARD OF BROWARD COUNTY, FLORIDA",
        "city": "SUNRISE",
        "state": "FL"
      }
    },
    {
      "type": "Feature",
      "geometry": {
        "type": "Point",
        "coordinates": [
          -82.260639,
          27.81975
        ]
      },
      "properties": {
        "id": "47459",
        "call_sign": "WMNF",
        "frequency": "88.5  MHz",
        "service": "FM",
        "owner": "NATHAN B. STUBBLEFIELD FOUNDATION",
        "city": "TAMPA",
        "state": "FL"
      }
    },
    {
      "type": "Feature",
      "geometry": {
        "type": "Point",
        "coordinates": [
          -82.260639,
          27.81975
        ]
      },
      "properties": {
        "id": "47459",
        "call_sign": "WMNF",
        "frequency": "88.5  MHz",
        "service": "FS",
        "owner": "NATHAN B. STUBBLEFIELD FOUNDATION",
        "city": "TAMPA",
        "state": "FL"
      }
    },
    {
      "type": "Feature",
      "geometry": {
        "type": "Point",
        "coordinates": [
          -80.392444,
          27.601583
        ]
      },
      "properties": {
        "id": "81575",
        "call_sign": "W203BT",
        "frequency": "88.5  MHz",
        "service": "FX",
        "owner": "PENSACOLA CHRISTIAN COLLEGE, INC.",
        "city": "VERO BEACH",
        "state": "FL"
      }
    },
    {
      "type": "Feature",
      "geometry": {
        "type": "Point",
        "coordinates": [
          -81.63,
          26.423056
        ]
      },
      "properties": {
        "id": "64256",
        "call_sign": "WDLV",
        "frequency": "88.7  MHz",
        "service": "FM",
        "owner": "K-LOVE, INC.",
        "city": "FORT MYERS",
        "state": "FL"
      }
    },
    {
      "type": "Feature",
      "geometry": {
        "type": "Point",
        "coordinates": [
          -82.326333,
          29.635694
        ]
      },
      "properties": {
        "id": "92752",
        "call_sign": "W204BL",
        "frequency": "88.7  MHz",
        "service": "FX",
        "owner": "K-LOVE, INC.",
        "city": "GAINESVILLE",
        "state": "FL"
      }
    },
    {
      "type": "Feature",
      "geometry": {
        "type": "Point",
        "coordinates": [
          -82.302611,
          29.661917
        ]
      },
      "properties": {
        "id": "92752",
        "call_sign": "W204BL",
        "frequency": "88.7  MHz",
        "service": "FX",
        "owner": "K-LOVE, INC.",
        "city": "GAINESVILLE",
        "state": "FL"
      }
    },
    {
      "type": "Feature",
      "geometry": {
        "type": "Point",
        "coordinates": [
          -86.98225,
          30.407139
        ]
      },
      "properties": {
        "id": "8424",
        "call_sign": "W204BW",
        "frequency": "88.7  MHz",
        "service": "FX",
        "owner": "CSN INTERNATIONAL",
        "city": "GULF BREEZE",
        "state": "FL"
      }
    },
    {
      "type": "Feature",
      "geometry": {
        "type": "Point",
        "coordinates": [
          -81.565833,
          30.276667
        ]
      },
      "properties": {
        "id": "20864",
        "call_sign": "WJFR",
        "frequency": "88.7  MHz",
        "service": "FM",
        "owner": "LOAM MEDIA, INC.",
        "city": "JACKSONVILLE",
        "state": "FL"
      }
    },
    {
      "type": "Feature",
      "geometry": {
        "type": "Point",
        "coordinates": [
          -81.104528,
          24.707361
        ]
      },
      "properties": {
        "id": "175255",
        "call_sign": "WYBW",
        "frequency": "88.7  MHz",
        "service": "FM",
        "owner": "BIBLE BROADCASTING NETWORK, INC.",
        "city": "KEY COLONY BEACH",
        "state": "FL"
      }
    },
    {
      "type": "Feature",
      "geometry": {
        "type": "Point",
        "coordinates": [
          -81.104528,
          24.707361
        ]
      },
      "properties": {
        "id": "175255",
        "call_sign": "WYBW",
        "frequency": "88.7  MHz",
        "service": "FM",
        "owner": "BIBLE BROADCASTING NETWORK, INC.",
        "city": "KEY COLONY BEACH",
        "state": "FL"
      }
    },
    {
      "type": "Feature",
      "geometry": {
        "type": "Point",
        "coordinates": [
          -81.738722,
          24.571722
        ]
      },
      "properties": {
        "id": "78766",
        "call_sign": "W204CV",
        "frequency": "88.7  MHz",
        "service": "FX",
        "owner": "CSN INTERNATIONAL",
        "city": "KEY WEST",
        "state": "FL"
      }
    },
    {
      "type": "Feature",
      "geometry": {
        "type": "Point",
        "coordinates": [
          -81.328056,
          28.281389
        ]
      },
      "properties": {
        "id": "788468",
        "call_sign": "WPRN-LP",
        "frequency": "88.7  MHz",
        "service": "FL",
        "owner": "ENCUENTRO EDITION,INC",
        "city": "KISSIMMEE",
        "state": "FL"
      }
    },
    {
      "type": "Feature",
      "geometry": {
        "type": "Point",
        "coordinates": [
          -85.586028,
          30.23325
        ]
      },
      "properties": {
        "id": "92766",
        "call_sign": "W204CD",
        "frequency": "88.7  MHz",
        "service": "FX",
        "owner": "CSN INTERNATIONAL",
        "city": "PANAMA CITY",
        "state": "FL"
      }
    },
    {
      "type": "Feature",
      "geometry": {
        "type": "Point",
        "coordinates": [
          -81.959806,
          28.904694
        ]
      },
      "properties": {
        "id": "27291",
        "call_sign": "WMYZ",
        "frequency": "88.7  MHz",
        "service": "FM",
        "owner": "CENTRAL FLORIDA EDUCATIONAL FOUNDATION, INC.",
        "city": "THE VILLAGES",
        "state": "FL"
      }
    },
    {
      "type": "Feature",
      "geometry": {
        "type": "Point",
        "coordinates": [
          -82.729833,
          30.2505
        ]
      },
      "properties": {
        "id": "171630",
        "call_sign": "WJLN",
        "frequency": "88.7  MHz",
        "service": "FM",
        "owner": "FAITH AND ACTION COMMUNITY OUTREACH, INC.",
        "city": "WHITE SPRINGS",
        "state": "FL"
      }
    },
    {
      "type": "Feature",
      "geometry": {
        "type": "Point",
        "coordinates": [
          -81.147611,
          29.02525
        ]
      },
      "properties": {
        "id": "42684",
        "call_sign": "WKTO",
        "frequency": "88.9  MHz",
        "service": "FM",
        "owner": "MIMS COMMUNITY RADIO, INC.",
        "city": "EDGEWATER",
        "state": "FL"
      }
    },
    {
      "type": "Feature",
      "geometry": {
        "type": "Point",
        "coordinates": [
          -81.147556,
          29.02525
        ]
      },
      "properties": {
        "id": "42684",
        "call_sign": "WKTO",
        "frequency": "88.9  MHz",
        "service": "FS",
        "owner": "MIMS COMMUNITY RADIO, INC.",
        "city": "EDGEWATER",
        "state": "FL"
      }
    },
    {
      "type": "Feature",
      "geometry": {
        "type": "Point",
        "coordinates": [
          -80.938917,
          29.006083
        ]
      },
      "properties": {
        "id": "42684",
        "call_sign": "WKTO",
        "frequency": "88.9  MHz",
        "service": "FS",
        "owner": "MIMS COMMUNITY RADIO, INC.",
        "city": "EDGEWATER",
        "state": "FL"
      }
    },
    {
      "type": "Feature",
      "geometry": {
        "type": "Point",
        "coordinates": [
          -80.356139,
          27.421694
        ]
      },
      "properties": {
        "id": "28545",
        "call_sign": "WQCS",
        "frequency": "88.9  MHz",
        "service": "FM",
        "owner": "INDIAN RIVER",
        "city": "FORT PIERCE",
        "state": "FL"
      }
    },
    {
      "type": "Feature",
      "geometry": {
        "type": "Point",
        "coordinates": [
          -80.388611,
          27.122222
        ]
      },
      "properties": {
        "id": "28545",
        "call_sign": "WQCS",
        "frequency": "88.9  MHz",
        "service": "FM",
        "owner": "INDIAN RIVER",
        "city": "FORT PIERCE",
        "state": "FL"
      }
    },
    {
      "type": "Feature",
      "geometry": {
        "type": "Point",
        "coordinates": [
          -80.468389,
          25.540389
        ]
      },
      "properties": {
        "id": "4030",
        "call_sign": "WDNA",
        "frequency": "88.9  MHz",
        "service": "FM",
        "owner": "BASCOMB MEMORIAL BROADCASTING FOUNDATION",
        "city": "MIAMI",
        "state": "FL"
      }
    },
    {
      "type": "Feature",
      "geometry": {
        "type": "Point",
        "coordinates": [
          -83.940444,
          30.670472
        ]
      },
      "properties": {
        "id": "21799",
        "call_sign": "WFSU-FM",
        "frequency": "88.9  MHz",
        "service": "FM",
        "owner": "FLORIDA STATE UNIVERSITY",
        "city": "TALLAHASSEE",
        "state": "FL"
      }
    },
    {
      "type": "Feature",
      "geometry": {
        "type": "Point",
        "coordinates": [
          -83.940444,
          30.670472
        ]
      },
      "properties": {
        "id": "21799",
        "call_sign": "WFSU-FM",
        "frequency": "88.9  MHz",
        "service": "FM",
        "owner": "FLORIDA STATE UNIVERSITY",
        "city": "TALLAHASSEE",
        "state": "FL"
      }
    },
    {
      "type": "Feature",
      "geometry": {
        "type": "Point",
        "coordinates": [
          -84.313611,
          30.418056
        ]
      },
      "properties": {
        "id": "21799",
        "call_sign": "WFSU-FM",
        "frequency": "88.9  MHz",
        "service": "FS",
        "owner": "FLORIDA STATE UNIVERSITY",
        "city": "TALLAHASSEE",
        "state": "FL"
      }
    },
    {
      "type": "Feature",
      "geometry": {
        "type": "Point",
        "coordinates": [
          -82.673722,
          28.378056
        ]
      },
      "properties": {
        "id": "5173",
        "call_sign": "WYFE",
        "frequency": "88.9  MHz",
        "service": "FM",
        "owner": "BIBLE BROADCASTING NETWORK, INC.",
        "city": "TARPON SPRINGS",
        "state": "FL"
      }
    },
    {
      "type": "Feature",
      "geometry": {
        "type": "Point",
        "coordinates": [
          -81.309806,
          24.650972
        ]
      },
      "properties": {
        "id": "59323",
        "call_sign": "W206AS",
        "frequency": "89.1  MHz",
        "service": "FX",
        "owner": "THE SCHOOL BOARD OF MIAMI - DADE COUNTY, FL",
        "city": "BIG PINE KEY",
        "state": "FL"
      }
    },
    {
      "type": "Feature",
      "geometry": {
        "type": "Point",
        "coordinates": [
          -82.394278,
          29.709694
        ]
      },
      "properties": {
        "id": "66604",
        "call_sign": "WUFT-FM",
        "frequency": "89.1  MHz",
        "service": "FM",
        "owner": "BOARD OF TRUSTEES, UNIVERSITY OF FLORIDA",
        "city": "GAINESVILLE",
        "state": "FL"
      }
    },
    {
      "type": "Feature",
      "geometry": {
        "type": "Point",
        "coordinates": [
          -82.419139,
          29.643667
        ]
      },
      "properties": {
        "id": "66604",
        "call_sign": "WUFT-FM",
        "frequency": "89.1  MHz",
        "service": "FS",
        "owner": "BOARD OF TRUSTEES, UNIVERSITY OF FLORIDA",
        "city": "GAINESVILLE",
        "state": "FL"
      }
    },
    {
      "type": "Feature",
      "geometry": {
        "type": "Point",
        "coordinates": [
          -81.283389,
          28.174472
        ]
      },
      "properties": {
        "id": "27292",
        "call_sign": "WLAZ",
        "frequency": "89.1  MHz",
        "service": "FM",
        "owner": "CAGUAS EDUCATIONAL TV, INC.",
        "city": "KISSIMMEE",
        "state": "FL"
      }
    },
    {
      "type": "Feature",
      "geometry": {
        "type": "Point",
        "coordinates": [
          -85.924667,
          30.367417
        ]
      },
      "properties": {
        "id": "21798",
        "call_sign": "WFSW",
        "frequency": "89.1  MHz",
        "service": "FM",
        "owner": "FLORIDA STATE UNIVERSITY",
        "city": "PANAMA CITY",
        "state": "FL"
      }
    },
    {
      "type": "Feature",
      "geometry": {
        "type": "Point",
        "coordinates": [
          -82.463972,
          27.151167
        ]
      },
      "properties": {
        "id": "64255",
        "call_sign": "WSMR",
        "frequency": "89.1  MHz",
        "service": "FM",
        "owner": "UNIVERSITY OF SOUTH FLORIDA BOARD OF TRUSTEES",
        "city": "SARASOTA",
        "state": "FL"
      }
    },
    {
      "type": "Feature",
      "geometry": {
        "type": "Point",
        "coordinates": [
          -81.740083,
          24.571806
        ]
      },
      "properties": {
        "id": "765461",
        "call_sign": "WFQZ",
        "frequency": "89.1  MHz",
        "service": "FM",
        "owner": "FREQUENCY ZERO, INC.",
        "city": "STOCK ISLAND",
        "state": "FL"
      }
    },
    {
      "type": "Feature",
      "geometry": {
        "type": "Point",
        "coordinates": [
          -80.170333,
          26.518139
        ]
      },
      "properties": {
        "id": "43686",
        "call_sign": "WRMB",
        "frequency": "89.3  MHz",
        "service": "FM",
        "owner": "THE MOODY BIBLE INSTITUTE OF CHICAGO",
        "city": "BOYNTON BEACH",
        "state": "FL"
      }
    },
    {
      "type": "Feature",
      "geometry": {
        "type": "Point",
        "coordinates": [
          -81.493417,
          27.560583
        ]
      },
      "properties": {
        "id": "93274",
        "call_sign": "WFLJ",
        "frequency": "89.3  MHz",
        "service": "FM",
        "owner": "RADIO TRAINING NETWORK, INC.",
        "city": "FROSTPROOF",
        "state": "FL"
      }
    },
    {
      "type": "Feature",
      "geometry": {
        "type": "Point",
        "coordinates": [
          -81.208889,
          29.547972
        ]
      },
      "properties": {
        "id": "175730",
        "call_sign": "WNSS",
        "frequency": "89.3  MHz",
        "service": "FM",
        "owner": "HOUSTON CHRISTIAN BROADCASTERS, INC.",
        "city": "PALM COAST",
        "state": "FL"
      }
    },
    {
      "type": "Feature",
      "geometry": {
        "type": "Point",
        "coordinates": [
          -82.079806,
          28.539722
        ]
      },
      "properties": {
        "id": "89697",
        "call_sign": "WKFA",
        "frequency": "89.3  MHz",
        "service": "FM",
        "owner": "SMILE FM",
        "city": "ST. CATHERINE",
        "state": "FL"
      }
    },
    {
      "type": "Feature",
      "geometry": {
        "type": "Point",
        "coordinates": [
          -80.848833,
          28.5845
        ]
      },
      "properties": {
        "id": "21787",
        "call_sign": "WPIO",
        "frequency": "89.3  MHz",
        "service": "FM",
        "owner": "FLORIDA PUBLIC RADIO, INC.",
        "city": "TITUSVILLE",
        "state": "FL"
      }
    },
    {
      "type": "Feature",
      "geometry": {
        "type": "Point",
        "coordinates": [
          -81.88175,
          29.188028
        ]
      },
      "properties": {
        "id": "9714",
        "call_sign": "WMFV",
        "frequency": "89.5  MHz",
        "service": "FM",
        "owner": "COMMUNITY COMMUNICATIONS, INC.",
        "city": "CEDAR CREEK",
        "state": "FL"
      }
    },
    {
      "type": "Feature",
      "geometry": {
        "type": "Point",
        "coordinates": [
          -81.880917,
          29.189139
        ]
      },
      "properties": {
        "id": "9714",
        "call_sign": "WMFV",
        "frequency": "89.5  MHz",
        "service": "FS",
        "owner": "COMMUNITY COMMUNICATIONS, INC.",
        "city": "CEDAR CREEK",
        "state": "FL"
      }
    },
    {
      "type": "Feature",
      "geometry": {
        "type": "Point",
        "coordinates": [
          -85.151944,
          29.711667
        ]
      },
      "properties": {
        "id": "766215",
        "call_sign": "-",
        "frequency": "89.5  MHz",
        "service": "FM",
        "owner": "CENTRO FAMILIAR DE RESTAURACION Y VIDA",
        "city": "EASTPOINT",
        "state": "FL"
      }
    },
    {
      "type": "Feature",
      "geometry": {
        "type": "Point",
        "coordinates": [
          -81.357,
          27.301417
        ]
      },
      "properties": {
        "id": "91738",
        "call_sign": "W208AR",
        "frequency": "89.5  MHz",
        "service": "FX",
        "owner": "RADIO TRAINING NETWORK, INC.",
        "city": "LAKE PLACID",
        "state": "FL"
      }
    },
    {
      "type": "Feature",
      "geometry": {
        "type": "Point",
        "coordinates": [
          -83.129,
          30.041889
        ]
      },
      "properties": {
        "id": "68201",
        "call_sign": "WGSG",
        "frequency": "89.5  MHz",
        "service": "FM",
        "owner": "FAMILY WORSHIP CENTER CHURCH, INC.",
        "city": "MAYO",
        "state": "FL"
      }
    },
    {
      "type": "Feature",
      "geometry": {
        "type": "Point",
        "coordinates": [
          -80.623389,
          28.064472
        ]
      },
      "properties": {
        "id": "65631",
        "call_sign": "WFIT",
        "frequency": "89.5  MHz",
        "service": "FM",
        "owner": "THE FLORIDA INSTITUTE OF TECHNOLOGY",
        "city": "MELBOURNE",
        "state": "FL"
      }
    },
    {
      "type": "Feature",
      "geometry": {
        "type": "Point",
        "coordinates": [
          -81.682583,
          26.120361
        ]
      },
      "properties": {
        "id": "59831",
        "call_sign": "WAYJ",
        "frequency": "89.5  MHz",
        "service": "FM",
        "owner": "HOPE MEDIA GROUP",
        "city": "NAPLES",
        "state": "FL"
      }
    },
    {
      "type": "Feature",
      "geometry": {
        "type": "Point",
        "coordinates": [
          -80.8725,
          27.220278
        ]
      },
      "properties": {
        "id": "50167",
        "call_sign": "W208BZ",
        "frequency": "89.5  MHz",
        "service": "FX",
        "owner": "THE MOODY BIBLE INSTITUTE OF CHICAGO",
        "city": "OKEECHOBEE",
        "state": "FL"
      }
    },
    {
      "type": "Feature",
      "geometry": {
        "type": "Point",
        "coordinates": [
          -87.553583,
          30.587972
        ]
      },
      "properties": {
        "id": "52230",
        "call_sign": "WPCS",
        "frequency": "89.5  MHz",
        "service": "FM",
        "owner": "PENSACOLA CHRISTIAN COLLEGE, INC.",
        "city": "PENSACOLA",
        "state": "FL"
      }
    },
    {
      "type": "Feature",
      "geometry": {
        "type": "Point",
        "coordinates": [
          -87.235222,
          30.47325
        ]
      },
      "properties": {
        "id": "52230",
        "call_sign": "WPCS",
        "frequency": "89.5  MHz",
        "service": "FS",
        "owner": "PENSACOLA CHRISTIAN COLLEGE, INC.",
        "city": "PENSACOLA",
        "state": "FL"
      }
    },
    {
      "type": "Feature",
      "geometry": {
        "type": "Point",
        "coordinates": [
          -81.563972,
          30.276361
        ]
      },
      "properties": {
        "id": "91917",
        "call_sign": "W208AV",
        "frequency": "89.5  MHz",
        "service": "FX",
        "owner": "K-LOVE, INC.",
        "city": "SAN JOSE",
        "state": "FL"
      }
    },
    {
      "type": "Feature",
      "geometry": {
        "type": "Point",
        "coordinates": [
          -80.608389,
          28.381944
        ]
      },
      "properties": {
        "id": "93959",
        "call_sign": "WRRJ",
        "frequency": "89.7  MHz",
        "service": "FM",
        "owner": "BLACK MEDIA WORKS, INC.",
        "city": "COCOA BEACH",
        "state": "FL"
      }
    },
    {
      "type": "Feature",
      "geometry": {
        "type": "Point",
        "coordinates": [
          -80.468389,
          25.540361
        ]
      },
      "properties": {
        "id": "68118",
        "call_sign": "WMLV",
        "frequency": "89.7  MHz",
        "service": "FM",
        "owner": "K-LOVE, INC.",
        "city": "MIAMI",
        "state": "FL"
      }
    },
    {
      "type": "Feature",
      "geometry": {
        "type": "Point",
        "coordinates": [
          -80.211944,
          25.958611
        ]
      },
      "properties": {
        "id": "68118",
        "call_sign": "WMLV",
        "frequency": "89.7  MHz",
        "service": "FS",
        "owner": "K-LOVE, INC.",
        "city": "MIAMI",
        "state": "FL"
      }
    },
    {
      "type": "Feature",
      "geometry": {
        "type": "Point",
        "coordinates": [
          -80.973944,
          29.009167
        ]
      },
      "properties": {
        "id": "13936",
        "call_sign": "WJLU",
        "frequency": "89.7  MHz",
        "service": "FM",
        "owner": "CORNERSTONE BROADCASTING CORPORATION",
        "city": "NEW SMYRNA BEACH",
        "state": "FL"
      }
    },
    {
      "type": "Feature",
      "geometry": {
        "type": "Point",
        "coordinates": [
          -84.291278,
          30.439639
        ]
      },
      "properties": {
        "id": "4204",
        "call_sign": "WVFS",
        "frequency": "89.7  MHz",
        "service": "FM",
        "owner": "FLORIDA STATE UNIVERSITY",
        "city": "TALLAHASSEE",
        "state": "FL"
      }
    },
    {
      "type": "Feature",
      "geometry": {
        "type": "Point",
        "coordinates": [
          -82.263139,
          27.848917
        ]
      },
      "properties": {
        "id": "69122",
        "call_sign": "WUSF",
        "frequency": "89.7  MHz",
        "service": "FM",
        "owner": "UNIVERSITY OF SOUTH FLORIDA BOARD OF TRUSTEES",
        "city": "TAMPA",
        "state": "FL"
      }
    },
    {
      "type": "Feature",
      "geometry": {
        "type": "Point",
        "coordinates": [
          -82.263417,
          27.848917
        ]
      },
      "properties": {
        "id": "69122",
        "call_sign": "WUSF",
        "frequency": "89.7  MHz",
        "service": "FS",
        "owner": "UNIVERSITY OF SOUTH FLORIDA BOARD OF TRUSTEES",
        "city": "TAMPA",
        "state": "FL"
      }
    },
    {
      "type": "Feature",
      "geometry": {
        "type": "Point",
        "coordinates": [
          -81.569806,
          30.281083
        ]
      },
      "properties": {
        "id": "73125",
        "call_sign": "WJCT-FM",
        "frequency": "89.9  MHz",
        "service": "FM",
        "owner": "WJCT, INC.",
        "city": "JACKSONVILLE",
        "state": "FL"
      }
    },
    {
      "type": "Feature",
      "geometry": {
        "type": "Point",
        "coordinates": [
          -81.74,
          24.5725
        ]
      },
      "properties": {
        "id": "90274",
        "call_sign": "WKWR",
        "frequency": "89.9  MHz",
        "service": "FM",
        "owner": "K-LOVE, INC.",
        "city": "KEY WEST",
        "state": "FL"
      }
    },
    {
      "type": "Feature",
      "geometry": {
        "type": "Point",
        "coordinates": [
          -81.204778,
          28.590833
        ]
      },
      "properties": {
        "id": "69229",
        "call_sign": "WUCF-FM",
        "frequency": "89.9  MHz",
        "service": "FM",
        "owner": "UNIVERSITY OF CENTRAL FLORIDA BOARD OF TRUSTEES",
        "city": "ORLANDO",
        "state": "FL"
      }
    },
    {
      "type": "Feature",
      "geometry": {
        "type": "Point",
        "coordinates": [
          -80.388917,
          27.122528
        ]
      },
      "properties": {
        "id": "47554",
        "call_sign": "WCNO",
        "frequency": "89.9  MHz",
        "service": "FM",
        "owner": "NATIONAL CHRISTIAN NETWORK, INC.",
        "city": "PALM CITY",
        "state": "FL"
      }
    },
    {
      "type": "Feature",
      "geometry": {
        "type": "Point",
        "coordinates": [
          -85.689389,
          30.328222
        ]
      },
      "properties": {
        "id": "32370",
        "call_sign": "WJTF",
        "frequency": "89.9  MHz",
        "service": "FM",
        "owner": "INTENTIONAL LIFE MEDIA",
        "city": "PANAMA CITY",
        "state": "FL"
      }
    },
    {
      "type": "Feature",
      "geometry": {
        "type": "Point",
        "coordinates": [
          -83.589167,
          30.100583
        ]
      },
      "properties": {
        "id": "767149",
        "call_sign": "WTDL",
        "frequency": "89.9  MHz",
        "service": "FM",
        "owner": "BIG BEND HERITAGE MUSIC ASSOCIATION, INC",
        "city": "PERRY",
        "state": "FL"
      }
    },
    {
      "type": "Feature",
      "geometry": {
        "type": "Point",
        "coordinates": [
          -86.710222,
          30.822139
        ]
      },
      "properties": {
        "id": "50160",
        "call_sign": "WTJT",
        "frequency": "90.1  MHz",
        "service": "FM",
        "owner": "FLORALA RADIO GROUP",
        "city": "BAKER",
        "state": "FL"
      }
    },
    {
      "type": "Feature",
      "geometry": {
        "type": "Point",
        "coordinates": [
          -82.276194,
          27.939472
        ]
      },
      "properties": {
        "id": "192915",
        "call_sign": "WYPW-LP",
        "frequency": "90.1  MHz",
        "service": "FL",
        "owner": "NEW MEDIA HUMANITY ASSOCIATION, INC.",
        "city": "BRANDON",
        "state": "FL"
      }
    },
    {
      "type": "Feature",
      "geometry": {
        "type": "Point",
        "coordinates": [
          -81.762028,
          26.815333
        ]
      },
      "properties": {
        "id": "69042",
        "call_sign": "WGCU-FM",
        "frequency": "90.1  MHz",
        "service": "FM",
        "owner": "THE FLORIDA GULF COAST UNIVERSITY BOARD OF TRUSTEES",
        "city": "FORT MYERS",
        "state": "FL"
      }
    },
    {
      "type": "Feature",
      "geometry": {
        "type": "Point",
        "coordinates": [
          -81.76175,
          26.815333
        ]
      },
      "properties": {
        "id": "69042",
        "call_sign": "WGCU-FM",
        "frequency": "90.1  MHz",
        "service": "FS",
        "owner": "THE FLORIDA GULF COAST UNIVERSITY BOARD OF TRUSTEES",
        "city": "FORT MYERS",
        "state": "FL"
      }
    },
    {
      "type": "Feature",
      "geometry": {
        "type": "Point",
        "coordinates": [
          -81.781,
          26.466139
        ]
      },
      "properties": {
        "id": "69042",
        "call_sign": "WGCU-FM",
        "frequency": "90.1  MHz",
        "service": "FS",
        "owner": "THE FLORIDA GULF COAST UNIVERSITY BOARD OF TRUSTEES",
        "city": "FORT MYERS",
        "state": "FL"
      }
    },
    {
      "type": "Feature",
      "geometry": {
        "type": "Point",
        "coordinates": [
          -81.781,
          26.466139
        ]
      },
      "properties": {
        "id": "69042",
        "call_sign": "WGCU-FM",
        "frequency": "90.1  MHz",
        "service": "FS",
        "owner": "THE FLORIDA GULF COAST UNIVERSITY BOARD OF TRUSTEES",
        "city": "FORT MYERS",
        "state": "FL"
      }
    },
    {
      "type": "Feature",
      "geometry": {
        "type": "Point",
        "coordinates": [
          -81.781,
          26.466139
        ]
      },
      "properties": {
        "id": "69042",
        "call_sign": "WGCU-FM",
        "frequency": "90.1  MHz",
        "service": "FS",
        "owner": "THE FLORIDA GULF COAST UNIVERSITY BOARD OF TRUSTEES",
        "city": "FORT MYERS",
        "state": "FL"
      }
    },
    {
      "type": "Feature",
      "geometry": {
        "type": "Point",
        "coordinates": [
          -82.326111,
          29.6725
        ]
      },
      "properties": {
        "id": "196950",
        "call_sign": "WMBT-LP",
        "frequency": "90.1  MHz",
        "service": "FL",
        "owner": "COME TOGETHER PRODUCTIONS, INC.",
        "city": "GAINESVILLE",
        "state": "FL"
      }
    },
    {
      "type": "Feature",
      "geometry": {
        "type": "Point",
        "coordinates": [
          -80.404194,
          25.535894
        ]
      },
      "properties": {
        "id": "785211",
        "call_sign": "WLPY-LP",
        "frequency": "90.1  MHz",
        "service": "FL",
        "owner": "FOR A BETTER COMMUNITY CORP",
        "city": "HOMESTEAD",
        "state": "FL"
      }
    },
    {
      "type": "Feature",
      "geometry": {
        "type": "Point",
        "coordinates": [
          -80.373889,
          25.581389
        ]
      },
      "properties": {
        "id": "785211",
        "call_sign": "WLPY-LP",
        "frequency": "90.1  MHz",
        "service": "FL",
        "owner": "FOR A BETTER COMMUNITY CORP",
        "city": "HOMESTEAD",
        "state": "FL"
      }
    },
    {
      "type": "Feature",
      "geometry": {
        "type": "Point",
        "coordinates": [
          -82.467583,
          28.778
        ]
      },
      "properties": {
        "id": "985",
        "call_sign": "WJUF",
        "frequency": "90.1  MHz",
        "service": "FM",
        "owner": "BOARD OF TRUSTEES, UNIVERSITY OF FLORIDA",
        "city": "INVERNESS",
        "state": "FL"
      }
    },
    {
      "type": "Feature",
      "geometry": {
        "type": "Point",
        "coordinates": [
          -82.713444,
          30.179667
        ]
      },
      "properties": {
        "id": "169752",
        "call_sign": "WPGT",
        "frequency": "90.1  MHz",
        "service": "FM",
        "owner": "GRACE CHURCH OF LAKE CITY INC",
        "city": "LAKE CITY",
        "state": "FL"
      }
    },
    {
      "type": "Feature",
      "geometry": {
        "type": "Point",
        "coordinates": [
          -84.627417,
          30.706306
        ]
      },
      "properties": {
        "id": "85909",
        "call_sign": "WFRU",
        "frequency": "90.1  MHz",
        "service": "FM",
        "owner": "FAITH RADIO NETWORK, INC.",
        "city": "QUINCY",
        "state": "FL"
      }
    },
    {
      "type": "Feature",
      "geometry": {
        "type": "Point",
        "coordinates": [
          -82.698611,
          27.831389
        ]
      },
      "properties": {
        "id": "195830",
        "call_sign": "WPBW-LP",
        "frequency": "90.1  MHz",
        "service": "FL",
        "owner": "PEACE BE WITH YOU MEDIA, INC.",
        "city": "ST. PETERSBURG",
        "state": "FL"
      }
    },
    {
      "type": "Feature",
      "geometry": {
        "type": "Point",
        "coordinates": [
          -85.259417,
          29.819194
        ]
      },
      "properties": {
        "id": "765522",
        "call_sign": "WODR",
        "frequency": "90.3  MHz",
        "service": "FM",
        "owner": "DESTINY WORSHIP CENTER",
        "city": "CALLAWAY",
        "state": "FL"
      }
    },
    {
      "type": "Feature",
      "geometry": {
        "type": "Point",
        "coordinates": [
          -81.753167,
          28.975583
        ]
      },
      "properties": {
        "id": "120610",
        "call_sign": "WIGW",
        "frequency": "90.3  MHz",
        "service": "FM",
        "owner": "RELEVANT RADIO, INC.",
        "city": "EUSTIS",
        "state": "FL"
      }
    },
    {
      "type": "Feature",
      "geometry": {
        "type": "Point",
        "coordinates": [
          -81.373333,
          25.844167
        ]
      },
      "properties": {
        "id": "47386",
        "call_sign": "WBGY",
        "frequency": "90.3  MHz",
        "service": "FM",
        "owner": "KOL HALEV 2020 CORPORATION",
        "city": "EVERGLADES CITY",
        "state": "FL"
      }
    },
    {
      "type": "Feature",
      "geometry": {
        "type": "Point",
        "coordinates": [
          -81.373333,
          25.844167
        ]
      },
      "properties": {
        "id": "47386",
        "call_sign": "WBGY",
        "frequency": "90.3  MHz",
        "service": "FM",
        "owner": "KOL HALEV 2020 CORPORATION",
        "city": "EVERGLADES CITY",
        "state": "FL"
      }
    },
    {
      "type": "Feature",
      "geometry": {
        "type": "Point",
        "coordinates": [
          -81.180056,
          29.374139
        ]
      },
      "properties": {
        "id": "13917",
        "call_sign": "WJLH",
        "frequency": "90.3  MHz",
        "service": "FM",
        "owner": "CORNERSTONE BROADCASTING CORPORATION",
        "city": "FLAGLER BEACH",
        "state": "FL"
      }
    },
    {
      "type": "Feature",
      "geometry": {
        "type": "Point",
        "coordinates": [
          -80.169778,
          26.153694
        ]
      },
      "properties": {
        "id": "72029",
        "call_sign": "WYBP",
        "frequency": "90.3  MHz",
        "service": "FM",
        "owner": "BIBLE BROADCASTING NETWORK, INC.",
        "city": "FORT LAUDERDALE",
        "state": "FL"
      }
    },
    {
      "type": "Feature",
      "geometry": {
        "type": "Point",
        "coordinates": [
          -83.656556,
          30.399083
        ]
      },
      "properties": {
        "id": "122010",
        "call_sign": "WYJC",
        "frequency": "90.3  MHz",
        "service": "FM",
        "owner": "CSN INTERNATIONAL",
        "city": "GREENVILLE",
        "state": "FL"
      }
    },
    {
      "type": "Feature",
      "geometry": {
        "type": "Point",
        "coordinates": [
          -81.622861,
          28.113917
        ]
      },
      "properties": {
        "id": "36500",
        "call_sign": "WLVF-FM",
        "frequency": "90.3  MHz",
        "service": "FM",
        "owner": "LANDMARK BAPTIST CHURCH, INC.",
        "city": "HAINES CITY",
        "state": "FL"
      }
    },
    {
      "type": "Feature",
      "geometry": {
        "type": "Point",
        "coordinates": [
          -80.675889,
          28.04725
        ]
      },
      "properties": {
        "id": "51316",
        "call_sign": "WEJF",
        "frequency": "90.3  MHz",
        "service": "FM",
        "owner": "FLORIDA PUBLIC RADIO, INC.",
        "city": "PALM BAY",
        "state": "FL"
      }
    },
    {
      "type": "Feature",
      "geometry": {
        "type": "Point",
        "coordinates": [
          -80.238889,
          27.169222
        ]
      },
      "properties": {
        "id": "66716",
        "call_sign": "W212AC",
        "frequency": "90.3  MHz",
        "service": "FX",
        "owner": "THE MOODY BIBLE INSTITUTE OF CHICAGO",
        "city": "STUART",
        "state": "FL"
      }
    },
    {
      "type": "Feature",
      "geometry": {
        "type": "Point",
        "coordinates": [
          -80.211889,
          26.589222
        ]
      },
      "properties": {
        "id": "123364",
        "call_sign": "W212CG",
        "frequency": "90.3  MHz",
        "service": "FX",
        "owner": "HOPE MEDIA GROUP",
        "city": "WEST PALM BEACH",
        "state": "FL"
      }
    },
    {
      "type": "Feature",
      "geometry": {
        "type": "Point",
        "coordinates": [
          -80.277222,
          25.713333
        ]
      },
      "properties": {
        "id": "74175",
        "call_sign": "WVUM",
        "frequency": "90.5  MHz",
        "service": "FM",
        "owner": "WVUM, INC.",
        "city": "CORAL GABLES",
        "state": "FL"
      }
    },
    {
      "type": "Feature",
      "geometry": {
        "type": "Point",
        "coordinates": [
          -80.27975,
          25.717583
        ]
      },
      "properties": {
        "id": "74175",
        "call_sign": "WVUM",
        "frequency": "90.5  MHz",
        "service": "FM",
        "owner": "WVUM, INC.",
        "city": "CORAL GABLES",
        "state": "FL"
      }
    },
    {
      "type": "Feature",
      "geometry": {
        "type": "Point",
        "coordinates": [
          -80.279,
          25.721056
        ]
      },
      "properties": {
        "id": "74175",
        "call_sign": "WVUM",
        "frequency": "90.5  MHz",
        "service": "FM",
        "owner": "WVUM, INC.",
        "city": "CORAL GABLES",
        "state": "FL"
      }
    },
    {
      "type": "Feature",
      "geometry": {
        "type": "Point",
        "coordinates": [
          -81.846194,
          26.658944
        ]
      },
      "properties": {
        "id": "194259",
        "call_sign": "WGGM-LP",
        "frequency": "90.5  MHz",
        "service": "FL",
        "owner": "DUNBAR GOSPEL ASSOCIATION OF SOUTHWEST FLORIDA, INC.",
        "city": "FORT MYERS",
        "state": "FL"
      }
    },
    {
      "type": "Feature",
      "geometry": {
        "type": "Point",
        "coordinates": [
          -82.201667,
          29.870194
        ]
      },
      "properties": {
        "id": "5083",
        "call_sign": "WYFB",
        "frequency": "90.5  MHz",
        "service": "FM",
        "owner": "BIBLE BROADCASTING NETWORK, INC.",
        "city": "GAINESVILLE",
        "state": "FL"
      }
    },
    {
      "type": "Feature",
      "geometry": {
        "type": "Point",
        "coordinates": [
          -81.80175,
          24.555417
        ]
      },
      "properties": {
        "id": "94012",
        "call_sign": "W213BF",
        "frequency": "90.5  MHz",
        "service": "FX",
        "owner": "FAMILY WORSHIP CENTER CHURCH, INC.",
        "city": "KEY WEST",
        "state": "FL"
      }
    },
    {
      "type": "Feature",
      "geometry": {
        "type": "Point",
        "coordinates": [
          -87.129139,
          30.604361
        ]
      },
      "properties": {
        "id": "20474",
        "call_sign": "WTGF",
        "frequency": "90.5  MHz",
        "service": "FM",
        "owner": "FAITH BIBLE COLLEGE, INC.",
        "city": "MILTON",
        "state": "FL"
      }
    },
    {
      "type": "Feature",
      "geometry": {
        "type": "Point",
        "coordinates": [
          -81.710417,
          26.341667
        ]
      },
      "properties": {
        "id": "156543",
        "call_sign": "W213BQ",
        "frequency": "90.5  MHz",
        "service": "FX",
        "owner": "CALL COMMUNICATIONS GROUP, INC.",
        "city": "NAPLES",
        "state": "FL"
      }
    },
    {
      "type": "Feature",
      "geometry": {
        "type": "Point",
        "coordinates": [
          -80.950778,
          27.3475
        ]
      },
      "properties": {
        "id": "763889",
        "call_sign": "WQCO",
        "frequency": "90.5  MHz",
        "service": "FM",
        "owner": "INDIAN RIVER STATE COLLEGE",
        "city": "OKEECHOBEE",
        "state": "FL"
      }
    },
    {
      "type": "Feature",
      "geometry": {
        "type": "Point",
        "coordinates": [
          -84.290722,
          30.430472
        ]
      },
      "properties": {
        "id": "21755",
        "call_sign": "WANM",
        "frequency": "90.5  MHz",
        "service": "FM",
        "owner": "FLORIDA A & M UNIVERSITY",
        "city": "TALLAHASSEE",
        "state": "FL"
      }
    },
    {
      "type": "Feature",
      "geometry": {
        "type": "Point",
        "coordinates": [
          -84.290722,
          30.430472
        ]
      },
      "properties": {
        "id": "21755",
        "call_sign": "WANM",
        "frequency": "90.5  MHz",
        "service": "FS",
        "owner": "FLORIDA A & M UNIVERSITY",
        "city": "TALLAHASSEE",
        "state": "FL"
      }
    },
    {
      "type": "Feature",
      "geometry": {
        "type": "Point",
        "coordinates": [
          -82.263139,
          27.848917
        ]
      },
      "properties": {
        "id": "5373",
        "call_sign": "WBVM",
        "frequency": "90.5  MHz",
        "service": "FM",
        "owner": "BISHOP OF THE DIOCESE OF ST. PETERSBURG",
        "city": "TAMPA",
        "state": "FL"
      }
    },
    {
      "type": "Feature",
      "geometry": {
        "type": "Point",
        "coordinates": [
          -82.263139,
          27.848361
        ]
      },
      "properties": {
        "id": "5373",
        "call_sign": "WBVM",
        "frequency": "90.5  MHz",
        "service": "FS",
        "owner": "BISHOP OF THE DIOCESE OF ST. PETERSBURG",
        "city": "TAMPA",
        "state": "FL"
      }
    },
    {
      "type": "Feature",
      "geometry": {
        "type": "Point",
        "coordinates": [
          -81.419361,
          24.661472
        ]
      },
      "properties": {
        "id": "768214",
        "call_sign": "NEW",
        "frequency": "90.7  MHz",
        "service": "FM",
        "owner": "GETHSEMANE FELLOWSHIP OF CHURCHES INTERNATIONAL CORP.",
        "city": "BIG PINE KEY",
        "state": "FL"
      }
    },
    {
      "type": "Feature",
      "geometry": {
        "type": "Point",
        "coordinates": [
          -80.4415,
          27.736806
        ]
      },
      "properties": {
        "id": "91128",
        "call_sign": "W214BD",
        "frequency": "90.7  MHz",
        "service": "FX",
        "owner": "K-LOVE, INC.",
        "city": "GIFFORD, VERO BEACH",
        "state": "FL"
      }
    },
    {
      "type": "Feature",
      "geometry": {
        "type": "Point",
        "coordinates": [
          -81.093389,
          28.6025
        ]
      },
      "properties": {
        "id": "12857",
        "call_sign": "WMFE-FM",
        "frequency": "90.7  MHz",
        "service": "FM",
        "owner": "COMMUNITY COMMUNICATIONS, INC.",
        "city": "ORLANDO",
        "state": "FL"
      }
    },
    {
      "type": "Feature",
      "geometry": {
        "type": "Point",
        "coordinates": [
          -85.661583,
          30.296028
        ]
      },
      "properties": {
        "id": "25562",
        "call_sign": "WKGC-FM",
        "frequency": "90.7  MHz",
        "service": "FM",
        "owner": "GULF COAST STATE COLLEGE",
        "city": "PANAMA CITY",
        "state": "FL"
      }
    },
    {
      "type": "Feature",
      "geometry": {
        "type": "Point",
        "coordinates": [
          -85.725528,
          30.185806
        ]
      },
      "properties": {
        "id": "25562",
        "call_sign": "WKGC-FM",
        "frequency": "90.7  MHz",
        "service": "FS",
        "owner": "GULF COAST STATE COLLEGE",
        "city": "PANAMA CITY",
        "state": "FL"
      }
    },
    {
      "type": "Feature",
      "geometry": {
        "type": "Point",
        "coordinates": [
          -80.212,
          26.589222
        ]
      },
      "properties": {
        "id": "58363",
        "call_sign": "WFLV",
        "frequency": "90.7  MHz",
        "service": "FM",
        "owner": "K-LOVE, INC.",
        "city": "WEST PALM BEACH",
        "state": "FL"
      }
    },
    {
      "type": "Feature",
      "geometry": {
        "type": "Point",
        "coordinates": [
          -83.2375,
          29.730278
        ]
      },
      "properties": {
        "id": "767144",
        "call_sign": "WSJX",
        "frequency": "90.9  MHz",
        "service": "FM",
        "owner": "BIG BEND HERITAGE MUSIC ASSOCIATION, INC",
        "city": "CROSS CITY",
        "state": "FL"
      }
    },
    {
      "type": "Feature",
      "geometry": {
        "type": "Point",
        "coordinates": [
          -82.450944,
          29.03025
        ]
      },
      "properties": {
        "id": "40159",
        "call_sign": "WAQV",
        "frequency": "90.9  MHz",
        "service": "FM",
        "owner": "RADIO TRAINING NETWORK, INC.",
        "city": "CRYSTAL RIVER",
        "state": "FL"
      }
    },
    {
      "type": "Feature",
      "geometry": {
        "type": "Point",
        "coordinates": [
          -80.404222,
          25.325667
        ]
      },
      "properties": {
        "id": "76516",
        "call_sign": "WLFE",
        "frequency": "90.9  MHz",
        "service": "FM",
        "owner": "HOPE MEDIA GROUP",
        "city": "CUTLER BAY",
        "state": "FL"
      }
    },
    {
      "type": "Feature",
      "geometry": {
        "type": "Point",
        "coordinates": [
          -81.564083,
          30.276389
        ]
      },
      "properties": {
        "id": "31936",
        "call_sign": "WJKV",
        "frequency": "90.9  MHz",
        "service": "FM",
        "owner": "K-LOVE, INC.",
        "city": "JACKSONVILLE",
        "state": "FL"
      }
    },
    {
      "type": "Feature",
      "geometry": {
        "type": "Point",
        "coordinates": [
          -81.798806,
          24.567167
        ]
      },
      "properties": {
        "id": "767207",
        "call_sign": "NEW",
        "frequency": "90.9  MHz",
        "service": "FM",
        "owner": "NEWLAND BROADCASTERS INCORPORATED",
        "city": "KEY WEST",
        "state": "FL"
      }
    },
    {
      "type": "Feature",
      "geometry": {
        "type": "Point",
        "coordinates": [
          -81.798806,
          24.567167
        ]
      },
      "properties": {
        "id": "767207",
        "call_sign": "NEW",
        "frequency": "90.9  MHz",
        "service": "FM",
        "owner": "NEWLAND BROADCASTERS INCORPORATED",
        "city": "KEY WEST",
        "state": "FL"
      }
    },
    {
      "type": "Feature",
      "geometry": {
        "type": "Point",
        "coordinates": [
          -81.710361,
          26.34175
        ]
      },
      "properties": {
        "id": "61506",
        "call_sign": "WSOR",
        "frequency": "90.9  MHz",
        "service": "FM",
        "owner": "THE MOODY BIBLE INSTITUTE OF CHICAGO",
        "city": "NAPLES",
        "state": "FL"
      }
    },
    {
      "type": "Feature",
      "geometry": {
        "type": "Point",
        "coordinates": [
          -82.668472,
          27.79475
        ]
      },
      "properties": {
        "id": "106675",
        "call_sign": "W215CJ",
        "frequency": "90.9  MHz",
        "service": "FX",
        "owner": "THE MOODY BIBLE INSTITUTE OF CHICAGO",
        "city": "ST. PETERSBURG",
        "state": "FL"
      }
    },
    {
      "type": "Feature",
      "geometry": {
        "type": "Point",
        "coordinates": [
          -80.361167,
          27.435583
        ]
      },
      "properties": {
        "id": "5488",
        "call_sign": "WQCP",
        "frequency": "91.1  MHz",
        "service": "FM",
        "owner": "INDIAN RIVER STATE COLLEGE",
        "city": "FORT PIERCE",
        "state": "FL"
      }
    },
    {
      "type": "Feature",
      "geometry": {
        "type": "Point",
        "coordinates": [
          -86.623222,
          30.409972
        ]
      },
      "properties": {
        "id": "22811",
        "call_sign": "WPSM",
        "frequency": "91.1  MHz",
        "service": "FM",
        "owner": "DESTINY WORSHIP CENTER INC.",
        "city": "FORT WALTON BEACH",
        "state": "FL"
      }
    },
    {
      "type": "Feature",
      "geometry": {
        "type": "Point",
        "coordinates": [
          -82.040639,
          28.079722
        ]
      },
      "properties": {
        "id": "19871",
        "call_sign": "WKES",
        "frequency": "91.1  MHz",
        "service": "FM",
        "owner": "THE MOODY BIBLE INSTITUTE OF CHICAGO",
        "city": "LAKELAND",
        "state": "FL"
      }
    },
    {
      "type": "Feature",
      "geometry": {
        "type": "Point",
        "coordinates": [
          -82.040639,
          28.07975
        ]
      },
      "properties": {
        "id": "19871",
        "call_sign": "WKES",
        "frequency": "91.1  MHz",
        "service": "FS",
        "owner": "THE MOODY BIBLE INSTITUTE OF CHICAGO",
        "city": "LAKELAND",
        "state": "FL"
      }
    },
    {
      "type": "Feature",
      "geometry": {
        "type": "Point",
        "coordinates": [
          -85.188528,
          30.751
        ]
      },
      "properties": {
        "id": "173595",
        "call_sign": "WHMF",
        "frequency": "91.1  MHz",
        "service": "FM",
        "owner": "RADIO 74 INTERNATIONALE",
        "city": "MARIANNA",
        "state": "FL"
      }
    },
    {
      "type": "Feature",
      "geometry": {
        "type": "Point",
        "coordinates": [
          -81.155611,
          29.435806
        ]
      },
      "properties": {
        "id": "92508",
        "call_sign": "WHYZ",
        "frequency": "91.1  MHz",
        "service": "FM",
        "owner": "CENTRAL FLORIDA EDUCATIONAL FOUNDATION, INC.",
        "city": "PALM COAST",
        "state": "FL"
      }
    },
    {
      "type": "Feature",
      "geometry": {
        "type": "Point",
        "coordinates": [
          -81.155611,
          29.435806
        ]
      },
      "properties": {
        "id": "92508",
        "call_sign": "WHYZ",
        "frequency": "91.1  MHz",
        "service": "FS",
        "owner": "CENTRAL FLORIDA EDUCATIONAL FOUNDATION, INC.",
        "city": "PALM COAST",
        "state": "FL"
      }
    },
    {
      "type": "Feature",
      "geometry": {
        "type": "Point",
        "coordinates": [
          -85.298083,
          29.806278
        ]
      },
      "properties": {
        "id": "122677",
        "call_sign": "W216BT",
        "frequency": "91.1  MHz",
        "service": "FX",
        "owner": "FLORIDA STATE UNIVERSITY",
        "city": "PORT ST. JOE",
        "state": "FL"
      }
    },
    {
      "type": "Feature",
      "geometry": {
        "type": "Point",
        "coordinates": [
          -83.871278,
          30.515472
        ]
      },
      "properties": {
        "id": "122209",
        "call_sign": "WUJC",
        "frequency": "91.1  MHz",
        "service": "FM",
        "owner": "CSN INTERNATIONAL",
        "city": "ST. MARKS",
        "state": "FL"
      }
    },
    {
      "type": "Feature",
      "geometry": {
        "type": "Point",
        "coordinates": [
          -82.144528,
          29.177194
        ]
      },
      "properties": {
        "id": "76441",
        "call_sign": "WYFZ",
        "frequency": "91.3  MHz",
        "service": "FM",
        "owner": "BIBLE BROADCASTING NETWORK, INC.",
        "city": "BELLEVIEW",
        "state": "FL"
      }
    },
    {
      "type": "Feature",
      "geometry": {
        "type": "Point",
        "coordinates": [
          -86.141028,
          30.684889
        ]
      },
      "properties": {
        "id": "68290",
        "call_sign": "WAKJ",
        "frequency": "91.3  MHz",
        "service": "FM",
        "owner": "FIRST BAPTIST CHURCH, INC.",
        "city": "DEFUNIAK SPRINGS",
        "state": "FL"
      }
    },
    {
      "type": "Feature",
      "geometry": {
        "type": "Point",
        "coordinates": [
          -82.298139,
          26.863667
        ]
      },
      "properties": {
        "id": "63899",
        "call_sign": "WSEB",
        "frequency": "91.3  MHz",
        "service": "FM",
        "owner": "SUNCOAST EDUCATIONAL BROADCASTING CORP.",
        "city": "ENGLEWOOD",
        "state": "FL"
      }
    },
    {
      "type": "Feature",
      "geometry": {
        "type": "Point",
        "coordinates": [
          -81.636472,
          30.276083
        ]
      },
      "properties": {
        "id": "93157",
        "call_sign": "W217BL",
        "frequency": "91.3  MHz",
        "service": "FX",
        "owner": "CSN INTERNATIONAL, INC.",
        "city": "JACKSONVILLE",
        "state": "FL"
      }
    },
    {
      "type": "Feature",
      "geometry": {
        "type": "Point",
        "coordinates": [
          -82.812083,
          30.049111
        ]
      },
      "properties": {
        "id": "73398",
        "call_sign": "WOLR",
        "frequency": "91.3  MHz",
        "service": "FM",
        "owner": "FAITH RADIO NETWORK, INC",
        "city": "LAKE CITY",
        "state": "FL"
      }
    },
    {
      "type": "Feature",
      "geometry": {
        "type": "Point",
        "coordinates": [
          -80.195889,
          25.979806
        ]
      },
      "properties": {
        "id": "66339",
        "call_sign": "WLRN-FM",
        "frequency": "91.3  MHz",
        "service": "FM",
        "owner": "THE SCHOOL BOARD OF MIAMI-DADE COUNTY, FLORIDA",
        "city": "MIAMI",
        "state": "FL"
      }
    },
    {
      "type": "Feature",
      "geometry": {
        "type": "Point",
        "coordinates": [
          -81.592028,
          29.652194
        ]
      },
      "properties": {
        "id": "53953",
        "call_sign": "WHIF",
        "frequency": "91.3  MHz",
        "service": "FM",
        "owner": "PUTNAM RADIO MINISTRIES, INC.",
        "city": "PALATKA",
        "state": "FL"
      }
    },
    {
      "type": "Feature",
      "geometry": {
        "type": "Point",
        "coordinates": [
          -82.897889,
          29.459944
        ]
      },
      "properties": {
        "id": "38349",
        "call_sign": "WTBH",
        "frequency": "91.5  MHz",
        "service": "FM",
        "owner": "LONG POND BAPTIST CHURCH",
        "city": "CHIEFLAND",
        "state": "FL"
      }
    },
    {
      "type": "Feature",
      "geometry": {
        "type": "Point",
        "coordinates": [
          -80.899778,
          26.71
        ]
      },
      "properties": {
        "id": "83097",
        "call_sign": "WPSF",
        "frequency": "91.5  MHz",
        "service": "FM",
        "owner": "CALL COMMUNICATIONS GROUP, INC.",
        "city": "CLEWISTON",
        "state": "FL"
      }
    },
    {
      "type": "Feature",
      "geometry": {
        "type": "Point",
        "coordinates": [
          -80.746139,
          28.356111
        ]
      },
      "properties": {
        "id": "47548",
        "call_sign": "WMIE-FM",
        "frequency": "91.5  MHz",
        "service": "FM",
        "owner": "NATIONAL CHRISTIAN NETWORK, INC.",
        "city": "COCOA",
        "state": "FL"
      }
    },
    {
      "type": "Feature",
      "geometry": {
        "type": "Point",
        "coordinates": [
          -81.791167,
          28.952472
        ]
      },
      "properties": {
        "id": "93234",
        "call_sign": "WGTT",
        "frequency": "91.5  MHz",
        "service": "FM",
        "owner": "BIBLE CLARITY",
        "city": "EMERALDA",
        "state": "FL"
      }
    },
    {
      "type": "Feature",
      "geometry": {
        "type": "Point",
        "coordinates": [
          -81.373333,
          25.844167
        ]
      },
      "properties": {
        "id": "762103",
        "call_sign": "WVOI",
        "frequency": "91.5  MHz",
        "service": "FM",
        "owner": "BOKEV MEDIA, INC.",
        "city": "EVERGLADES CITY",
        "state": "FL"
      }
    },
    {
      "type": "Feature",
      "geometry": {
        "type": "Point",
        "coordinates": [
          -81.852139,
          26.505444
        ]
      },
      "properties": {
        "id": "67215",
        "call_sign": "WJYO",
        "frequency": "91.5  MHz",
        "service": "FM",
        "owner": "AIRWAVES FOR JESUS, INC.",
        "city": "FORT MYERS",
        "state": "FL"
      }
    },
    {
      "type": "Feature",
      "geometry": {
        "type": "Point",
        "coordinates": [
          -81.047833,
          29.251917
        ]
      },
      "properties": {
        "id": "53836",
        "call_sign": "WAPN",
        "frequency": "91.5  MHz",
        "service": "FM",
        "owner": "PUBLIC RADIO, INC.",
        "city": "HOLLY HILL",
        "state": "FL"
      }
    },
    {
      "type": "Feature",
      "geometry": {
        "type": "Point",
        "coordinates": [
          -81.41925,
          24.661528
        ]
      },
      "properties": {
        "id": "122606",
        "call_sign": "WKWM",
        "frequency": "91.5  MHz",
        "service": "FM",
        "owner": "THE SCHOOL BOARD OF MIAMI - DADE COUNTY, FL",
        "city": "MARATHON",
        "state": "FL"
      }
    },
    {
      "type": "Feature",
      "geometry": {
        "type": "Point",
        "coordinates": [
          -82.768139,
          28.1825
        ]
      },
      "properties": {
        "id": "60262",
        "call_sign": "WCIE",
        "frequency": "91.5  MHz",
        "service": "FM",
        "owner": "RADIO TRAINING NETWORK, INC.",
        "city": "NEW PORT RICHEY",
        "state": "FL"
      }
    },
    {
      "type": "Feature",
      "geometry": {
        "type": "Point",
        "coordinates": [
          -82.711667,
          28.283056
        ]
      },
      "properties": {
        "id": "60262",
        "call_sign": "WCIE",
        "frequency": "91.5  MHz",
        "service": "FS",
        "owner": "RADIO TRAINING NETWORK, INC.",
        "city": "NEW PORT RICHEY",
        "state": "FL"
      }
    },
    {
      "type": "Feature",
      "geometry": {
        "type": "Point",
        "coordinates": [
          -82.102583,
          29.339417
        ]
      },
      "properties": {
        "id": "171562",
        "call_sign": "WTYG",
        "frequency": "91.5  MHz",
        "service": "FM",
        "owner": "CENTRAL BAPTIST CHURCH OF OCALA INC.",
        "city": "SPARR",
        "state": "FL"
      }
    },
    {
      "type": "Feature",
      "geometry": {
        "type": "Point",
        "coordinates": [
          -84.610472,
          30.358806
        ]
      },
      "properties": {
        "id": "21803",
        "call_sign": "WFSQ",
        "frequency": "91.5  MHz",
        "service": "FM",
        "owner": "FLORIDA STATE UNIVERSITY",
        "city": "TALLAHASSEE",
        "state": "FL"
      }
    },
    {
      "type": "Feature",
      "geometry": {
        "type": "Point",
        "coordinates": [
          -84.313611,
          30.418056
        ]
      },
      "properties": {
        "id": "21803",
        "call_sign": "WFSQ",
        "frequency": "91.5  MHz",
        "service": "FS",
        "owner": "FLORIDA STATE UNIVERSITY",
        "city": "TALLAHASSEE",
        "state": "FL"
      }
    },
    {
      "type": "Feature",
      "geometry": {
        "type": "Point",
        "coordinates": [
          -80.051417,
          26.707556
        ]
      },
      "properties": {
        "id": "155996",
        "call_sign": "W218CW",
        "frequency": "91.5  MHz",
        "service": "FX",
        "owner": "LOAM MEDIA, INC.",
        "city": "WEST PALM",
        "state": "FL"
      }
    },
    {
      "type": "Feature",
      "geometry": {
        "type": "Point",
        "coordinates": [
          -81.369167,
          28.589833
        ]
      },
      "properties": {
        "id": "57473",
        "call_sign": "WPRK",
        "frequency": "91.5  MHz",
        "service": "FM",
        "owner": "ROLLINS COLLEGE",
        "city": "WINTER PARK",
        "state": "FL"
      }
    },
    {
      "type": "Feature",
      "geometry": {
        "type": "Point",
        "coordinates": [
          -80.107222,
          26.096667
        ]
      },
      "properties": {
        "id": "783064",
        "call_sign": "WIJF-LP",
        "frequency": "91.7  MHz",
        "service": "FL",
        "owner": "CHABAD CHAYIL, INC",
        "city": "FORT LAUDERDALE",
        "state": "FL"
      }
    },
    {
      "type": "Feature",
      "geometry": {
        "type": "Point",
        "coordinates": [
          -82.390278,
          29.711944
        ]
      },
      "properties": {
        "id": "21506",
        "call_sign": "WJLF",
        "frequency": "91.7  MHz",
        "service": "FM",
        "owner": "RADIO TRAINING NETWORK, INC.",
        "city": "GAINESVILLE",
        "state": "FL"
      }
    },
    {
      "type": "Feature",
      "geometry": {
        "type": "Point",
        "coordinates": [
          -82.946417,
          30.518056
        ]
      },
      "properties": {
        "id": "173855",
        "call_sign": "WWJJ",
        "frequency": "91.7  MHz",
        "service": "FM",
        "owner": "FLORIDA EDUCATIONAL RADIO, INC.",
        "city": "JASPER",
        "state": "FL"
      }
    },
    {
      "type": "Feature",
      "geometry": {
        "type": "Point",
        "coordinates": [
          -82.95575,
          30.49075
        ]
      },
      "properties": {
        "id": "173855",
        "call_sign": "WWJJ",
        "frequency": "91.7  MHz",
        "service": "FM",
        "owner": "FLORIDA EDUCATIONAL RADIO, INC.",
        "city": "JASPER",
        "state": "FL"
      }
    },
    {
      "type": "Feature",
      "geometry": {
        "type": "Point",
        "coordinates": [
          -83.404583,
          30.453806
        ]
      },
      "properties": {
        "id": "87426",
        "call_sign": "WAPB",
        "frequency": "91.7  MHz",
        "service": "FM",
        "owner": "PUBLIC RADIO, INC.",
        "city": "MADISON",
        "state": "FL"
      }
    },
    {
      "type": "Feature",
      "geometry": {
        "type": "Point",
        "coordinates": [
          -81.701056,
          26.053222
        ]
      },
      "properties": {
        "id": "69378",
        "call_sign": "WMKO",
        "frequency": "91.7  MHz",
        "service": "FM",
        "owner": "THE FLORIDA GULF COAST UNIVERSITY BOARD OF TRUSTEES",
        "city": "MARCO ISLAND",
        "state": "FL"
      }
    },
    {
      "type": "Feature",
      "geometry": {
        "type": "Point",
        "coordinates": [
          -87.086639,
          30.622417
        ]
      },
      "properties": {
        "id": "21792",
        "call_sign": "WEGS",
        "frequency": "91.7  MHz",
        "service": "FM",
        "owner": "FLORIDA PUBLIC RADIO, INC.",
        "city": "MILTON",
        "state": "FL"
      }
    },
    {
      "type": "Feature",
      "geometry": {
        "type": "Point",
        "coordinates": [
          -81.563972,
          30.276361
        ]
      },
      "properties": {
        "id": "47425",
        "call_sign": "WTRJ-FM",
        "frequency": "91.7  MHz",
        "service": "FM",
        "owner": "DELMARVA EDUCATIONAL ASSOCIATION",
        "city": "ORANGE PARK",
        "state": "FL"
      }
    },
    {
      "type": "Feature",
      "geometry": {
        "type": "Point",
        "coordinates": [
          -85.775833,
          30.183472
        ]
      },
      "properties": {
        "id": "85581",
        "call_sign": "WFFL",
        "frequency": "91.7  MHz",
        "service": "FM",
        "owner": "FAMILY WORSHIP CENTER CHURCH, INC.",
        "city": "PANAMA CITY",
        "state": "FL"
      }
    },
    {
      "type": "Feature",
      "geometry": {
        "type": "Point",
        "coordinates": [
          -81.539528,
          29.439972
        ]
      },
      "properties": {
        "id": "176311",
        "call_sign": "WDOZ",
        "frequency": "91.7  MHz",
        "service": "FM",
        "owner": "CENTRAL FLORIDA EDUCATIONAL FOUNDATION, INC.",
        "city": "PIERSON",
        "state": "FL"
      }
    },
    {
      "type": "Feature",
      "geometry": {
        "type": "Point",
        "coordinates": [
          -80.172778,
          26.370278
        ]
      },
      "properties": {
        "id": "782964",
        "call_sign": "WELA-LP",
        "frequency": "91.7  MHz",
        "service": "FL",
        "owner": "CENTRE HAITIEN D'ACTION HUMANITAIRE, INC.",
        "city": "POMPANO BEACH",
        "state": "FL"
      }
    },
    {
      "type": "Feature",
      "geometry": {
        "type": "Point",
        "coordinates": [
          -82.067361,
          26.9805
        ]
      },
      "properties": {
        "id": "53029",
        "call_sign": "WVIJ",
        "frequency": "91.7  MHz",
        "service": "FM",
        "owner": "LAKE ERIE COLLEGE OF OSTEOPATHIC MEDICINE, INC.",
        "city": "PORT CHARLOTTE",
        "state": "FL"
      }
    },
    {
      "type": "Feature",
      "geometry": {
        "type": "Point",
        "coordinates": [
          -81.490917,
          27.381417
        ]
      },
      "properties": {
        "id": "81147",
        "call_sign": "WJFH",
        "frequency": "91.7  MHz",
        "service": "FM",
        "owner": "RADIO TRAINING NETWORK, INC.",
        "city": "SEBRING",
        "state": "FL"
      }
    },
    {
      "type": "Feature",
      "geometry": {
        "type": "Point",
        "coordinates": [
          -80.3995,
          27.120889
        ]
      },
      "properties": {
        "id": "20785",
        "call_sign": "WWFR",
        "frequency": "91.7  MHz",
        "service": "FM",
        "owner": "LOAM MEDIA, INC.",
        "city": "STUART",
        "state": "FL"
      }
    },
    {
      "type": "Feature",
      "geometry": {
        "type": "Point",
        "coordinates": [
          -80.540611,
          24.990389
        ]
      },
      "properties": {
        "id": "175531",
        "call_sign": "WMKJ",
        "frequency": "91.7  MHz",
        "service": "FM",
        "owner": "CALL COMMUNICATIONS GROUP, INC.",
        "city": "TAVERNIER",
        "state": "FL"
      }
    },
    {
      "type": "Feature",
      "geometry": {
        "type": "Point",
        "coordinates": [
          -81.037556,
          27.096417
        ]
      },
      "properties": {
        "id": "174484",
        "call_sign": "WTIR",
        "frequency": "91.9  MHz",
        "service": "FM",
        "owner": "SEMINOLE TRIBE OF FLORIDA",
        "city": "BRIGHTON RESERVATION",
        "state": "FL"
      }
    },
    {
      "type": "Feature",
      "geometry": {
        "type": "Point",
        "coordinates": [
          -82.505667,
          28.841639
        ]
      },
      "properties": {
        "id": "11026",
        "call_sign": "WHGN",
        "frequency": "91.9  MHz",
        "service": "FM",
        "owner": "THE MOODY BIBLE INSTITUTE OF CHICAGO",
        "city": "CRYSTAL RIVER",
        "state": "FL"
      }
    },
    {
      "type": "Feature",
      "geometry": {
        "type": "Point",
        "coordinates": [
          -81.796083,
          26.78575
        ]
      },
      "properties": {
        "id": "174244",
        "call_sign": "WMYE",
        "frequency": "91.9  MHz",
        "service": "FM",
        "owner": "CALL COMMUNICATIONS GROUP, INC.",
        "city": "FORT MYERS",
        "state": "FL"
      }
    },
    {
      "type": "Feature",
      "geometry": {
        "type": "Point",
        "coordinates": [
          -80.819444,
          25.761944
        ]
      },
      "properties": {
        "id": "61087",
        "call_sign": "WMKL",
        "frequency": "91.9  MHz",
        "service": "FM",
        "owner": "RADIO MARIA, INC.",
        "city": "HAMMOCKS",
        "state": "FL"
      }
    },
    {
      "type": "Feature",
      "geometry": {
        "type": "Point",
        "coordinates": [
          -81.798139,
          24.55275
        ]
      },
      "properties": {
        "id": "175644",
        "call_sign": "WKWJ",
        "frequency": "91.9  MHz",
        "service": "FM",
        "owner": "CHRISTIAN RADIO FELLOWSHIP, INC.",
        "city": "KEY WEST",
        "state": "FL"
      }
    },
    {
      "type": "Feature",
      "geometry": {
        "type": "Point",
        "coordinates": [
          -81.801194,
          24.555417
        ]
      },
      "properties": {
        "id": "175644",
        "call_sign": "WKWJ",
        "frequency": "91.9  MHz",
        "service": "FM",
        "owner": "CHRISTIAN RADIO FELLOWSHIP, INC.",
        "city": "KEY WEST",
        "state": "FL"
      }
    },
    {
      "type": "Feature",
      "geometry": {
        "type": "Point",
        "coordinates": [
          -81.912306,
          27.943361
        ]
      },
      "properties": {
        "id": "5116",
        "call_sign": "WYFO",
        "frequency": "91.9  MHz",
        "service": "FM",
        "owner": "BIBLE BROADCASTING NETWORK, INC.",
        "city": "LAKELAND",
        "state": "FL"
      }
    },
    {
      "type": "Feature",
      "geometry": {
        "type": "Point",
        "coordinates": [
          -83.940444,
          30.670472
        ]
      },
      "properties": {
        "id": "93356",
        "call_sign": "WKVH",
        "frequency": "91.9  MHz",
        "service": "FM",
        "owner": "K-LOVE, INC.",
        "city": "MONTICELLO",
        "state": "FL"
      }
    },
    {
      "type": "Feature",
      "geometry": {
        "type": "Point",
        "coordinates": [
          -82.767806,
          28.182611
        ]
      },
      "properties": {
        "id": "106676",
        "call_sign": "W220EK",
        "frequency": "91.9  MHz",
        "service": "FX",
        "owner": "RADIO TRAINING NETWORK, INC.",
        "city": "OLDSMAR",
        "state": "FL"
      }
    },
    {
      "type": "Feature",
      "geometry": {
        "type": "Point",
        "coordinates": [
          -81.462778,
          28.574444
        ]
      },
      "properties": {
        "id": "788644",
        "call_sign": "WCFN-LP",
        "frequency": "91.9  MHz",
        "service": "FL",
        "owner": "CHRIST FOR ALL NATIONS CHURCH, INC.",
        "city": "ORLANDO",
        "state": "FL"
      }
    },
    {
      "type": "Feature",
      "geometry": {
        "type": "Point",
        "coordinates": [
          -81.330361,
          29.85025
        ]
      },
      "properties": {
        "id": "49963",
        "call_sign": "WAYL",
        "frequency": "91.9  MHz",
        "service": "FM",
        "owner": "DELMARVA EDUCATIONAL ASSOCIATION",
        "city": "ST. AUGUSTINE",
        "state": "FL"
      }
    },
    {
      "type": "Feature",
      "geometry": {
        "type": "Point",
        "coordinates": [
          -80.466167,
          27.636417
        ]
      },
      "properties": {
        "id": "9871",
        "call_sign": "WSCF-FM",
        "frequency": "91.9  MHz",
        "service": "FM",
        "owner": "TREASURE COAST EDUCATIONAL MEDIA, INC.",
        "city": "VERO BEACH",
        "state": "FL"
      }
    },
    {
      "type": "Feature",
      "geometry": {
        "type": "Point",
        "coordinates": [
          -86.622722,
          30.41075
        ]
      },
      "properties": {
        "id": "19475",
        "call_sign": "WBON",
        "frequency": "92.1  MHz",
        "service": "FM",
        "owner": "JVC MEDIA OF FLORIDA, LLC",
        "city": "DESTIN",
        "state": "FL"
      }
    },
    {
      "type": "Feature",
      "geometry": {
        "type": "Point",
        "coordinates": [
          -86.622722,
          30.41075
        ]
      },
      "properties": {
        "id": "19475",
        "call_sign": "WBON",
        "frequency": "92.1  MHz",
        "service": "FS",
        "owner": "JVC MEDIA OF FLORIDA, LLC",
        "city": "DESTIN",
        "state": "FL"
      }
    },
    {
      "type": "Feature",
      "geometry": {
        "type": "Point",
        "coordinates": [
          -81.908417,
          29.369972
        ]
      },
      "properties": {
        "id": "192097",
        "call_sign": "WVET-LP",
        "frequency": "92.1  MHz",
        "service": "FL",
        "owner": "EUREKA COMMUNITY EDUCATION SERVICES, INC.",
        "city": "FORT MCCOY",
        "state": "FL"
      }
    },
    {
      "type": "Feature",
      "geometry": {
        "type": "Point",
        "coordinates": [
          -82.413139,
          29.682444
        ]
      },
      "properties": {
        "id": "147176",
        "call_sign": "W221DX",
        "frequency": "92.1  MHz",
        "service": "FX",
        "owner": "URBAN ONE BROADCASTING NETWORK, LLC",
        "city": "GAINESVILLE",
        "state": "FL"
      }
    },
    {
      "type": "Feature",
      "geometry": {
        "type": "Point",
        "coordinates": [
          -81.271194,
          26.448694
        ]
      },
      "properties": {
        "id": "47387",
        "call_sign": "WAFZ-FM",
        "frequency": "92.1  MHz",
        "service": "FM",
        "owner": "GLADES MEDIA COMPANY LLC",
        "city": "IMMOKALEE",
        "state": "FL"
      }
    },
    {
      "type": "Feature",
      "geometry": {
        "type": "Point",
        "coordinates": [
          -81.429806,
          26.409806
        ]
      },
      "properties": {
        "id": "47387",
        "call_sign": "WAFZ-FM",
        "frequency": "92.1  MHz",
        "service": "FS",
        "owner": "GLADES MEDIA COMPANY LLC",
        "city": "IMMOKALEE",
        "state": "FL"
      }
    },
    {
      "type": "Feature",
      "geometry": {
        "type": "Point",
        "coordinates": [
          -82.015083,
          30.298556
        ]
      },
      "properties": {
        "id": "73151",
        "call_sign": "WJXR",
        "frequency": "92.1  MHz",
        "service": "FM",
        "owner": "NORSAN WJXR, LLC",
        "city": "MACCLENNY",
        "state": "FL"
      }
    },
    {
      "type": "Feature",
      "geometry": {
        "type": "Point",
        "coordinates": [
          -83.496111,
          30.088333
        ]
      },
      "properties": {
        "id": "54918",
        "call_sign": "WPRY-FM",
        "frequency": "92.1  MHz",
        "service": "FM",
        "owner": "DOCKINS COMMUNICATIONS, INC.",
        "city": "PERRY",
        "state": "FL"
      }
    },
    {
      "type": "Feature",
      "geometry": {
        "type": "Point",
        "coordinates": [
          -82.497861,
          28.011972
        ]
      },
      "properties": {
        "id": "138681",
        "call_sign": "W221DW",
        "frequency": "92.1  MHz",
        "service": "FX",
        "owner": "BEASLEY MEDIA GROUP LICENSES, LLC",
        "city": "TAMPA",
        "state": "FL"
      }
    },
    {
      "type": "Feature",
      "geometry": {
        "type": "Point",
        "coordinates": [
          -80.550833,
          24.979472
        ]
      },
      "properties": {
        "id": "66353",
        "call_sign": "W221AY",
        "frequency": "92.1  MHz",
        "service": "FX",
        "owner": "THE SCHOOL BOARD OF MIAMI - DADE COUNTY, FL",
        "city": "TAVERNIER",
        "state": "FL"
      }
    },
    {
      "type": "Feature",
      "geometry": {
        "type": "Point",
        "coordinates": [
          -82.463972,
          27.151167
        ]
      },
      "properties": {
        "id": "3059",
        "call_sign": "WCTQ",
        "frequency": "92.1  MHz",
        "service": "FM",
        "owner": "IHM LICENSES, LLC",
        "city": "VENICE",
        "state": "FL"
      }
    },
    {
      "type": "Feature",
      "geometry": {
        "type": "Point",
        "coordinates": [
          -82.463972,
          27.151167
        ]
      },
      "properties": {
        "id": "3059",
        "call_sign": "WCTQ",
        "frequency": "92.1  MHz",
        "service": "FS",
        "owner": "IHM LICENSES, LLC",
        "city": "VENICE",
        "state": "FL"
      }
    },
    {
      "type": "Feature",
      "geometry": {
        "type": "Point",
        "coordinates": [
          -80.075583,
          26.799778
        ]
      },
      "properties": {
        "id": "20442",
        "call_sign": "WZZR",
        "frequency": "92.1  MHz",
        "service": "FM",
        "owner": "IHM LICENSES, LLC",
        "city": "WEST PALM BEACH",
        "state": "FL"
      }
    },
    {
      "type": "Feature",
      "geometry": {
        "type": "Point",
        "coordinates": [
          -80.144222,
          26.7595
        ]
      },
      "properties": {
        "id": "20442",
        "call_sign": "WZZR",
        "frequency": "92.1  MHz",
        "service": "FS",
        "owner": "IHM LICENSES, LLC",
        "city": "WEST PALM BEACH",
        "state": "FL"
      }
    },
    {
      "type": "Feature",
      "geometry": {
        "type": "Point",
        "coordinates": [
          -82.376472,
          28.555833
        ]
      },
      "properties": {
        "id": "142418",
        "call_sign": "W222CI",
        "frequency": "92.3  MHz",
        "service": "FX",
        "owner": "HERNANDO BROADCASTING COMPANY, INC.",
        "city": "BROOKSVILLE",
        "state": "FL"
      }
    },
    {
      "type": "Feature",
      "geometry": {
        "type": "Point",
        "coordinates": [
          -81.459528,
          30.676056
        ]
      },
      "properties": {
        "id": "153363",
        "call_sign": "W222CL",
        "frequency": "92.3  MHz",
        "service": "FX",
        "owner": "NORSAN MEDIA, LLC",
        "city": "FERNANDINA BEACH",
        "state": "FL"
      }
    },
    {
      "type": "Feature",
      "geometry": {
        "type": "Point",
        "coordinates": [
          -80.190583,
          25.763389
        ]
      },
      "properties": {
        "id": "61640",
        "call_sign": "WCMQ-FM",
        "frequency": "92.3  MHz",
        "service": "FM",
        "owner": "WCMQ LICENSING, INC.",
        "city": "HIALEAH",
        "state": "FL"
      }
    },
    {
      "type": "Feature",
      "geometry": {
        "type": "Point",
        "coordinates": [
          -80.32,
          25.8375
        ]
      },
      "properties": {
        "id": "61640",
        "call_sign": "WCMQ-FM",
        "frequency": "92.3  MHz",
        "service": "FS",
        "owner": "WCMQ LICENSING, INC.",
        "city": "HIALEAH",
        "state": "FL"
      }
    },
    {
      "type": "Feature",
      "geometry": {
        "type": "Point",
        "coordinates": [
          -80.234222,
          25.732611
        ]
      },
      "properties": {
        "id": "61640",
        "call_sign": "WCMQ-FM",
        "frequency": "92.3  MHz",
        "service": "FS",
        "owner": "WCMQ LICENSING, INC.",
        "city": "HIALEAH",
        "state": "FL"
      }
    },
    {
      "type": "Feature",
      "geometry": {
        "type": "Point",
        "coordinates": [
          -81.365556,
          27.293333
        ]
      },
      "properties": {
        "id": "788291",
        "call_sign": "NEW",
        "frequency": "92.3  MHz",
        "service": "FL",
        "owner": "LAKE PLACID EDUCATIONAL BROADCASTING CORPORATION",
        "city": "LAKE PLACID",
        "state": "FL"
      }
    },
    {
      "type": "Feature",
      "geometry": {
        "type": "Point",
        "coordinates": [
          -81.054222,
          28.568889
        ]
      },
      "properties": {
        "id": "48716",
        "call_sign": "WWKA",
        "frequency": "92.3  MHz",
        "service": "FM",
        "owner": "COX RADIO, LLC",
        "city": "ORLANDO",
        "state": "FL"
      }
    },
    {
      "type": "Feature",
      "geometry": {
        "type": "Point",
        "coordinates": [
          -81.054222,
          28.568889
        ]
      },
      "properties": {
        "id": "48716",
        "call_sign": "WWKA",
        "frequency": "92.3  MHz",
        "service": "FS",
        "owner": "COX RADIO, LLC",
        "city": "ORLANDO",
        "state": "FL"
      }
    },
    {
      "type": "Feature",
      "geometry": {
        "type": "Point",
        "coordinates": [
          -87.219139,
          30.43325
        ]
      },
      "properties": {
        "id": "143794",
        "call_sign": "W222BR",
        "frequency": "92.3  MHz",
        "service": "FX",
        "owner": "THE DAVID EARL HOXENG REVOCABLE TRUST",
        "city": "PENSACOLA",
        "state": "FL"
      }
    },
    {
      "type": "Feature",
      "geometry": {
        "type": "Point",
        "coordinates": [
          -87.233722,
          30.439944
        ]
      },
      "properties": {
        "id": "143794",
        "call_sign": "W222BR",
        "frequency": "92.3  MHz",
        "service": "FX",
        "owner": "THE DAVID EARL HOXENG REVOCABLE TRUST",
        "city": "PENSACOLA",
        "state": "FL"
      }
    },
    {
      "type": "Feature",
      "geometry": {
        "type": "Point",
        "coordinates": [
          -81.817,
          27.56475
        ]
      },
      "properties": {
        "id": "196120",
        "call_sign": "WJWY-LP",
        "frequency": "92.3  MHz",
        "service": "FL",
        "owner": "WAUCHULA EDUCATIONAL BROADCASTING CORPORATION",
        "city": "WAUCHULA",
        "state": "FL"
      }
    },
    {
      "type": "Feature",
      "geometry": {
        "type": "Point",
        "coordinates": [
          -82.7865,
          30.364389
        ]
      },
      "properties": {
        "id": "197398",
        "call_sign": "WSSJ-LP",
        "frequency": "92.3  MHz",
        "service": "FL",
        "owner": "WHITE SPRINGS PUBLIC RADIO, INC.",
        "city": "WHITE SPRINGS",
        "state": "FL"
      }
    },
    {
      "type": "Feature",
      "geometry": {
        "type": "Point",
        "coordinates": [
          -82.385639,
          29.739667
        ]
      },
      "properties": {
        "id": "737",
        "call_sign": "WNDD",
        "frequency": "92.5  MHz",
        "service": "FM",
        "owner": "SAGA SOUTH COMMUNICATIONS, LLC",
        "city": "ALACHUA",
        "state": "FL"
      }
    },
    {
      "type": "Feature",
      "geometry": {
        "type": "Point",
        "coordinates": [
          -80.64375,
          26.665472
        ]
      },
      "properties": {
        "id": "139076",
        "call_sign": "W223AJ",
        "frequency": "92.5  MHz",
        "service": "FX",
        "owner": "GLADES MEDIA COMPANY, LLC",
        "city": "BELLE GLADE",
        "state": "FL"
      }
    },
    {
      "type": "Feature",
      "geometry": {
        "type": "Point",
        "coordinates": [
          -81.786694,
          26.317278
        ]
      },
      "properties": {
        "id": "50321",
        "call_sign": "WFSX-FM",
        "frequency": "92.5  MHz",
        "service": "FM",
        "owner": "SUN BROADCASTING, INC.",
        "city": "ESTERO",
        "state": "FL"
      }
    },
    {
      "type": "Feature",
      "geometry": {
        "type": "Point",
        "coordinates": [
          -81.92925,
          26.488139
        ]
      },
      "properties": {
        "id": "50321",
        "call_sign": "WFSX-FM",
        "frequency": "92.5  MHz",
        "service": "FS",
        "owner": "SUN BROADCASTING, INC.",
        "city": "ESTERO",
        "state": "FL"
      }
    },
    {
      "type": "Feature",
      "geometry": {
        "type": "Point",
        "coordinates": [
          -81.563972,
          30.276361
        ]
      },
      "properties": {
        "id": "22005",
        "call_sign": "WJXL-FM",
        "frequency": "92.5  MHz",
        "service": "FM",
        "owner": "SEVEN BRIDGES RADIO, LLC",
        "city": "JACKSONVILLE BEACH",
        "state": "FL"
      }
    },
    {
      "type": "Feature",
      "geometry": {
        "type": "Point",
        "coordinates": [
          -83.435694,
          30.47325
        ]
      },
      "properties": {
        "id": "202447",
        "call_sign": "W223DG",
        "frequency": "92.5  MHz",
        "service": "FX",
        "owner": "DOCKINS COMMUNICATIONS, INC.",
        "city": "MADISON",
        "state": "FL"
      }
    },
    {
      "type": "Feature",
      "geometry": {
        "type": "Point",
        "coordinates": [
          -82.073833,
          29.192556
        ]
      },
      "properties": {
        "id": "195801",
        "call_sign": "WEFA-LP",
        "frequency": "92.5  MHz",
        "service": "FL",
        "owner": "MARION COMMUNITY SERVICES, ASSOC.",
        "city": "OCALA",
        "state": "FL"
      }
    },
    {
      "type": "Feature",
      "geometry": {
        "type": "Point",
        "coordinates": [
          -85.488028,
          30.511861
        ]
      },
      "properties": {
        "id": "61252",
        "call_sign": "WPAP",
        "frequency": "92.5  MHz",
        "service": "FM",
        "owner": "IHM LICENSES, LLC",
        "city": "PANAMA CITY",
        "state": "FL"
      }
    },
    {
      "type": "Feature",
      "geometry": {
        "type": "Point",
        "coordinates": [
          -82.814278,
          27.842528
        ]
      },
      "properties": {
        "id": "18512",
        "call_sign": "WYUU",
        "frequency": "92.5  MHz",
        "service": "FM",
        "owner": "BEASLEY MEDIA GROUP LICENSES, LLC",
        "city": "SAFETY HARBOR",
        "state": "FL"
      }
    },
    {
      "type": "Feature",
      "geometry": {
        "type": "Point",
        "coordinates": [
          -82.624,
          27.866972
        ]
      },
      "properties": {
        "id": "18512",
        "call_sign": "WYUU",
        "frequency": "92.5  MHz",
        "service": "FS",
        "owner": "BEASLEY MEDIA GROUP LICENSES, LLC",
        "city": "SAFETY HARBOR",
        "state": "FL"
      }
    },
    {
      "type": "Feature",
      "geometry": {
        "type": "Point",
        "coordinates": [
          -82.624,
          27.856694
        ]
      },
      "properties": {
        "id": "18512",
        "call_sign": "WYUU",
        "frequency": "92.5  MHz",
        "service": "FS",
        "owner": "BEASLEY MEDIA GROUP LICENSES, LLC",
        "city": "SAFETY HARBOR",
        "state": "FL"
      }
    },
    {
      "type": "Feature",
      "geometry": {
        "type": "Point",
        "coordinates": [
          -81.447778,
          27.511944
        ]
      },
      "properties": {
        "id": "788300",
        "call_sign": "NEW",
        "frequency": "92.5  MHz",
        "service": "FL",
        "owner": "SEBRING EDUCATIONAL BROADCAST CORPORATION",
        "city": "SEBRING",
        "state": "FL"
      }
    },
    {
      "type": "Feature",
      "geometry": {
        "type": "Point",
        "coordinates": [
          -80.174889,
          26.63775
        ]
      },
      "properties": {
        "id": "158103",
        "call_sign": "W223CJ",
        "frequency": "92.5  MHz",
        "service": "FX",
        "owner": "CIRCUITWERKES, INC.",
        "city": "WEST PALM BEACH",
        "state": "FL"
      }
    },
    {
      "type": "Feature",
      "geometry": {
        "type": "Point",
        "coordinates": [
          -80.078083,
          26.762
        ]
      },
      "properties": {
        "id": "158103",
        "call_sign": "W223CJ",
        "frequency": "92.5  MHz",
        "service": "FX",
        "owner": "CIRCUITWERKES, INC.",
        "city": "WEST PALM BEACH",
        "state": "FL"
      }
    },
    {
      "type": "Feature",
      "geometry": {
        "type": "Point",
        "coordinates": [
          -81.912306,
          27.943361
        ]
      },
      "properties": {
        "id": "151712",
        "call_sign": "W224CF",
        "frequency": "92.7  MHz",
        "service": "FX",
        "owner": "LA RAZA MEDIA GROUP, LLC",
        "city": "AUBURNDALE",
        "state": "FL"
      }
    },
    {
      "type": "Feature",
      "geometry": {
        "type": "Point",
        "coordinates": [
          -81.263667,
          29.535528
        ]
      },
      "properties": {
        "id": "68760",
        "call_sign": "WBHQ",
        "frequency": "92.7  MHz",
        "service": "FM",
        "owner": "FLAGLER BROADCASTING, LLC",
        "city": "BEVERLY BEACH",
        "state": "FL"
      }
    },
    {
      "type": "Feature",
      "geometry": {
        "type": "Point",
        "coordinates": [
          -81.263667,
          29.535528
        ]
      },
      "properties": {
        "id": "68760",
        "call_sign": "WBHQ",
        "frequency": "92.7  MHz",
        "service": "FS",
        "owner": "FLAGLER BROADCASTING, LLC",
        "city": "BEVERLY BEACH",
        "state": "FL"
      }
    },
    {
      "type": "Feature",
      "geometry": {
        "type": "Point",
        "coordinates": [
          -81.263667,
          29.535528
        ]
      },
      "properties": {
        "id": "68760",
        "call_sign": "WBHQ",
        "frequency": "92.7  MHz",
        "service": "FS",
        "owner": "FLAGLER BROADCASTING, LLC",
        "city": "BEVERLY BEACH",
        "state": "FL"
      }
    },
    {
      "type": "Feature",
      "geometry": {
        "type": "Point",
        "coordinates": [
          -81.448833,
          28.558778
        ]
      },
      "properties": {
        "id": "201532",
        "call_sign": "W224DY",
        "frequency": "92.7  MHz",
        "service": "FX",
        "owner": "UNITY BROADCASTING LLC",
        "city": "BITHLO",
        "state": "FL"
      }
    },
    {
      "type": "Feature",
      "geometry": {
        "type": "Point",
        "coordinates": [
          -80.09175,
          26.433972
        ]
      },