{
  "type": "FeatureCollection",
  "features": [
    {
      "type": "Feature",
      "geometry": {
        "type": "Point",
        "coordinates": [
          -91.126139,
          40.752472
        ]
      },
      "properties": {
        "id": "767007",
        "call_sign": "KJLI",
        "frequency": "88.1  MHz",
        "service": "FM",
        "owner": "HERITAGE BAPTIST CHURCH",
        "city": "BURLINGTON",
        "state": "IA"
      }
    },
    {
      "type": "Feature",
      "geometry": {
        "type": "Point",
        "coordinates": [
          -93.641528,
          41.583889
        ]
      },
      "properties": {
        "id": "16720",
        "call_sign": "KCVD",
        "frequency": "88.1  MHz",
        "service": "FM",
        "owner": "COMMUNITY BROADCASTING, INC.",
        "city": "DES MOINES",
        "state": "IA"
      }
    },
    {
      "type": "Feature",
      "geometry": {
        "type": "Point",
        "coordinates": [
          -94.2005,
          42.490778
        ]
      },
      "properties": {
        "id": "29059",
        "call_sign": "KICB",
        "frequency": "88.1  MHz",
        "service": "FM",
        "owner": "IOWA CENTRAL COMMUNITY COLLEGE",
        "city": "FORT DODGE",
        "state": "IA"
      }
    },
    {
      "type": "Feature",
      "geometry": {
        "type": "Point",
        "coordinates": [
          -92.409639,
          41.033917
        ]
      },
      "properties": {
        "id": "85844",
        "call_sign": "KQLF",
        "frequency": "88.1  MHz",
        "service": "FM",
        "owner": "COMMUNITY BROADCASTING, INC.",
        "city": "OTTUMWA",
        "state": "IA"
      }
    },
    {
      "type": "Feature",
      "geometry": {
        "type": "Point",
        "coordinates": [
          -94.993333,
          42.668306
        ]
      },
      "properties": {
        "id": "177197",
        "call_sign": "KOIA",
        "frequency": "88.1  MHz",
        "service": "FM",
        "owner": "SAINT GABRIEL COMMUNICATIONS, LTD",
        "city": "STORM LAKE",
        "state": "IA"
      }
    },
    {
      "type": "Feature",
      "geometry": {
        "type": "Point",
        "coordinates": [
          -92.3235,
          42.512472
        ]
      },
      "properties": {
        "id": "597",
        "call_sign": "KBBG",
        "frequency": "88.1  MHz",
        "service": "FM",
        "owner": "AFRO AMERICAN COMMUNITY BROADCASTING, INC.",
        "city": "WATERLOO",
        "state": "IA"
      }
    },
    {
      "type": "Feature",
      "geometry": {
        "type": "Point",
        "coordinates": [
          -91.654889,
          41.909167
        ]
      },
      "properties": {
        "id": "34954",
        "call_sign": "KCCK-FM",
        "frequency": "88.3  MHz",
        "service": "FM",
        "owner": "KIRKWOOD COMMUNITY COLLEGE",
        "city": "CEDAR RAPIDS",
        "state": "IA"
      }
    },
    {
      "type": "Feature",
      "geometry": {
        "type": "Point",
        "coordinates": [
          -94.729056,
          42.049
        ]
      },
      "properties": {
        "id": "768291",
        "call_sign": "KSHW",
        "frequency": "88.3  MHz",
        "service": "FM",
        "owner": "GRACE BAPTIST CHURCH",
        "city": "GLIDDEN",
        "state": "IA"
      }
    },
    {
      "type": "Feature",
      "geometry": {
        "type": "Point",
        "coordinates": [
          -93.010556,
          41.6925
        ]
      },
      "properties": {
        "id": "92477",
        "call_sign": "KKLG",
        "frequency": "88.3  MHz",
        "service": "FM",
        "owner": "K-LOVE, INC.",
        "city": "NEWTON",
        "state": "IA"
      }
    },
    {
      "type": "Feature",
      "geometry": {
        "type": "Point",
        "coordinates": [
          -92.409639,
          41.033917
        ]
      },
      "properties": {
        "id": "85844",
        "call_sign": "KQLF",
        "frequency": "88.3  MHz",
        "service": "FM",
        "owner": "COMMUNITY BROADCASTING, INC.",
        "city": "OTTUMWA",
        "state": "IA"
      }
    },
    {
      "type": "Feature",
      "geometry": {
        "type": "Point",
        "coordinates": [
          -95.062472,
          43.404111
        ]
      },
      "properties": {
        "id": "90145",
        "call_sign": "K202CG",
        "frequency": "88.3  MHz",
        "service": "FX",
        "owner": "UNIVERSITY OF NORTHWESTERN - ST. PAUL",
        "city": "SPIRIT LAKE",
        "state": "IA"
      }
    },
    {
      "type": "Feature",
      "geometry": {
        "type": "Point",
        "coordinates": [
          -93.561333,
          42.224972
        ]
      },
      "properties": {
        "id": "172392",
        "call_sign": "KJTT",
        "frequency": "88.3  MHz",
        "service": "FM",
        "owner": "MINN-IOWA CHRISTIAN BROADCASTING, INC.",
        "city": "STORY CITY",
        "state": "IA"
      }
    },
    {
      "type": "Feature",
      "geometry": {
        "type": "Point",
        "coordinates": [
          -94.048722,
          41.602528
        ]
      },
      "properties": {
        "id": "92489",
        "call_sign": "KQBV",
        "frequency": "88.5  MHz",
        "service": "FM",
        "owner": "ST. GABRIEL COMMUNICATIONS",
        "city": "ADEL",
        "state": "IA"
      }
    },
    {
      "type": "Feature",
      "geometry": {
        "type": "Point",
        "coordinates": [
          -93.691111,
          41.992778
        ]
      },
      "properties": {
        "id": "55777",
        "call_sign": "KURE",
        "frequency": "88.5  MHz",
        "service": "FM",
        "owner": "RESIDENCE ASSOCIATIONS BROADCASTING SERVICES, INC.",
        "city": "AMES",
        "state": "IA"
      }
    },
    {
      "type": "Feature",
      "geometry": {
        "type": "Point",
        "coordinates": [
          -90.678944,
          41.595528
        ]
      },
      "properties": {
        "id": "62090",
        "call_sign": "KALA",
        "frequency": "88.5  MHz",
        "service": "FM",
        "owner": "ST. AMBROSE UNIVERSITY",
        "city": "DAVENPORT",
        "state": "IA"
      }
    },
    {
      "type": "Feature",
      "geometry": {
        "type": "Point",
        "coordinates": [
          -90.582333,
          41.540583
        ]
      },
      "properties": {
        "id": "62090",
        "call_sign": "KALA",
        "frequency": "88.5  MHz",
        "service": "FS",
        "owner": "ST. AMBROSE UNIVERSITY",
        "city": "DAVENPORT",
        "state": "IA"
      }
    },
    {
      "type": "Feature",
      "geometry": {
        "type": "Point",
        "coordinates": [
          -90.582333,
          41.540583
        ]
      },
      "properties": {
        "id": "62090",
        "call_sign": "KALA",
        "frequency": "88.5  MHz",
        "service": "FS",
        "owner": "ST. AMBROSE UNIVERSITY",
        "city": "DAVENPORT",
        "state": "IA"
      }
    },
    {
      "type": "Feature",
      "geometry": {
        "type": "Point",
        "coordinates": [
          -90.570139,
          42.404444
        ]
      },
      "properties": {
        "id": "91585",
        "call_sign": "KIAD",
        "frequency": "88.5  MHz",
        "service": "FM",
        "owner": "AMERICAN FAMILY ASSOCIATION",
        "city": "DUBUQUE",
        "state": "IA"
      }
    },
    {
      "type": "Feature",
      "geometry": {
        "type": "Point",
        "coordinates": [
          -93.274361,
          43.369944
        ]
      },
      "properties": {
        "id": "87941",
        "call_sign": "KBDC",
        "frequency": "88.5  MHz",
        "service": "FM",
        "owner": "AMERICAN FAMILY ASSOCIATION",
        "city": "MASON CITY",
        "state": "IA"
      }
    },
    {
      "type": "Feature",
      "geometry": {
        "type": "Point",
        "coordinates": [
          -96.158361,
          43.092444
        ]
      },
      "properties": {
        "id": "17314",
        "call_sign": "KLDX",
        "frequency": "88.5  MHz",
        "service": "FM",
        "owner": "K-LOVE, INC.",
        "city": "SIOUX CENTER",
        "state": "IA"
      }
    },
    {
      "type": "Feature",
      "geometry": {
        "type": "Point",
        "coordinates": [
          -91.539444,
          42.270556
        ]
      },
      "properties": {
        "id": "171762",
        "call_sign": "KMMK",
        "frequency": "88.7  MHz",
        "service": "FM",
        "owner": "PLUS CHARITIES",
        "city": "COGGON",
        "state": "IA"
      }
    },
    {
      "type": "Feature",
      "geometry": {
        "type": "Point",
        "coordinates": [
          -91.8085,
          43.309694
        ]
      },
      "properties": {
        "id": "42932",
        "call_sign": "KLNI",
        "frequency": "88.7  MHz",
        "service": "FM",
        "owner": "MINNESOTA PUBLIC RADIO",
        "city": "DECORAH",
        "state": "IA"
      }
    },
    {
      "type": "Feature",
      "geometry": {
        "type": "Point",
        "coordinates": [
          -92.922139,
          42.071361
        ]
      },
      "properties": {
        "id": "90503",
        "call_sign": "KJLM",
        "frequency": "88.7  MHz",
        "service": "FM",
        "owner": "MINN-IOWA CHRISTIAN BROADCASTING INC.",
        "city": "MARSHALLTOWN",
        "state": "IA"
      }
    },
    {
      "type": "Feature",
      "geometry": {
        "type": "Point",
        "coordinates": [
          -95.061444,
          40.947
        ]
      },
      "properties": {
        "id": "172619",
        "call_sign": "KFOM",
        "frequency": "88.7  MHz",
        "service": "FM",
        "owner": "CALVARY CHAPEL CLARINDA, INC.",
        "city": "STANTON",
        "state": "IA"
      }
    },
    {
      "type": "Feature",
      "geometry": {
        "type": "Point",
        "coordinates": [
          -93.753,
          41.59025
        ]
      },
      "properties": {
        "id": "70543",
        "call_sign": "KWDM",
        "frequency": "88.7  MHz",
        "service": "FM",
        "owner": "WEST DES MOINES COMMUNITY SCHOOL DISTRICT",
        "city": "WEST DES MOINES",
        "state": "IA"
      }
    },
    {
      "type": "Feature",
      "geometry": {
        "type": "Point",
        "coordinates": [
          -90.799167,
          42.605
        ]
      },
      "properties": {
        "id": "768573",
        "call_sign": "-",
        "frequency": "88.9  MHz",
        "service": "FM",
        "owner": "VANGUARD ASSOCIATION OF SUNBELT COLLEGES CORPORATION",
        "city": "DUBUQUE",
        "state": "IA"
      }
    },
    {
      "type": "Feature",
      "geometry": {
        "type": "Point",
        "coordinates": [
          -90.799167,
          42.605
        ]
      },
      "properties": {
        "id": "768573",
        "call_sign": "-",
        "frequency": "88.9  MHz",
        "service": "FM",
        "owner": "VANGUARD ASSOCIATION OF SUNBELT COLLEGES CORPORATION",
        "city": "DUBUQUE",
        "state": "IA"
      }
    },
    {
      "type": "Feature",
      "geometry": {
        "type": "Point",
        "coordinates": [
          -93.560472,
          41.363583
        ]
      },
      "properties": {
        "id": "60467",
        "call_sign": "KSTM",
        "frequency": "88.9  MHz",
        "service": "FM",
        "owner": "SIMPSON COLLEGE",
        "city": "INDIANOLA",
        "state": "IA"
      }
    },
    {
      "type": "Feature",
      "geometry": {
        "type": "Point",
        "coordinates": [
          -93.328806,
          41.668056
        ]
      },
      "properties": {
        "id": "90336",
        "call_sign": "KKSO",
        "frequency": "88.9  MHz",
        "service": "FM",
        "owner": "IOWA PUBLIC RADIO, INC.",
        "city": "MITCHELLVILLE",
        "state": "IA"
      }
    },
    {
      "type": "Feature",
      "geometry": {
        "type": "Point",
        "coordinates": [
          -95.206944,
          43.34275
        ]
      },
      "properties": {
        "id": "92473",
        "call_sign": "KJIA",
        "frequency": "88.9  MHz",
        "service": "FM",
        "owner": "MINN-IOWA CHRISTIAN BROADCASTING, INC.",
        "city": "SPIRIT LAKE",
        "state": "IA"
      }
    },
    {
      "type": "Feature",
      "geometry": {
        "type": "Point",
        "coordinates": [
          -91.171944,
          41.083056
        ]
      },
      "properties": {
        "id": "122025",
        "call_sign": "KAIP",
        "frequency": "88.9  MHz",
        "service": "FM",
        "owner": "K-LOVE, INC.",
        "city": "WAPELLO",
        "state": "IA"
      }
    },
    {
      "type": "Feature",
      "geometry": {
        "type": "Point",
        "coordinates": [
          -92.239611,
          42.789139
        ]
      },
      "properties": {
        "id": "84063",
        "call_sign": "KWVI",
        "frequency": "88.9  MHz",
        "service": "FM",
        "owner": "AMERICAN FAMILY ASSOCIATION",
        "city": "WAVERLY",
        "state": "IA"
      }
    },
    {
      "type": "Feature",
      "geometry": {
        "type": "Point",
        "coordinates": [
          -94.048833,
          41.6025
        ]
      },
      "properties": {
        "id": "82219",
        "call_sign": "K206BW",
        "frequency": "89.1  MHz",
        "service": "FX",
        "owner": "CSN INTERNATIONAL, INC.",
        "city": "ADEL",
        "state": "IA"
      }
    },
    {
      "type": "Feature",
      "geometry": {
        "type": "Point",
        "coordinates": [
          -94.35025,
          41.113056
        ]
      },
      "properties": {
        "id": "92602",
        "call_sign": "K206DW",
        "frequency": "89.1  MHz",
        "service": "FX",
        "owner": "CSN INTERNATIONAL",
        "city": "CRESTON",
        "state": "IA"
      }
    },
    {
      "type": "Feature",
      "geometry": {
        "type": "Point",
        "coordinates": [
          -91.6735,
          42.0325
        ]
      },
      "properties": {
        "id": "85165",
        "call_sign": "KXGM",
        "frequency": "89.1  MHz",
        "service": "FM",
        "owner": "K-LOVE, INC.",
        "city": "HIAWATHA",
        "state": "IA"
      }
    },
    {
      "type": "Feature",
      "geometry": {
        "type": "Point",
        "coordinates": [
          -96.291667,
          42.724417
        ]
      },
      "properties": {
        "id": "152205",
        "call_sign": "K206ED",
        "frequency": "89.1  MHz",
        "service": "FX",
        "owner": "HOPE MEDIA GROUP",
        "city": "LE MARS",
        "state": "IA"
      }
    },
    {
      "type": "Feature",
      "geometry": {
        "type": "Point",
        "coordinates": [
          -92.370472,
          40.961417
        ]
      },
      "properties": {
        "id": "29117",
        "call_sign": "KNSZ",
        "frequency": "89.1  MHz",
        "service": "FM",
        "owner": "IOWA PUBLIC RADIO, INC.",
        "city": "OTTUMWA",
        "state": "IA"
      }
    },
    {
      "type": "Feature",
      "geometry": {
        "type": "Point",
        "coordinates": [
          -91.565139,
          43.088861
        ]
      },
      "properties": {
        "id": "92649",
        "call_sign": "KPVL",
        "frequency": "89.1  MHz",
        "service": "FM",
        "owner": "AMERICAN CHRISTIAN RADIO",
        "city": "POSTVILLE",
        "state": "IA"
      }
    },
    {
      "type": "Feature",
      "geometry": {
        "type": "Point",
        "coordinates": [
          -93.551611,
          42.136361
        ]
      },
      "properties": {
        "id": "175288",
        "call_sign": "KHOI",
        "frequency": "89.1  MHz",
        "service": "FM",
        "owner": "KHOI FM",
        "city": "STORY CITY",
        "state": "IA"
      }
    },
    {
      "type": "Feature",
      "geometry": {
        "type": "Point",
        "coordinates": [
          -93.597722,
          41.655833
        ]
      },
      "properties": {
        "id": "43060",
        "call_sign": "KJMC",
        "frequency": "89.3  MHz",
        "service": "FM",
        "owner": "AMERICAN FAMILY ASSOCIATION",
        "city": "DES MOINES",
        "state": "IA"
      }
    },
    {
      "type": "Feature",
      "geometry": {
        "type": "Point",
        "coordinates": [
          -92.894083,
          42.005833
        ]
      },
      "properties": {
        "id": "78203",
        "call_sign": "K207EX",
        "frequency": "89.3  MHz",
        "service": "FX",
        "owner": "BIBLE BROADCASTING NETWORK, INC.",
        "city": "MARSHALLTOWN",
        "state": "IA"
      }
    },
    {
      "type": "Feature",
      "geometry": {
        "type": "Point",
        "coordinates": [
          -93.201667,
          43.154722
        ]
      },
      "properties": {
        "id": "768480",
        "call_sign": "KDVM",
        "frequency": "89.3  MHz",
        "service": "FM",
        "owner": "ST. GABRIEL COMMUNICATIONS",
        "city": "MASON CITY",
        "state": "IA"
      }
    },
    {
      "type": "Feature",
      "geometry": {
        "type": "Point",
        "coordinates": [
          -95.573611,
          40.575833
        ]
      },
      "properties": {
        "id": "174613",
        "call_sign": "KHLW",
        "frequency": "89.3  MHz",
        "service": "FM",
        "owner": "CALVARY CHAPEL OF OMAHA",
        "city": "TABOR",
        "state": "IA"
      }
    },
    {
      "type": "Feature",
      "geometry": {
        "type": "Point",
        "coordinates": [
          -92.326306,
          42.398611
        ]
      },
      "properties": {
        "id": "69027",
        "call_sign": "KHKE",
        "frequency": "89.5  MHz",
        "service": "FM",
        "owner": "IOWA PUBLIC RADIO, INC.",
        "city": "CEDAR FALLS",
        "state": "IA"
      }
    },
    {
      "type": "Feature",
      "geometry": {
        "type": "Point",
        "coordinates": [
          -95.551944,
          42.748306
        ]
      },
      "properties": {
        "id": "92825",
        "call_sign": "K208DS",
        "frequency": "89.5  MHz",
        "service": "FX",
        "owner": "CSN INTERNATIONAL",
        "city": "CHEROKEE",
        "state": "IA"
      }
    },
    {
      "type": "Feature",
      "geometry": {
        "type": "Point",
        "coordinates": [
          -94.619111,
          40.748861
        ]
      },
      "properties": {
        "id": "172622",
        "call_sign": "KCJA",
        "frequency": "89.5  MHz",
        "service": "FM",
        "owner": "CALVARY CHAPEL CLARINDA, INC.",
        "city": "CONWAY",
        "state": "IA"
      }
    },
    {
      "type": "Feature",
      "geometry": {
        "type": "Point",
        "coordinates": [
          -91.7885,
          43.315528
        ]
      },
      "properties": {
        "id": "42943",
        "call_sign": "KLCD",
        "frequency": "89.5  MHz",
        "service": "FM",
        "owner": "MINNESOTA PUBLIC RADIO",
        "city": "DECORAH",
        "state": "IA"
      }
    },
    {
      "type": "Feature",
      "geometry": {
        "type": "Point",
        "coordinates": [
          -94.411639,
          42.817472
        ]
      },
      "properties": {
        "id": "92486",
        "call_sign": "KLFG",
        "frequency": "89.5  MHz",
        "service": "FM",
        "owner": "K-LOVE, INC.",
        "city": "FORT DODGE",
        "state": "IA"
      }
    },
    {
      "type": "Feature",
      "geometry": {
        "type": "Point",
        "coordinates": [
          -91.681917,
          41.487944
        ]
      },
      "properties": {
        "id": "768670",
        "call_sign": "KMHV",
        "frequency": "89.5  MHz",
        "service": "FM",
        "owner": "MARY&#39;S HOLY VOICE",
        "city": "KALONA",
        "state": "IA"
      }
    },
    {
      "type": "Feature",
      "geometry": {
        "type": "Point",
        "coordinates": [
          -93.895861,
          41.627694
        ]
      },
      "properties": {
        "id": "82219",
        "call_sign": "K206BW",
        "frequency": "89.7  MHz",
        "service": "FX",
        "owner": "CSN INTERNATIONAL, INC.",
        "city": "ADEL",
        "state": "IA"
      }
    },
    {
      "type": "Feature",
      "geometry": {
        "type": "Point",
        "coordinates": [
          -93.582722,
          42.021639
        ]
      },
      "properties": {
        "id": "20829",
        "call_sign": "K209FW",
        "frequency": "89.7  MHz",
        "service": "FX",
        "owner": "K-LOVE, INC.",
        "city": "AMES",
        "state": "IA"
      }
    },
    {
      "type": "Feature",
      "geometry": {
        "type": "Point",
        "coordinates": [
          -96.027222,
          41.311083
        ]
      },
      "properties": {
        "id": "29126",
        "call_sign": "KIWR",
        "frequency": "89.7  MHz",
        "service": "FM",
        "owner": "IOWA WESTERN COMMUNITY COLLEGE",
        "city": "COUNCIL BLUFFS",
        "state": "IA"
      }
    },
    {
      "type": "Feature",
      "geometry": {
        "type": "Point",
        "coordinates": [
          -96.027222,
          41.311083
        ]
      },
      "properties": {
        "id": "29126",
        "call_sign": "KIWR",
        "frequency": "89.7  MHz",
        "service": "FM",
        "owner": "IOWA WESTERN COMMUNITY COLLEGE",
        "city": "COUNCIL BLUFFS",
        "state": "IA"
      }
    },
    {
      "type": "Feature",
      "geometry": {
        "type": "Point",
        "coordinates": [
          -90.799306,
          42.605
        ]
      },
      "properties": {
        "id": "85606",
        "call_sign": "KNSY",
        "frequency": "89.7  MHz",
        "service": "FM",
        "owner": "IOWA PUBLIC RADIO, INC.",
        "city": "DUBUQUE",
        "state": "IA"
      }
    },
    {
      "type": "Feature",
      "geometry": {
        "type": "Point",
        "coordinates": [
          -91.544611,
          41.658083
        ]
      },
      "properties": {
        "id": "63560",
        "call_sign": "KRUI-FM",
        "frequency": "89.7  MHz",
        "service": "FM",
        "owner": "STUDENT BROADCASTERS INC.",
        "city": "IOWA CITY",
        "state": "IA"
      }
    },
    {
      "type": "Feature",
      "geometry": {
        "type": "Point",
        "coordinates": [
          -92.852139,
          41.203889
        ]
      },
      "properties": {
        "id": "173311",
        "call_sign": "KVCI",
        "frequency": "89.7  MHz",
        "service": "FM",
        "owner": "VCY AMERICA, INC.",
        "city": "MONTEZUMA",
        "state": "IA"
      }
    },
    {
      "type": "Feature",
      "geometry": {
        "type": "Point",
        "coordinates": [
          -92.851389,
          43.364444
        ]
      },
      "properties": {
        "id": "762430",
        "call_sign": "KJGA",
        "frequency": "89.7  MHz",
        "service": "FM",
        "owner": "MINN-IOWA CHRISTIAN BROADCASTING INC.",
        "city": "OSAGE",
        "state": "IA"
      }
    },
    {
      "type": "Feature",
      "geometry": {
        "type": "Point",
        "coordinates": [
          -91.543222,
          40.79975
        ]
      },
      "properties": {
        "id": "86561",
        "call_sign": "KAYP",
        "frequency": "89.9  MHz",
        "service": "FM",
        "owner": "AMERICAN FAMILY ASSOCIATION",
        "city": "BURLINGTON",
        "state": "IA"
      }
    },
    {
      "type": "Feature",
      "geometry": {
        "type": "Point",
        "coordinates": [
          -91.646944,
          42.045
        ]
      },
      "properties": {
        "id": "762997",
        "call_sign": "KEWR-FM",
        "frequency": "89.9  MHz",
        "service": "FM",
        "owner": "CALVARY CHAPEL IOWA",
        "city": "CEDAR RAPIDS",
        "state": "IA"
      }
    },
    {
      "type": "Feature",
      "geometry": {
        "type": "Point",
        "coordinates": [
          -91.826833,
          42.878583
        ]
      },
      "properties": {
        "id": "174130",
        "call_sign": "KRJE",
        "frequency": "89.9  MHz",
        "service": "FM",
        "owner": "HAWKEYE SEVENTH-DAY ADVENTIST CHURCH",
        "city": "HAWKEYE",
        "state": "IA"
      }
    },
    {
      "type": "Feature",
      "geometry": {
        "type": "Point",
        "coordinates": [
          -95.132278,
          43.229583
        ]
      },
      "properties": {
        "id": "767664",
        "call_sign": "KCSL",
        "frequency": "89.9  MHz",
        "service": "FM",
        "owner": "ST. GABRIEL COMMUNICATIONS",
        "city": "SPENCER",
        "state": "IA"
      }
    },
    {
      "type": "Feature",
      "geometry": {
        "type": "Point",
        "coordinates": [
          -95.132278,
          43.229583
        ]
      },
      "properties": {
        "id": "767664",
        "call_sign": "KCSL",
        "frequency": "89.9  MHz",
        "service": "FM",
        "owner": "ST. GABRIEL COMMUNICATIONS",
        "city": "SPENCER",
        "state": "IA"
      }
    },
    {
      "type": "Feature",
      "geometry": {
        "type": "Point",
        "coordinates": [
          -92.483778,
          42.726917
        ]
      },
      "properties": {
        "id": "90974",
        "call_sign": "KWAR",
        "frequency": "89.9  MHz",
        "service": "FM",
        "owner": "WARTBURG COLLEGE",
        "city": "WAVERLY",
        "state": "IA"
      }
    },
    {
      "type": "Feature",
      "geometry": {
        "type": "Point",
        "coordinates": [
          -93.614917,
          41.809139
        ]
      },
      "properties": {
        "id": "29118",
        "call_sign": "WOI-FM",
        "frequency": "90.1  MHz",
        "service": "FM",
        "owner": "IOWA PUBLIC RADIO, INC.",
        "city": "AMES",
        "state": "IA"
      }
    },
    {
      "type": "Feature",
      "geometry": {
        "type": "Point",
        "coordinates": [
          -92.411306,
          41.017806
        ]
      },
      "properties": {
        "id": "20917",
        "call_sign": "K212GH",
        "frequency": "90.3  MHz",
        "service": "FX",
        "owner": "K-LOVE, INC.",
        "city": "OTTUMWA",
        "state": "IA"
      }
    },
    {
      "type": "Feature",
      "geometry": {
        "type": "Point",
        "coordinates": [
          -96.258611,
          42.482194
        ]
      },
      "properties": {
        "id": "71839",
        "call_sign": "KWIT",
        "frequency": "90.3  MHz",
        "service": "FM",
        "owner": "WESTERN IOWA TECH COMMUNITY COLLEGE",
        "city": "SIOUX CITY",
        "state": "IA"
      }
    },
    {
      "type": "Feature",
      "geometry": {
        "type": "Point",
        "coordinates": [
          -91.969333,
          41.016417
        ]
      },
      "properties": {
        "id": "20454",
        "call_sign": "KHOE",
        "frequency": "90.5  MHz",
        "service": "FM",
        "owner": "MAHARISHI INTERNATIONAL UNIVERSITY",
        "city": "FAIRFIELD",
        "state": "IA"
      }
    },
    {
      "type": "Feature",
      "geometry": {
        "type": "Point",
        "coordinates": [
          -92.95625,
          42.563194
        ]
      },
      "properties": {
        "id": "762428",
        "call_sign": "KJWC",
        "frequency": "90.5  MHz",
        "service": "FM",
        "owner": "MINN-IOWA CHRISTIAN BROADCASTING",
        "city": "HAMPTON",
        "state": "IA"
      }
    },
    {
      "type": "Feature",
      "geometry": {
        "type": "Point",
        "coordinates": [
          -92.652472,
          41.307806
        ]
      },
      "properties": {
        "id": "72710",
        "call_sign": "KWPU",
        "frequency": "90.5  MHz",
        "service": "FM",
        "owner": "WILLIAM PENN UNIVERSITY",
        "city": "OSKALOOSA",
        "state": "IA"
      }
    },
    {
      "type": "Feature",
      "geometry": {
        "type": "Point",
        "coordinates": [
          -93.538278,
          41.588889
        ]
      },
      "properties": {
        "id": "90093",
        "call_sign": "K213DV",
        "frequency": "90.5  MHz",
        "service": "FX",
        "owner": "K-LOVE, INC.",
        "city": "PLEASANT HILL",
        "state": "IA"
      }
    },
    {
      "type": "Feature",
      "geometry": {
        "type": "Point",
        "coordinates": [
          -91.110972,
          40.823083
        ]
      },
      "properties": {
        "id": "49925",
        "call_sign": "K214BC",
        "frequency": "90.7  MHz",
        "service": "FX",
        "owner": "OAK STREET BAPTIST CHURCH",
        "city": "BURLINGTON",
        "state": "IA"
      }
    },
    {
      "type": "Feature",
      "geometry": {
        "type": "Point",
        "coordinates": [
          -94.813861,
          42.120528
        ]
      },
      "properties": {
        "id": "122627",
        "call_sign": "KNSC",
        "frequency": "90.7  MHz",
        "service": "FM",
        "owner": "IOWA PUBLIC RADIO, INC.",
        "city": "CARROLL",
        "state": "IA"
      }
    },
    {
      "type": "Feature",
      "geometry": {
        "type": "Point",
        "coordinates": [
          -96.291667,
          42.724417
        ]
      },
      "properties": {
        "id": "152205",
        "call_sign": "K206ED",
        "frequency": "90.7  MHz",
        "service": "FX",
        "owner": "HOPE MEDIA GROUP",
        "city": "LE MARS",
        "state": "IA"
      }
    },
    {
      "type": "Feature",
      "geometry": {
        "type": "Point",
        "coordinates": [
          -93.289083,
          43.146333
        ]
      },
      "properties": {
        "id": "69129",
        "call_sign": "K214BA",
        "frequency": "90.7  MHz",
        "service": "FX",
        "owner": "IOWA PUBLIC RADIO, INC.",
        "city": "MASON CITY, ETC.",
        "state": "IA"
      }
    },
    {
      "type": "Feature",
      "geometry": {
        "type": "Point",
        "coordinates": [
          -95.325,
          43.164694
        ]
      },
      "properties": {
        "id": "123310",
        "call_sign": "KOJI",
        "frequency": "90.7  MHz",
        "service": "FM",
        "owner": "WESTERN IOWA TECH COMMUNITY COLLEGE",
        "city": "OKOBOJI",
        "state": "IA"
      }
    },
    {
      "type": "Feature",
      "geometry": {
        "type": "Point",
        "coordinates": [
          -91.858778,
          42.316361
        ]
      },
      "properties": {
        "id": "69158",
        "call_sign": "KUNI",
        "frequency": "90.9  MHz",
        "service": "FM",
        "owner": "IOWA PUBLIC RADIO, INC.",
        "city": "CEDAR FALLS",
        "state": "IA"
      }
    },
    {
      "type": "Feature",
      "geometry": {
        "type": "Point",
        "coordinates": [
          -94.43475,
          40.999028
        ]
      },
      "properties": {
        "id": "91587",
        "call_sign": "KLOX",
        "frequency": "90.9  MHz",
        "service": "FM",
        "owner": "ST. GABRIEL COMMUNICATIONS",
        "city": "CRESTON",
        "state": "IA"
      }
    },
    {
      "type": "Feature",
      "geometry": {
        "type": "Point",
        "coordinates": [
          -93.579111,
          41.634722
        ]
      },
      "properties": {
        "id": "121782",
        "call_sign": "K215FN",
        "frequency": "90.9  MHz",
        "service": "FX",
        "owner": "CSN INTERNATIONAL",
        "city": "DES MOINES",
        "state": "IA"
      }
    },
    {
      "type": "Feature",
      "geometry": {
        "type": "Point",
        "coordinates": [
          -91.330694,
          40.511417
        ]
      },
      "properties": {
        "id": "84893",
        "call_sign": "KMDY",
        "frequency": "90.9  MHz",
        "service": "FM",
        "owner": "GOOD NEWS RADIO, INC.",
        "city": "KEOKUK",
        "state": "IA"
      }
    },
    {
      "type": "Feature",
      "geometry": {
        "type": "Point",
        "coordinates": [
          -90.373361,
          41.545528
        ]
      },
      "properties": {
        "id": "83540",
        "call_sign": "KNSB",
        "frequency": "91.1  MHz",
        "service": "FM",
        "owner": "IOWA PUBLIC RADIO, INC.",
        "city": "BETTENDORF",
        "state": "IA"
      }
    },
    {
      "type": "Feature",
      "geometry": {
        "type": "Point",
        "coordinates": [
          -94.411639,
          42.817472
        ]
      },
      "properties": {
        "id": "29066",
        "call_sign": "KNSK",
        "frequency": "91.1  MHz",
        "service": "FM",
        "owner": "IOWA PUBLIC RADIO, INC.",
        "city": "FORT DODGE",
        "state": "IA"
      }
    },
    {
      "type": "Feature",
      "geometry": {
        "type": "Point",
        "coordinates": [
          -92.370472,
          40.961417
        ]
      },
      "properties": {
        "id": "83086",
        "call_sign": "KICW",
        "frequency": "91.1  MHz",
        "service": "FM",
        "owner": "IOWA PUBLIC RADIO, INC.",
        "city": "OTTUMWA",
        "state": "IA"
      }
    },
    {
      "type": "Feature",
      "geometry": {
        "type": "Point",
        "coordinates": [
          -93.526667,
          41.616389
        ]
      },
      "properties": {
        "id": "20849",
        "call_sign": "KDFR",
        "frequency": "91.3  MHz",
        "service": "FM",
        "owner": "LOAM MEDIA, INC.",
        "city": "DES MOINES",
        "state": "IA"
      }
    },
    {
      "type": "Feature",
      "geometry": {
        "type": "Point",
        "coordinates": [
          -92.374917,
          42.445833
        ]
      },
      "properties": {
        "id": "148558",
        "call_sign": "K217FT",
        "frequency": "91.3  MHz",
        "service": "FX",
        "owner": "K-LOVE, INC.",
        "city": "WATERLOO",
        "state": "IA"
      }
    },
    {
      "type": "Feature",
      "geometry": {
        "type": "Point",
        "coordinates": [
          -92.999361,
          42.0225
        ]
      },
      "properties": {
        "id": "76660",
        "call_sign": "K218CE",
        "frequency": "91.5  MHz",
        "service": "FX",
        "owner": "CSN INTERNATIONAL, INC.",
        "city": "MARSHALLTOWN",
        "state": "IA"
      }
    },
    {
      "type": "Feature",
      "geometry": {
        "type": "Point",
        "coordinates": [
          -92.899972,
          41.906917
        ]
      },
      "properties": {
        "id": "76660",
        "call_sign": "K218CE",
        "frequency": "91.5  MHz",
        "service": "FX",
        "owner": "CSN INTERNATIONAL, INC.",
        "city": "MARSHALLTOWN",
        "state": "IA"
      }
    },
    {
      "type": "Feature",
      "geometry": {
        "type": "Point",
        "coordinates": [
          -93.136583,
          43.157444
        ]
      },
      "properties": {
        "id": "69284",
        "call_sign": "KNSM",
        "frequency": "91.5  MHz",
        "service": "FM",
        "owner": "IOWA PUBLIC RADIO, INC.",
        "city": "MASON CITY",
        "state": "IA"
      }
    },
    {
      "type": "Feature",
      "geometry": {
        "type": "Point",
        "coordinates": [
          -92.409083,
          41.01475
        ]
      },
      "properties": {
        "id": "148639",
        "call_sign": "K218EA",
        "frequency": "91.5  MHz",
        "service": "FX",
        "owner": "HOPE MEDIA GROUP",
        "city": "OTTUMWA",
        "state": "IA"
      }
    },
    {
      "type": "Feature",
      "geometry": {
        "type": "Point",
        "coordinates": [
          -91.341833,
          41.720861
        ]
      },
      "properties": {
        "id": "66626",
        "call_sign": "KSUI",
        "frequency": "91.7  MHz",
        "service": "FM",
        "owner": "IOWA PUBLIC RADIO, INC.",
        "city": "IOWA CITY",
        "state": "IA"
      }
    },
    {
      "type": "Feature",
      "geometry": {
        "type": "Point",
        "coordinates": [
          -91.599333,
          41.710306
        ]
      },
      "properties": {
        "id": "66626",
        "call_sign": "KSUI",
        "frequency": "91.7  MHz",
        "service": "FS",
        "owner": "IOWA PUBLIC RADIO, INC.",
        "city": "IOWA CITY",
        "state": "IA"
      }
    },
    {
      "type": "Feature",
      "geometry": {
        "type": "Point",
        "coordinates": [
          -93.938333,
          42.065556
        ]
      },
      "properties": {
        "id": "78934",
        "call_sign": "KICG",
        "frequency": "91.7  MHz",
        "service": "FM",
        "owner": "IOWA PUBLIC RADIO, INC.",
        "city": "PERRY",
        "state": "IA"
      }
    },
    {
      "type": "Feature",
      "geometry": {
        "type": "Point",
        "coordinates": [
          -93.639083,
          43.263833
        ]
      },
      "properties": {
        "id": "70715",
        "call_sign": "KZOW",
        "frequency": "91.9  MHz",
        "service": "FM",
        "owner": "WALDORF ACQUISITION LLC",
        "city": "FOREST CITY",
        "state": "IA"
      }
    },
    {
      "type": "Feature",
      "geometry": {
        "type": "Point",
        "coordinates": [
          -94.147028,
          40.945583
        ]
      },
      "properties": {
        "id": "172583",
        "call_sign": "KSOI",
        "frequency": "91.9  MHz",
        "service": "FM",
        "owner": "GRAND RIVER VALLEY RADIO INC",
        "city": "MURRAY",
        "state": "IA"
      }
    },
    {
      "type": "Feature",
      "geometry": {
        "type": "Point",
        "coordinates": [
          -96.301944,
          42.514694
        ]
      },
      "properties": {
        "id": "93065",
        "call_sign": "K220HO",
        "frequency": "91.9  MHz",
        "service": "FX",
        "owner": "PENSACOLA CHRISTIAN COLLEGE, INC.",
        "city": "SIOUX CITY",
        "state": "IA"
      }
    },
    {
      "type": "Feature",
      "geometry": {
        "type": "Point",
        "coordinates": [
          -95.150806,
          43.144389
        ]
      },
      "properties": {
        "id": "94038",
        "call_sign": "K220HY",
        "frequency": "91.9  MHz",
        "service": "FX",
        "owner": "UNIVERSITY OF NORTHWESTERN - ST. PAUL",
        "city": "SPENCER",
        "state": "IA"
      }
    },
    {
      "type": "Feature",
      "geometry": {
        "type": "Point",
        "coordinates": [
          -93.066028,
          42.263583
        ]
      },
      "properties": {
        "id": "92457",
        "call_sign": "KJOM",
        "frequency": "91.9  MHz",
        "service": "FM",
        "owner": "MINN-IOWA CHRISTIAN BROADCASTING INC.",
        "city": "STATE CENTER",
        "state": "IA"
      }
    },
    {
      "type": "Feature",
      "geometry": {
        "type": "Point",
        "coordinates": [
          -95.5525,
          42.789139
        ]
      },
      "properties": {
        "id": "60491",
        "call_sign": "KCHE-FM",
        "frequency": "92.1  MHz",
        "service": "FM",
        "owner": "BETTER BROADCASTING INCORPORATED",
        "city": "CHEROKEE",
        "state": "IA"
      }
    },
    {
      "type": "Feature",
      "geometry": {
        "type": "Point",
        "coordinates": [
          -94.203,
          42.478833
        ]
      },
      "properties": {
        "id": "60859",
        "call_sign": "KZLB",
        "frequency": "92.1  MHz",
        "service": "FM",
        "owner": "ALPHA 3E LICENSEE LLC",
        "city": "FORT DODGE",
        "state": "IA"
      }
    },
    {
      "type": "Feature",
      "geometry": {
        "type": "Point",
        "coordinates": [
          -93.004361,
          41.361111
        ]
      },
      "properties": {
        "id": "39462",
        "call_sign": "KRLS",
        "frequency": "92.1  MHz",
        "service": "FM",
        "owner": "M AND H BROADCASTING, INC.",
        "city": "KNOXVILLE",
        "state": "IA"
      }
    },
    {
      "type": "Feature",
      "geometry": {
        "type": "Point",
        "coordinates": [
          -91.880722,
          42.682389
        ]
      },
      "properties": {
        "id": "28472",
        "call_sign": "KOEL-FM",
        "frequency": "92.3  MHz",
        "service": "FM",
        "owner": "TOWNSQUARE LICENSE, LLC",
        "city": "OELWEIN",
        "state": "IA"
      }
    },
    {
      "type": "Feature",
      "geometry": {
        "type": "Point",
        "coordinates": [
          -91.693678,
          41.297664
        ]
      },
      "properties": {
        "id": "783301",
        "call_sign": "KEPL-LP",
        "frequency": "92.3  MHz",
        "service": "FL",
        "owner": "MARION AVENUE BAPTIST CHURCH",
        "city": "WASHINGTON",
        "state": "IA"
      }
    },
    {
      "type": "Feature",
      "geometry": {
        "type": "Point",
        "coordinates": [
          -93.596333,
          41.679722
        ]
      },
      "properties": {
        "id": "22882",
        "call_sign": "KJJY",
        "frequency": "92.5  MHz",
        "service": "FS",
        "owner": "RADIO LICENSE HOLDING CBC, LLC",
        "city": "ANKENY",
        "state": "IA"
      }
    },
    {
      "type": "Feature",
      "geometry": {
        "type": "Point",
        "coordinates": [
          -90.430083,
          42.262611
        ]
      },
      "properties": {
        "id": "202102",
        "call_sign": "K223DA",
        "frequency": "92.5  MHz",
        "service": "FX",
        "owner": "COLOFF MEDIA LLC",
        "city": "BELLEVUE",
        "state": "IA"
      }
    },
    {
      "type": "Feature",
      "geometry": {
        "type": "Point",
        "coordinates": [
          -90.204833,
          41.85975
        ]
      },
      "properties": {
        "id": "133435",
        "call_sign": "KXJX-LP",
        "frequency": "92.5  MHz",
        "service": "FL",
        "owner": "CLINTON EDUCATIONAL ASSOCIATION",
        "city": "CLINTON",
        "state": "IA"
      }
    },
    {
      "type": "Feature",
      "geometry": {
        "type": "Point",
        "coordinates": [
          -90.569,
          41.814194
        ]
      },
      "properties": {
        "id": "134279",
        "call_sign": "KGYS-LP",
        "frequency": "92.5  MHz",
        "service": "FL",
        "owner": "DEWITT EDUCATIONAL ASSOCIATION",
        "city": "DEWITT",
        "state": "IA"
      }
    },
    {
      "type": "Feature",
      "geometry": {
        "type": "Point",
        "coordinates": [
          -93.239639,
          43.118556
        ]
      },
      "properties": {
        "id": "24943",
        "call_sign": "K223AB",
        "frequency": "92.5  MHz",
        "service": "FX",
        "owner": "MINN-IOWA CHRISTIAN BROADCASTING, INC.",
        "city": "MASON CITY",
        "state": "IA"
      }
    },
    {
      "type": "Feature",
      "geometry": {
        "type": "Point",
        "coordinates": [
          -91.069333,
          41.441528
        ]
      },
      "properties": {
        "id": "195130",
        "call_sign": "KMAC-LP",
        "frequency": "92.5  MHz",
        "service": "FL",
        "owner": "MUSCATINE SEVENTH-DAY ADVENTIST CHURCH",
        "city": "MUSCATINE",
        "state": "IA"
      }
    },
    {
      "type": "Feature",
      "geometry": {
        "type": "Point",
        "coordinates": [
          -93.756889,
          41.664722
        ]
      },
      "properties": {
        "id": "22882",
        "call_sign": "KJJY",
        "frequency": "92.5  MHz",
        "service": "FM",
        "owner": "RADIO LICENSE HOLDING CBC, LLC",
        "city": "WEST DES MOINES",
        "state": "IA"
      }
    },
    {
      "type": "Feature",
      "geometry": {
        "type": "Point",
        "coordinates": [
          -94.202444,
          43.068
        ]
      },
      "properties": {
        "id": "35428",
        "call_sign": "KLGA-FM",
        "frequency": "92.7  MHz",
        "service": "FM",
        "owner": "A2Z BROADCASTING, LLC",
        "city": "ALGONA",
        "state": "IA"
      }
    },
    {
      "type": "Feature",
      "geometry": {
        "type": "Point",
        "coordinates": [
          -94.304722,
          43.068333
        ]
      },
      "properties": {
        "id": "35428",
        "call_sign": "KLGA-FM",
        "frequency": "92.7  MHz",
        "service": "FS",
        "owner": "A2Z BROADCASTING, LLC",
        "city": "ALGONA",
        "state": "IA"
      }
    },
    {
      "type": "Feature",
      "geometry": {
        "type": "Point",
        "coordinates": [
          -91.562667,
          41.686694
        ]
      },
      "properties": {
        "id": "133044",
        "call_sign": "KOUR-LP",
        "frequency": "92.7  MHz",
        "service": "FL",
        "owner": "OUR LADY OF PERPETUAL HELP, INC.",
        "city": "CORALVILLE",
        "state": "IA"
      }
    },
    {
      "type": "Feature",
      "geometry": {
        "type": "Point",
        "coordinates": [
          -92.469361,
          41.024722
        ]
      },
      "properties": {
        "id": "24204",
        "call_sign": "KTWA",
        "frequency": "92.7  MHz",
        "service": "FM",
        "owner": "O-TOWN COMMUNICATIONS, INC.",
        "city": "OTTUMWA",
        "state": "IA"
      }
    },
    {
      "type": "Feature",
      "geometry": {
        "type": "Point",
        "coordinates": [
          -93.596333,
          41.679167
        ]
      },
      "properties": {
        "id": "138711",
        "call_sign": "K225BP",
        "frequency": "92.9  MHz",
        "service": "FX",
        "owner": "CSN INTERNATIONAL",
        "city": "DES MOINES",
        "state": "IA"
      }
    },
    {
      "type": "Feature",
      "geometry": {
        "type": "Point",
        "coordinates": [
          -90.61625,
          42.528889
        ]
      },
      "properties": {
        "id": "73661",
        "call_sign": "KATF",
        "frequency": "92.9  MHz",
        "service": "FM",
        "owner": "RADIO DUBUQUE, INC.",
        "city": "DUBUQUE",
        "state": "IA"
      }
    },
    {
      "type": "Feature",
      "geometry": {
        "type": "Point",
        "coordinates": [
          -93.066111,
          42.263611
        ]
      },
      "properties": {
        "id": "19202",
        "call_sign": "KDAO-FM",
        "frequency": "92.9  MHz",
        "service": "FM",
        "owner": "ELDORA BROADCASTING COMPANY, INC.",
        "city": "ELDORA",
        "state": "IA"
      }
    },
    {
      "type": "Feature",
      "geometry": {
        "type": "Point",
        "coordinates": [
          -95.294722,
          42.489694
        ]
      },
      "properties": {
        "id": "24517",
        "call_sign": "KKIA",
        "frequency": "92.9  MHz",
        "service": "FM",
        "owner": "COMMUNITY FIRST BROADCASTING, LLC",
        "city": "IDA GROVE",
        "state": "IA"
      }
    },
    {
      "type": "Feature",
      "geometry": {
        "type": "Point",
        "coordinates": [
          -96.35975,
          42.474417
        ]
      },
      "properties": {
        "id": "43807",
        "call_sign": "KMSC",
        "frequency": "92.9  MHz",
        "service": "FM",
        "owner": "MORNINGSIDE UNIVERSITY",
        "city": "SIOUX CITY",
        "state": "IA"
      }
    },
    {
      "type": "Feature",
      "geometry": {
        "type": "Point",
        "coordinates": [
          -91.673611,
          42.0325
        ]
      },
      "properties": {
        "id": "145166",
        "call_sign": "K226BO",
        "frequency": "93.1  MHz",
        "service": "FX",
        "owner": "ECKER BROADCASTING CO.",
        "city": "CEDAR RAPIDS",
        "state": "IA"
      }
    },
    {
      "type": "Feature",
      "geometry": {
        "type": "Point",
        "coordinates": [
          -91.075972,
          41.442806
        ]
      },
      "properties": {
        "id": "47086",
        "call_sign": "KMCS",
        "frequency": "93.1  MHz",
        "service": "FM",
        "owner": "VMPP LLC",
        "city": "MUSCATINE",
        "state": "IA"
      }
    },
    {
      "type": "Feature",
      "geometry": {
        "type": "Point",
        "coordinates": [
          -92.375,
          42.445833
        ]
      },
      "properties": {
        "id": "150570",
        "call_sign": "K226CK",
        "frequency": "93.1  MHz",
        "service": "FX",
        "owner": "UNIVERSITY OF NORTHWESTERN ST. PAUL",
        "city": "WATERLOO",
        "state": "IA"
      }
    },
    {
      "type": "Feature",
      "geometry": {
        "type": "Point",
        "coordinates": [
          -92.374917,
          42.445833
        ]
      },
      "properties": {
        "id": "150570",
        "call_sign": "K226CK",
        "frequency": "93.1  MHz",
        "service": "FX",
        "owner": "UNIVERSITY OF NORTHWESTERN ST. PAUL",
        "city": "WATERLOO",
        "state": "IA"
      }
    },
    {
      "type": "Feature",
      "geometry": {
        "type": "Point",
        "coordinates": [
          -93.457444,
          41.631944
        ]
      },
      "properties": {
        "id": "58547",
        "call_sign": "KIOA",
        "frequency": "93.3  MHz",
        "service": "FM",
        "owner": "SAGA COMMUNICATIONS OF IOWA, LLC",
        "city": "DES MOINES",
        "state": "IA"
      }
    },
    {
      "type": "Feature",
      "geometry": {
        "type": "Point",
        "coordinates": [
          -93.579389,
          41.558611
        ]
      },
      "properties": {
        "id": "58547",
        "call_sign": "KIOA",
        "frequency": "93.3  MHz",
        "service": "FS",
        "owner": "SAGA COMMUNICATIONS OF IOWA, LLC",
        "city": "DES MOINES",
        "state": "IA"
      }
    },
    {
      "type": "Feature",
      "geometry": {
        "type": "Point",
        "coordinates": [
          -91.352222,
          40.380833
        ]
      },
      "properties": {
        "id": "202360",
        "call_sign": "K227DO",
        "frequency": "93.3  MHz",
        "service": "FX",
        "owner": "KEOKUK BROADCASTING, INC.",
        "city": "KEOKUK",
        "state": "IA"
      }
    },
    {
      "type": "Feature",
      "geometry": {
        "type": "Point",
        "coordinates": [
          -90.412361,
          41.603917
        ]
      },
      "properties": {
        "id": "19791",
        "call_sign": "KJOC",
        "frequency": "93.5  MHz",
        "service": "FM",
        "owner": "TOWNSQUARE LICENSE, LLC",
        "city": "BETTENDORF",
        "state": "IA"
      }
    },
    {
      "type": "Feature",
      "geometry": {
        "type": "Point",
        "coordinates": [
          -91.117361,
          40.81975
        ]
      },
      "properties": {
        "id": "53604",
        "call_sign": "KKMI",
        "frequency": "93.5  MHz",
        "service": "FM",
        "owner": "PRITCHARD BROADCASTING CORPORATION",
        "city": "BURLINGTON",
        "state": "IA"
      }
    },
    {
      "type": "Feature",
      "geometry": {
        "type": "Point",
        "coordinates": [
          -92.341028,
          42.502194
        ]
      },
      "properties": {
        "id": "17227",
        "call_sign": "KCVM",
        "frequency": "93.5  MHz",
        "service": "FM",
        "owner": "COLOFF MEDIA, LLC",
        "city": "EVANSDALE",
        "state": "IA"
      }
    },
    {
      "type": "Feature",
      "geometry": {
        "type": "Point",
        "coordinates": [
          -94.884444,
          42.049139
        ]
      },
      "properties": {
        "id": "9115",
        "call_sign": "KKRL",
        "frequency": "93.7  MHz",
        "service": "FM",
        "owner": "CARROLL BROADCASTING COMPANY",
        "city": "CARROLL",
        "state": "IA"
      }
    },
    {
      "type": "Feature",
      "geometry": {
        "type": "Point",
        "coordinates": [
          -93.630222,
          41.593056
        ]
      },
      "properties": {
        "id": "151706",
        "call_sign": "K229CC",
        "frequency": "93.7  MHz",
        "service": "FX",
        "owner": "SAGA COMMUNICATIONS OF IOWA, LLC",
        "city": "DES MOINES",
        "state": "IA"
      }
    },
    {
      "type": "Feature",
      "geometry": {
        "type": "Point",
        "coordinates": [
          -93.084444,
          41.310556
        ]
      },
      "properties": {
        "id": "787947",
        "call_sign": "KTEW-LP",
        "frequency": "93.9  MHz",
        "service": "FL",
        "owner": "KNOXVILLE'S INSPIRATION RADIO",
        "city": "KNOXVILLE",
        "state": "IA"
      }
    },
    {
      "type": "Feature",
      "geometry": {
        "type": "Point",
        "coordinates": [
          -92.999444,
          42.0225
        ]
      },
      "properties": {
        "id": "201125",
        "call_sign": "K230CB",
        "frequency": "93.9  MHz",
        "service": "FX",
        "owner": "TRENDING MEDIA, INC.",
        "city": "MARSHALLTOWN",
        "state": "IA"
      }
    },
    {
      "type": "Feature",
      "geometry": {
        "type": "Point",
        "coordinates": [
          -93.101083,
          43.168222
        ]
      },
      "properties": {
        "id": "30115",
        "call_sign": "KIAI",
        "frequency": "93.9  MHz",
        "service": "FM",
        "owner": "ALPHA 3E LICENSEE LLC",
        "city": "MASON CITY",
        "state": "IA"
      }
    },
    {
      "type": "Feature",
      "geometry": {
        "type": "Point",
        "coordinates": [
          -96.305833,
          43.083583
        ]
      },
      "properties": {
        "id": "67773",
        "call_sign": "KSOU-FM",
        "frequency": "93.9  MHz",
        "service": "FM",
        "owner": "COMMUNITY FIRST BROADCASTING, LLC",
        "city": "SIOUX CENTER",
        "state": "IA"
      }
    },
    {
      "type": "Feature",
      "geometry": {
        "type": "Point",
        "coordinates": [
          -93.579139,
          41.634722
        ]
      },
      "properties": {
        "id": "144879",
        "call_sign": "K231DI",
        "frequency": "94.1  MHz",
        "service": "FX",
        "owner": "IOWA PUBLIC RADIO, INC.",
        "city": "DES MOINES",
        "state": "IA"
      }
    },
    {
      "type": "Feature",
      "geometry": {
        "type": "Point",
        "coordinates": [
          -91.837944,
          41.75
        ]
      },
      "properties": {
        "id": "35555",
        "call_sign": "KRNA",
        "frequency": "94.1  MHz",
        "service": "FM",
        "owner": "TOWNSQUARE LICENSE, LLC",
        "city": "IOWA CITY",
        "state": "IA"
      }
    },
    {
      "type": "Feature",
      "geometry": {
        "type": "Point",
        "coordinates": [
          -93.958889,
          41.683056
        ]
      },
      "properties": {
        "id": "203232",
        "call_sign": "K232FX",
        "frequency": "94.3  MHz",
        "service": "FX",
        "owner": "MCGEE MANAGEMENT SERVICES, LLC",
        "city": "DALLAS CENTER",
        "state": "IA"
      }
    },
    {
      "type": "Feature",
      "geometry": {
        "type": "Point",
        "coordinates": [
          -91.457361,
          40.715028
        ]
      },
      "properties": {
        "id": "156879",
        "call_sign": "K232GF",
        "frequency": "94.3  MHz",
        "service": "FX",
        "owner": "DIVINE MERCY EDUCATIONAL RADIO ASSOCIATION",
        "city": "FORT MADISON",
        "state": "IA"
      }
    },
    {
      "type": "Feature",
      "geometry": {
        "type": "Point",
        "coordinates": [
          -92.884722,
          42.353333
        ]
      },
      "properties": {
        "id": "201481",
        "call_sign": "K232GG",
        "frequency": "94.3  MHz",
        "service": "FX",
        "owner": "MTN BROADCASTING, INC.",
        "city": "GRUNDY CENTER",
        "state": "IA"
      }
    },
    {
      "type": "Feature",
      "geometry": {
        "type": "Point",
        "coordinates": [
          -93.561306,
          41.361639
        ]
      },
      "properties": {
        "id": "200686",
        "call_sign": "K232FR",
        "frequency": "94.3  MHz",
        "service": "FX",
        "owner": "M AND H BROADCASTING, INC.",
        "city": "INDIANOLA",
        "state": "IA"
      }
    },
    {
      "type": "Feature",
      "geometry": {
        "type": "Point",
        "coordinates": [
          -96.351111,
          42.483889
        ]
      },
      "properties": {
        "id": "788206",
        "call_sign": "KWSR-LP",
        "frequency": "94.3  MHz",
        "service": "FL",
        "owner": "WESTERN IOWA TECH COMMUNITY COLLEGE",
        "city": "SIOUX CITY",
        "state": "IA"
      }
    },
    {
      "type": "Feature",
      "geometry": {
        "type": "Point",
        "coordinates": [
          -90.574556,
          41.510028
        ]
      },
      "properties": {
        "id": "69144",
        "call_sign": "K233AA",
        "frequency": "94.5  MHz",
        "service": "FX",
        "owner": "IOWA PUBLIC RADIO, INC.",
        "city": "DAVENPORT",
        "state": "IA"
      }
    },
    {
      "type": "Feature",
      "geometry": {
        "type": "Point",
        "coordinates": [
          -93.630278,
          41.593056
        ]
      },
      "properties": {
        "id": "141180",
        "call_sign": "K233BT",
        "frequency": "94.5  MHz",
        "service": "FX",
        "owner": "KDLX LATIN BROADCASTING, LLC",
        "city": "DES MOINES",
        "state": "IA"
      }
    },
    {
      "type": "Feature",
      "geometry": {
        "type": "Point",
        "coordinates": [
          -94.209417,
          42.49525
        ]
      },
      "properties": {
        "id": "35892",
        "call_sign": "KKEZ",
        "frequency": "94.5  MHz",
        "service": "FM",
        "owner": "ALPHA 3E LICENSEE LLC",
        "city": "FORT DODGE",
        "state": "IA"
      }
    },
    {
      "type": "Feature",
      "geometry": {
        "type": "Point",
        "coordinates": [
          -93.633944,
          43.263583
        ]
      },
      "properties": {
        "id": "147513",
        "call_sign": "K234BK",
        "frequency": "94.7  MHz",
        "service": "FX",
        "owner": "MINN-IOWA CHRISTIAN BROADCASTING, INC.",
        "city": "BRITT",
        "state": "IA"
      }
    },
    {
      "type": "Feature",
      "geometry": {
        "type": "Point",
        "coordinates": [
          -92.672389,
          43.064972
        ]
      },
      "properties": {
        "id": "133434",
        "call_sign": "KQOP-LP",
        "frequency": "94.7  MHz",
        "service": "FL",
        "owner": "CHARLES CITY EDUCATIONAL ASSOCIATION",
        "city": "CHARLES CITY",
        "state": "IA"
      }
    },
    {
      "type": "Feature",
      "geometry": {
        "type": "Point",
        "coordinates": [
          -90.224583,
          41.909472
        ]
      },
      "properties": {
        "id": "33054",
        "call_sign": "KMCN",
        "frequency": "94.7  MHz",
        "service": "FM",
        "owner": "GENDREAU BROADCAST LLC",
        "city": "CLINTON",
        "state": "IA"
      }
    },
    {
      "type": "Feature",
      "geometry": {
        "type": "Point",
        "coordinates": [
          -91.381528,
          42.528306
        ]
      },
      "properties": {
        "id": "64125",
        "call_sign": "KMCH",
        "frequency": "94.7  MHz",
        "service": "FM",
        "owner": "COLOFF MEDIA, LLC",
        "city": "MANCHESTER",
        "state": "IA"
      }
    },
    {
      "type": "Feature",
      "geometry": {
        "type": "Point",
        "coordinates": [
          -92.929722,
          43.112361
        ]
      },
      "properties": {
        "id": "762523",
        "call_sign": "KVPJ",
        "frequency": "94.7  MHz",
        "service": "FM",
        "owner": "VCY AMERICA, INC.",
        "city": "ROCKFORD",
        "state": "IA"
      }
    },
    {
      "type": "Feature",
      "geometry": {
        "type": "Point",
        "coordinates": [
          -91.884333,
          43.286917
        ]
      },
      "properties": {
        "id": "201002",
        "call_sign": "K235CT",
        "frequency": "94.9  MHz",
        "service": "FX",
        "owner": "LA COMMUNICATIONS, INC.",
        "city": "DECORAH",
        "state": "IA"
      }
    },
    {
      "type": "Feature",
      "geometry": {
        "type": "Point",
        "coordinates": [
          -93.456889,
          41.631667
        ]
      },
      "properties": {
        "id": "12965",
        "call_sign": "KGGO",
        "frequency": "94.9  MHz",
        "service": "FM",
        "owner": "RADIO LICENSE HOLDING CBC, LLC",
        "city": "DES MOINES",
        "state": "IA"
      }
    },
    {
      "type": "Feature",
      "geometry": {
        "type": "Point",
        "coordinates": [
          -93.731611,
          41.830833
        ]
      },
      "properties": {
        "id": "12965",
        "call_sign": "KGGO",
        "frequency": "94.9  MHz",
        "service": "FS",
        "owner": "RADIO LICENSE HOLDING CBC, LLC",
        "city": "DES MOINES",
        "state": "IA"
      }
    },
    {
      "type": "Feature",
      "geometry": {
        "type": "Point",
        "coordinates": [
          -93.538833,
          41.646389
        ]
      },
      "properties": {
        "id": "12965",
        "call_sign": "KGGO",
        "frequency": "94.9  MHz",
        "service": "FS",
        "owner": "RADIO LICENSE HOLDING CBC, LLC",
        "city": "DES MOINES",
        "state": "IA"
      }
    },
    {
      "type": "Feature",
      "geometry": {
        "type": "Point",
        "coordinates": [
          -96.415306,
          42.494167
        ]
      },
      "properties": {
        "id": "153258",
        "call_sign": "K235CA",
        "frequency": "94.9  MHz",
        "service": "FX",
        "owner": "KSUX/KSCJ RADIO BROADCASTING COMPANY, INC.",
        "city": "SIOUX CITY",
        "state": "IA"
      }
    },
    {
      "type": "Feature",
      "geometry": {
        "type": "Point",
        "coordinates": [
          -94.884444,
          42.049139
        ]
      },
      "properties": {
        "id": "202995",
        "call_sign": "K236CV",
        "frequency": "95.1  MHz",
        "service": "FX",
        "owner": "CARROLL BROADCASTING COMPANY",
        "city": "CARROLL",
        "state": "IA"
      }
    },
    {
      "type": "Feature",
      "geometry": {
        "type": "Point",
        "coordinates": [
          -91.654889,
          41.909167
        ]
      },
      "properties": {
        "id": "20717",
        "call_sign": "K236AA",
        "frequency": "95.1  MHz",
        "service": "FX",
        "owner": "KZIA, INC.",
        "city": "CEDAR RAPIDS",
        "state": "IA"
      }
    },
    {
      "type": "Feature",
      "geometry": {
        "type": "Point",
        "coordinates": [
          -90.62875,
          42.090583
        ]
      },
      "properties": {
        "id": "39857",
        "call_sign": "KMAQ-FM",
        "frequency": "95.1  MHz",
        "service": "FM",
        "owner": "COLOFF MEDIA LLC",
        "city": "MAQUOKETA",
        "state": "IA"
      }
    },
    {
      "type": "Feature",
      "geometry": {
        "type": "Point",
        "coordinates": [
          -91.075972,
          41.442806
        ]
      },
      "properties": {
        "id": "146170",
        "call_sign": "K236CF",
        "frequency": "95.1  MHz",
        "service": "FX",
        "owner": "VMPP LLC",
        "city": "MUSCATINE",
        "state": "IA"
      }
    },
    {
      "type": "Feature",
      "geometry": {
        "type": "Point",
        "coordinates": [
          -92.302667,
          43.046083
        ]
      },
      "properties": {
        "id": "41098",
        "call_sign": "KCZE",
        "frequency": "95.1  MHz",
        "service": "FM",
        "owner": "COLOFF MEDIA, LLC",
        "city": "NEW HAMPTON",
        "state": "IA"
      }
    },
    {
      "type": "Feature",
      "geometry": {
        "type": "Point",
        "coordinates": [
          -90.465556,
          41.546667
        ]
      },
      "properties": {
        "id": "151882",
        "call_sign": "K237FP",
        "frequency": "95.3  MHz",
        "service": "FX",
        "owner": "DAVENPORT EDUCATIONAL ASSOCIATION",
        "city": "DAVENPORT",
        "state": "IA"
      }
    },
    {
      "type": "Feature",
      "geometry": {
        "type": "Point",
        "coordinates": [
          -93.807444,
          41.638889
        ]
      },
      "properties": {
        "id": "152213",
        "call_sign": "K237GC",
        "frequency": "95.3  MHz",
        "service": "FX",
        "owner": "K-LOVE, INC.",
        "city": "DES MOINES",
        "state": "IA"
      }
    },
    {
      "type": "Feature",
      "geometry": {
        "type": "Point",
        "coordinates": [
          -91.874056,
          42.475556
        ]
      },
      "properties": {
        "id": "42080",
        "call_sign": "KQMG-FM",
        "frequency": "95.3  MHz",
        "service": "FM",
        "owner": "KM RADIO OF INDEPENDENCE, L.L.C.",
        "city": "INDEPENDENCE",
        "state": "IA"
      }
    },
    {
      "type": "Feature",
      "geometry": {
        "type": "Point",
        "coordinates": [
          -91.544972,
          41.658222
        ]
      },
      "properties": {
        "id": "144507",
        "call_sign": "K237GD",
        "frequency": "95.3  MHz",
        "service": "FX",
        "owner": "IOWA PUBLIC RADIO, INC.",
        "city": "IOWA CITY",
        "state": "IA"
      }
    },
    {
      "type": "Feature",
      "geometry": {
        "type": "Point",
        "coordinates": [
          -93.216028,
          42.513583
        ]
      },
      "properties": {
        "id": "52020",
        "call_sign": "KIFG-FM",
        "frequency": "95.3  MHz",
        "service": "FM",
        "owner": "TIMES-CITIZEN COMMUNICATIONS, INC.",
        "city": "IOWA FALLS",
        "state": "IA"
      }
    },
    {
      "type": "Feature",
      "geometry": {
        "type": "Point",
        "coordinates": [
          -91.586,
          40.400333
        ]
      },
      "properties": {
        "id": "70573",
        "call_sign": "KQKL",
        "frequency": "95.3  MHz",
        "service": "FM",
        "owner": "K-LOVE, INC.",
        "city": "KEOKUK",
        "state": "IA"
      }
    },
    {
      "type": "Feature",
      "geometry": {
        "type": "Point",
        "coordinates": [
          -93.112139,
          41.333333
        ]
      },
      "properties": {
        "id": "147531",
        "call_sign": "K237DH",
        "frequency": "95.3  MHz",
        "service": "FX",
        "owner": "M AND H BROADCASTING, INC.",
        "city": "KNOXVILLE",
        "state": "IA"
      }
    },
    {
      "type": "Feature",
      "geometry": {
        "type": "Point",
        "coordinates": [
          -95.200833,
          41.026444
        ]
      },
      "properties": {
        "id": "26456",
        "call_sign": "KCSI",
        "frequency": "95.3  MHz",
        "service": "FM",
        "owner": "HAWKEYE COMMUNICATIONS, INC.",
        "city": "VILLISCA",
        "state": "IA"
      }
    },
    {
      "type": "Feature",
      "geometry": {
        "type": "Point",
        "coordinates": [
          -95.205278,
          41.0175
        ]
      },
      "properties": {
        "id": "26456",
        "call_sign": "KCSI",
        "frequency": "95.3  MHz",
        "service": "FS",
        "owner": "HAWKEYE COMMUNICATIONS, INC.",
        "city": "VILLISCA",
        "state": "IA"
      }
    },
    {
      "type": "Feature",
      "geometry": {
        "type": "Point",
        "coordinates": [
          -93.647694,
          42.020806
        ]
      },
      "properties": {
        "id": "148032",
        "call_sign": "K238AN",
        "frequency": "95.5  MHz",
        "service": "FX",
        "owner": "FOURTHSTREAM MEDIA, INC.",
        "city": "AMES",
        "state": "IA"
      }
    },
    {
      "type": "Feature",
      "geometry": {
        "type": "Point",
        "coordinates": [
          -92.397694,
          41.943056
        ]
      },
      "properties": {
        "id": "14846",
        "call_sign": "KZAT-FM",
        "frequency": "95.5  MHz",
        "service": "FM",
        "owner": "GRUPO ROBLE, LLC",
        "city": "BELLE PLAINE",
        "state": "IA"
      }
    },
    {
      "type": "Feature",
      "geometry": {
        "type": "Point",
        "coordinates": [
          -96.303889,
          42.514694
        ]
      },
      "properties": {
        "id": "8771",
        "call_sign": "KGLI",
        "frequency": "95.5  MHz",
        "service": "FM",
        "owner": "IHM LICENSES, LLC",
        "city": "SIOUX CITY",
        "state": "IA"
      }
    },
    {
      "type": "Feature",
      "geometry": {
        "type": "Point",
        "coordinates": [
          -96.403639,
          42.502167
        ]
      },
      "properties": {
        "id": "8771",
        "call_sign": "KGLI",
        "frequency": "95.5  MHz",
        "service": "FS",
        "owner": "IHM LICENSES, LLC",
        "city": "SIOUX CITY",
        "state": "IA"
      }
    },
    {
      "type": "Feature",
      "geometry": {
        "type": "Point",
        "coordinates": [
          -96.415306,
          42.494139
        ]
      },
      "properties": {
        "id": "8771",
        "call_sign": "KGLI",
        "frequency": "95.5  MHz",
        "service": "FS",
        "owner": "IHM LICENSES, LLC",
        "city": "SIOUX CITY",
        "state": "IA"
      }
    },
    {
      "type": "Feature",
      "geometry": {
        "type": "Point",
        "coordinates": [
          -92.851306,
          43.364417
        ]
      },
      "properties": {
        "id": "84242",
        "call_sign": "KJCY",
        "frequency": "95.5  MHz",
        "service": "FM",
        "owner": "MINN-IOWA CHRISTIAN BROADCASTING, INC.",
        "city": "ST. ANSGAR",
        "state": "IA"
      }
    },
    {
      "type": "Feature",
      "geometry": {
        "type": "Point",
        "coordinates": [
          -91.543333,
          42.060833
        ]
      },
      "properties": {
        "id": "162475",
        "call_sign": "KOSY-FM",
        "frequency": "95.7  MHz",
        "service": "FM",
        "owner": "IHM LICENSES, LLC",
        "city": "ANAMOSA",
        "state": "IA"
      }
    },
    {
      "type": "Feature",
      "geometry": {
        "type": "Point",
        "coordinates": [
          -94.833583,
          41.435278
        ]
      },
      "properties": {
        "id": "79302",
        "call_sign": "KSWI",
        "frequency": "95.7  MHz",
        "service": "FM",
        "owner": "MEREDITH COMMUNICATIONS, L.C.",
        "city": "ATLANTIC",
        "state": "IA"
      }
    },
    {
      "type": "Feature",
      "geometry": {
        "type": "Point",
        "coordinates": [
          -93.601306,
          41.555972
        ]
      },
      "properties": {
        "id": "201416",
        "call_sign": "K239CR",
        "frequency": "95.7  MHz",
        "service": "FX",
        "owner": "BIRACH BROADCASTING CORPORATION",
        "city": "INDIANOLA",
        "state": "IA"
      }
    },
    {
      "type": "Feature",
      "geometry": {
        "type": "Point",
        "coordinates": [
          -92.642444,
          41.294278
        ]
      },
      "properties": {
        "id": "192821",
        "call_sign": "KMFH-LP",
        "frequency": "95.7  MHz",
        "service": "FL",
        "owner": "MY FATHER'S HOUSE, INC.",
        "city": "OSKALOOSA",
        "state": "IA"
      }
    },
    {
      "type": "Feature",
      "geometry": {
        "type": "Point",
        "coordinates": [
          -92.356472,
          42.514239
        ]
      },
      "properties": {
        "id": "782810",
        "call_sign": "KPMT-LP",
        "frequency": "95.7  MHz",
        "service": "FL",
        "owner": "CALVARY BAPTIST CHURCH",
        "city": "WATERLOO",
        "state": "IA"
      }
    },
    {
      "type": "Feature",
      "geometry": {
        "type": "Point",
        "coordinates": [
          -93.796861,
          42.46775
        ]
      },
      "properties": {
        "id": "24661",
        "call_sign": "KQWC-FM",
        "frequency": "95.7  MHz",
        "service": "FM",
        "owner": "FIELDVIEW BROADCASTING LLC",
        "city": "WEBSTER CITY",
        "state": "IA"
      }
    },
    {
      "type": "Feature",
      "geometry": {
        "type": "Point",
        "coordinates": [
          -92.670722,
          43.053278
        ]
      },
      "properties": {
        "id": "41100",
        "call_sign": "KCHA-FM",
        "frequency": "95.9  MHz",
        "service": "FM",
        "owner": "COLOFF MEDIA, LLC",
        "city": "CHARLES CITY",
        "state": "IA"
      }
    },
    {
      "type": "Feature",
      "geometry": {
        "type": "Point",
        "coordinates": [
          -90.685833,
          42.496444
        ]
      },
      "properties": {
        "id": "77016",
        "call_sign": "K240DZ",
        "frequency": "95.9  MHz",
        "service": "FX",
        "owner": "AUGUSTANA COLLEGE",
        "city": "DUBUQUE",
        "state": "IA"
      }
    },
    {
      "type": "Feature",
      "geometry": {
        "type": "Point",
        "coordinates": [
          -94.823333,
          43.429111
        ]
      },
      "properties": {
        "id": "29725",
        "call_sign": "KILR-FM",
        "frequency": "95.9  MHz",
        "service": "FM",
        "owner": "BEAVER BROADCASTING, INC.",
        "city": "ESTHERVILLE",
        "state": "IA"
      }
    },
    {
      "type": "Feature",
      "geometry": {
        "type": "Point",
        "coordinates": [
          -92.096,
          40.97975
        ]
      },
      "properties": {
        "id": "23037",
        "call_sign": "KKFD-FM",
        "frequency": "95.9  MHz",
        "service": "FM",
        "owner": "ALPHA MEDIA LICENSEE LLC",
        "city": "FAIRFIELD",
        "state": "IA"
      }
    },
    {
      "type": "Feature",
      "geometry": {
        "type": "Point",
        "coordinates": [
          -93.020194,
          41.736361
        ]
      },
      "properties": {
        "id": "9899",
        "call_sign": "KCOB-FM",
        "frequency": "95.9  MHz",
        "service": "FM",
        "owner": "ALPHA MEDIA LICENSEE LLC",
        "city": "NEWTON",
        "state": "IA"
      }
    },
    {
      "type": "Feature",
      "geometry": {
        "type": "Point",
        "coordinates": [
          -96.415306,
          42.494167
        ]
      },
      "properties": {
        "id": "146700",
        "call_sign": "K240DE",
        "frequency": "95.9  MHz",
        "service": "FX",
        "owner": "HOPE MEDIA GROUP",
        "city": "SIOUX CITY",
        "state": "IA"
      }
    },
    {
      "type": "Feature",
      "geometry": {
        "type": "Point",
        "coordinates": [
          -90.410667,
          41.632806
        ]
      },
      "properties": {
        "id": "60359",
        "call_sign": "KMXG",
        "frequency": "96.1  MHz",
        "service": "FM",
        "owner": "IHM LICENSES, LLC",
        "city": "CLINTON",
        "state": "IA"
      }
    },
    {
      "type": "Feature",
      "geometry": {
        "type": "Point",
        "coordinates": [
          -90.575111,
          41.53725
        ]
      },
      "properties": {
        "id": "60359",
        "call_sign": "KMXG",
        "frequency": "96.1  MHz",
        "service": "FS",
        "owner": "IHM LICENSES, LLC",
        "city": "CLINTON",
        "state": "IA"
      }
    },
    {
      "type": "Feature",
      "geometry": {
        "type": "Point",
        "coordinates": [
          -93.724944,
          41.851389
        ]
      },
      "properties": {
        "id": "42083",
        "call_sign": "KNWM",
        "frequency": "96.1  MHz",
        "service": "FM",
        "owner": "UNIVERSITY OF NORTHWESTERN-ST. PAUL",
        "city": "MADRID",
        "state": "IA"
      }
    },
    {
      "type": "Feature",
      "geometry": {
        "type": "Point",
        "coordinates": [
          -91.884333,
          43.286917
        ]
      },
      "properties": {
        "id": "152179",
        "call_sign": "K242BW",
        "frequency": "96.3  MHz",
        "service": "FX",
        "owner": "MINNESOTA PUBLIC RADIO",
        "city": "DECORAH",
        "state": "IA"
      }
    },
    {
      "type": "Feature",
      "geometry": {
        "type": "Point",
        "coordinates": [
          -91.586111,
          40.400278
        ]
      },
      "properties": {
        "id": "15773",
        "call_sign": "KRNQ",
        "frequency": "96.3  MHz",
        "service": "FM",
        "owner": "COMMUNITY BROADCASTING, INC.",
        "city": "KEOKUK",
        "state": "IA"
      }
    },
    {
      "type": "Feature",
      "geometry": {
        "type": "Point",
        "coordinates": [
          -92.911583,
          42.04775
        ]
      },
      "properties": {
        "id": "139156",
        "call_sign": "K242BX",
        "frequency": "96.3  MHz",
        "service": "FX",
        "owner": "UNIVERSITY OF NORTHWESTERN-ST. PAUL",
        "city": "MARSHALLTOWN",
        "state": "IA"
      }
    },
    {
      "type": "Feature",
      "geometry": {
        "type": "Point",
        "coordinates": [
          -95.006361,
          42.60775
        ]
      },
      "properties": {
        "id": "24610",
        "call_sign": "K242AM",
        "frequency": "96.3  MHz",
        "service": "FX",
        "owner": "MINN-IOWA CHRISTIAN BROADCASTING, INC.",
        "city": "NEWELL",
        "state": "IA"
      }
    },
    {
      "type": "Feature",
      "geometry": {
        "type": "Point",
        "coordinates": [
          -93.086389,
          41.33275
        ]
      },
      "properties": {
        "id": "164103",
        "call_sign": "KICL",
        "frequency": "96.3  MHz",
        "service": "FM",
        "owner": "IOWA PUBLIC RADIO, INC.",
        "city": "PLEASANTVILLE",
        "state": "IA"
      }
    },
    {
      "type": "Feature",
      "geometry": {
        "type": "Point",
        "coordinates": [
          -92.473222,
          42.701361
        ]
      },
      "properties": {
        "id": "148616",
        "call_sign": "K242CV",
        "frequency": "96.3  MHz",
        "service": "FX",
        "owner": "AEL SUHR ENTERPRISES, INC",
        "city": "WAVERLY",
        "state": "IA"
      }
    },
    {
      "type": "Feature",
      "geometry": {
        "type": "Point",
        "coordinates": [
          -94.833583,
          41.43525
        ]
      },
      "properties": {
        "id": "63296",
        "call_sign": "KSOM",
        "frequency": "96.5  MHz",
        "service": "FM",
        "owner": "MEREDITH COMMUNICATIONS, L.C.",
        "city": "AUDUBON",
        "state": "IA"
      }
    },
    {
      "type": "Feature",
      "geometry": {
        "type": "Point",
        "coordinates": [
          -93.607778,
          41.800278
        ]
      },
      "properties": {
        "id": "151911",
        "call_sign": "K243CO",
        "frequency": "96.5  MHz",
        "service": "FX",
        "owner": "LATIN WORLD BROADCASTING, INC.",
        "city": "BOONE",
        "state": "IA"
      }
    },
    {
      "type": "Feature",
      "geometry": {
        "type": "Point",
        "coordinates": [
          -91.640444,
          42.027778
        ]
      },
      "properties": {
        "id": "73594",
        "call_sign": "KKSY-FM",
        "frequency": "96.5  MHz",
        "service": "FM",
        "owner": "IHM LICENSES, LLC",
        "city": "CEDAR RAPIDS",
        "state": "IA"
      }
    },
    {
      "type": "Feature",
      "geometry": {
        "type": "Point",
        "coordinates": [
          -92.729917,
          41.010556
        ]
      },
      "properties": {
        "id": "25745",
        "call_sign": "KIIC",
        "frequency": "96.7  MHz",
        "service": "FM",
        "owner": "WAVEGUIDE COMMUNICATIONS INC.",
        "city": "ALBIA",
        "state": "IA"
      }
    },
    {
      "type": "Feature",
      "geometry": {
        "type": "Point",
        "coordinates": [
          -91.319861,
          42.884972
        ]
      },
      "properties": {
        "id": "201060",
        "call_sign": "K244FQ",
        "frequency": "96.7  MHz",
        "service": "FX",
        "owner": "DESIGN HOMES",
        "city": "ELKADER",
        "state": "IA"
      }
    },
    {
      "type": "Feature",
      "geometry": {
        "type": "Point",
        "coordinates": [
          -92.894361,
          42.005833
        ]
      },
      "properties": {
        "id": "133311",
        "call_sign": "KCRM-LP",
        "frequency": "96.7  MHz",
        "service": "FL",
        "owner": "MARSHALLTOWN ASSOCIATION FOR CATHOLIC EDUCATION & EVANGEL",
        "city": "MARSHALLTOWN",
        "state": "IA"
      }
    },
    {
      "type": "Feature",
      "geometry": {
        "type": "Point",
        "coordinates": [
          -93.258528,
          43.137444
        ]
      },
      "properties": {
        "id": "147922",
        "call_sign": "K244FA",
        "frequency": "96.7  MHz",
        "service": "FX",
        "owner": "ALPHA 3E LICENSEE LLC",
        "city": "MASON CITY",
        "state": "IA"
      }
    },
    {
      "type": "Feature",
      "geometry": {
        "type": "Point",
        "coordinates": [
          -94.153278,
          42.671611
        ]
      },
      "properties": {
        "id": "54641",
        "call_sign": "KIAQ",
        "frequency": "96.9  MHz",
        "service": "FM",
        "owner": "ALPHA 3E LICENSEE LLC",
        "city": "CLARION",
        "state": "IA"
      }
    },
    {
      "type": "Feature",
      "geometry": {
        "type": "Point",
        "coordinates": [
          -90.748472,
          42.503333
        ]
      },
      "properties": {
        "id": "152221",
        "call_sign": "K245AZ",
        "frequency": "96.9  MHz",
        "service": "FX",
        "owner": "UNIVERSITY OF NORTHWESTERN ST. PAUL",
        "city": "DUBUQUE",
        "state": "IA"
      }
    },
    {
      "type": "Feature",
      "geometry": {
        "type": "Point",
        "coordinates": [
          -96.163361,
          42.817778
        ]
      },
      "properties": {
        "id": "152251",
        "call_sign": "K245AM",
        "frequency": "96.9  MHz",
        "service": "FX",
        "owner": "POWELL BROADCASTING COMPANY, L.L.C.",
        "city": "LE MARS",
        "state": "IA"
      }
    },
    {
      "type": "Feature",
      "geometry": {
        "type": "Point",
        "coordinates": [
          -93.641611,
          41.584722
        ]
      },
      "properties": {
        "id": "138341",
        "call_sign": "K245CO",
        "frequency": "96.9  MHz",
        "service": "FX",
        "owner": "IHM LICENSES, LLC",
        "city": "MILLMAN",
        "state": "IA"
      }
    },
    {
      "type": "Feature",
      "geometry": {
        "type": "Point",
        "coordinates": [
          -96.305556,
          42.484861
        ]
      },
      "properties": {
        "id": "147458",
        "call_sign": "K246CJ",
        "frequency": "97.1  MHz",
        "service": "FX",
        "owner": "LA FIESTA 971, LLC",
        "city": "SIOUX CITY",
        "state": "IA"
      }
    },
    {
      "type": "Feature",
      "geometry": {
        "type": "Point",
        "coordinates": [
          -96.44975,
          42.537778
        ]
      },
      "properties": {
        "id": "147458",
        "call_sign": "K246CJ",
        "frequency": "97.1  MHz",
        "service": "FX",
        "owner": "LA FIESTA 971, LLC",
        "city": "SIOUX CITY",
        "state": "IA"
      }
    },
    {
      "type": "Feature",
      "geometry": {
        "type": "Point",
        "coordinates": [
          -92.334472,
          42.498139
        ]
      },
      "properties": {
        "id": "196323",
        "call_sign": "KBDJ-LP",
        "frequency": "97.1  MHz",
        "service": "FL",
        "owner": "HUMANITY'S HOPE FOUNDATION, INC.",
        "city": "WATERLOO",
        "state": "IA"
      }
    },
    {
      "type": "Feature",
      "geometry": {
        "type": "Point",
        "coordinates": [
          -90.410694,
          41.632806
        ]
      },
      "properties": {
        "id": "140129",
        "call_sign": "K247BW",
        "frequency": "97.3  MHz",
        "service": "FX",
        "owner": "UNIVERSITY OF NORTHWESTERN - ST. PAUL",
        "city": "BETTENDORF",
        "state": "IA"
      }
    },
    {
      "type": "Feature",
      "geometry": {
        "type": "Point",
        "coordinates": [
          -93.756611,
          41.662778
        ]
      },
      "properties": {
        "id": "12966",
        "call_sign": "KHKI",
        "frequency": "97.3  MHz",
        "service": "FM",
        "owner": "RADIO LICENSE HOLDING CBC, LLC",
        "city": "DES MOINES",
        "state": "IA"
      }
    },
    {
      "type": "Feature",
      "geometry": {
        "type": "Point",
        "coordinates": [
          -93.756611,
          41.662778
        ]
      },
      "properties": {
        "id": "12966",
        "call_sign": "KHKI",
        "frequency": "97.3  MHz",
        "service": "FS",
        "owner": "RADIO LICENSE HOLDING CBC, LLC",
        "city": "DES MOINES",
        "state": "IA"
      }
    },
    {
      "type": "Feature",
      "geometry": {
        "type": "Point",
        "coordinates": [
          -90.777917,
          42.458056
        ]
      },
      "properties": {
        "id": "26898",
        "call_sign": "KGRR",
        "frequency": "97.3  MHz",
        "service": "FM",
        "owner": "RADIO DUBUQUE, INC.",
        "city": "EPWORTH",
        "state": "IA"
      }
    },
    {
      "type": "Feature",
      "geometry": {
        "type": "Point",
        "coordinates": [
          -94.823056,
          43.429667
        ]
      },
      "properties": {
        "id": "82828",
        "call_sign": "K247CJ",
        "frequency": "97.3  MHz",
        "service": "FX",
        "owner": "BEAVER BROADCASTING, INC.",
        "city": "ESTHERVILLE",
        "state": "IA"
      }
    },
    {
      "type": "Feature",
      "geometry": {
        "type": "Point",
        "coordinates": [
          -91.439611,
          40.798083
        ]
      },
      "properties": {
        "id": "89613",
        "call_sign": "KHDK",
        "frequency": "97.3  MHz",
        "service": "FM",
        "owner": "PRITCHARD BROADCASTING CORPORATION",
        "city": "NEW LONDON",
        "state": "IA"
      }
    },
    {
      "type": "Feature",
      "geometry": {
        "type": "Point",
        "coordinates": [
          -95.169722,
          42.634694
        ]
      },
      "properties": {
        "id": "7758",
        "call_sign": "KBVU-FM",
        "frequency": "97.5  MHz",
        "service": "FM",
        "owner": "BUENA VISTA UNIVERSITY",
        "city": "ALTA",
        "state": "IA"
      }
    },
    {
      "type": "Feature",
      "geometry": {
        "type": "Point",
        "coordinates": [
          -91.640444,
          42.027778
        ]
      },
      "properties": {
        "id": "194910",
        "call_sign": "KACJ-LP",
        "frequency": "97.5  MHz",
        "service": "FL",
        "owner": "FRIENDSHIP BAPTIST CHURCH",
        "city": "CEDAR RAPIDS",
        "state": "IA"
      }
    },
    {
      "type": "Feature",
      "geometry": {
        "type": "Point",
        "coordinates": [
          -90.673472,
          41.500861
        ]
      },
      "properties": {
        "id": "147447",
        "call_sign": "K248CE",
        "frequency": "97.5  MHz",
        "service": "FX",
        "owner": "K-LOVE, INC.",
        "city": "DAVENPORT",
        "state": "IA"
      }
    },
    {
      "type": "Feature",
      "geometry": {
        "type": "Point",
        "coordinates": [
          -90.230417,
          41.84725
        ]
      },
      "properties": {
        "id": "143206",
        "call_sign": "K249DO",
        "frequency": "97.7  MHz",
        "service": "FX",
        "owner": "K-LOVE, INC.",
        "city": "CLINTON",
        "state": "IA"
      }
    },
    {
      "type": "Feature",
      "geometry": {
        "type": "Point",
        "coordinates": [
          -90.230417,
          41.84725
        ]
      },
      "properties": {
        "id": "143206",
        "call_sign": "K249DO",
        "frequency": "97.7  MHz",
        "service": "FX",
        "owner": "K-LOVE, INC.",
        "city": "CLINTON",
        "state": "IA"
      }
    },
    {
      "type": "Feature",
      "geometry": {
        "type": "Point",
        "coordinates": [
          -93.641611,
          41.583889
        ]
      },
      "properties": {
        "id": "69355",
        "call_sign": "K249EJ",
        "frequency": "97.7  MHz",
        "service": "FX",
        "owner": "IOWA PUBLIC RADIO, INC.",
        "city": "DES MOINES",
        "state": "IA"
      }
    },
    {
      "type": "Feature",
      "geometry": {
        "type": "Point",
        "coordinates": [
          -92.532139,
          42.390556
        ]
      },
      "properties": {
        "id": "25471",
        "call_sign": "KCRR",
        "frequency": "97.7  MHz",
        "service": "FM",
        "owner": "TOWNSQUARE LICENSE, LLC",
        "city": "GRUNDY CENTER",
        "state": "IA"
      }
    },
    {
      "type": "Feature",
      "geometry": {
        "type": "Point",
        "coordinates": [
          -94.206611,
          42.732444
        ]
      },
      "properties": {
        "id": "10902",
        "call_sign": "KHBT",
        "frequency": "97.7  MHz",
        "service": "FM",
        "owner": "OPEN ROADS MEDIA, L.L.C.",
        "city": "HUMBOLDT",
        "state": "IA"
      }
    },
    {
      "type": "Feature",
      "geometry": {
        "type": "Point",
        "coordinates": [
          -92.482417,
          41.024444
        ]
      },
      "properties": {
        "id": "21916",
        "call_sign": "KOTM-FM",
        "frequency": "97.7  MHz",
        "service": "FM",
        "owner": "O-TOWN COMMUNICATIONS, INC.",
        "city": "OTTUMWA",
        "state": "IA"
      }
    },
    {
      "type": "Feature",
      "geometry": {
        "type": "Point",
        "coordinates": [
          -94.963611,
          43.614944
        ]
      },
      "properties": {
        "id": "143883",
        "call_sign": "K249EO",
        "frequency": "97.7  MHz",
        "service": "FX",
        "owner": "COMMUNITY FIRST BROADCASTING, LLC",
        "city": "SPIRIT LAKE",
        "state": "IA"
      }
    },
    {
      "type": "Feature",
      "geometry": {
        "type": "Point",
        "coordinates": [
          -93.681611,
          42.038306
        ]
      },
      "properties": {
        "id": "152169",
        "call_sign": "K250BC",
        "frequency": "97.9  MHz",
        "service": "FX",
        "owner": "K-LOVE, INC.",
        "city": "AMES",
        "state": "IA"
      }
    },
    {
      "type": "Feature",
      "geometry": {
        "type": "Point",
        "coordinates": [
          -90.434694,
          41.603694
        ]
      },
      "properties": {
        "id": "143380",
        "call_sign": "K250BU",
        "frequency": "97.9  MHz",
        "service": "FX",
        "owner": "K-LOVE, INC.",
        "city": "BETTENDORF",
        "state": "IA"
      }
    },
    {
      "type": "Feature",
      "geometry": {
        "type": "Point",
        "coordinates": [
          -93.837722,
          40.814444
        ]
      },
      "properties": {
        "id": "81325",
        "call_sign": "KNSL",
        "frequency": "97.9  MHz",
        "service": "FM",
        "owner": "IOWA PUBLIC RADIO, INC.",
        "city": "LAMONI",
        "state": "IA"
      }
    },
    {
      "type": "Feature",
      "geometry": {
        "type": "Point",
        "coordinates": [
          -93.197417,
          43.121611
        ]
      },
      "properties": {
        "id": "67199",
        "call_sign": "KCMR",
        "frequency": "97.9  MHz",
        "service": "FM",
        "owner": "TLC BROADCASTING CORPORATION",
        "city": "MASON CITY",
        "state": "IA"
      }
    },
    {
      "type": "Feature",
      "geometry": {
        "type": "Point",
        "coordinates": [
          -96.258611,
          42.482194
        ]
      },
      "properties": {
        "id": "10777",
        "call_sign": "KSEZ",
        "frequency": "97.9  MHz",
        "service": "FM",
        "owner": "IHM LICENSES, LLC",
        "city": "SIOUX CITY",
        "state": "IA"
      }
    },
    {
      "type": "Feature",
      "geometry": {
        "type": "Point",
        "coordinates": [
          -96.403639,
          42.502167
        ]
      },
      "properties": {
        "id": "10777",
        "call_sign": "KSEZ",
        "frequency": "97.9  MHz",
        "service": "FS",
        "owner": "IHM LICENSES, LLC",
        "city": "SIOUX CITY",
        "state": "IA"
      }
    },
    {
      "type": "Feature",
      "geometry": {
        "type": "Point",
        "coordinates": [
          -91.614694,
          41.924417
        ]
      },
      "properties": {
        "id": "54163",
        "call_sign": "KHAK",
        "frequency": "98.1  MHz",
        "service": "FM",
        "owner": "TOWNSQUARE LICENSE, LLC",
        "city": "CEDAR RAPIDS",
        "state": "IA"
      }
    },
    {
      "type": "Feature",
      "geometry": {
        "type": "Point",
        "coordinates": [
          -91.615444,
          41.924444
        ]
      },
      "properties": {
        "id": "54163",
        "call_sign": "KHAK",
        "frequency": "98.1  MHz",
        "service": "FS",
        "owner": "TOWNSQUARE LICENSE, LLC",
        "city": "CEDAR RAPIDS",
        "state": "IA"
      }
    },
    {
      "type": "Feature",
      "geometry": {
        "type": "Point",
        "coordinates": [
          -93.731611,
          41.830833
        ]
      },
      "properties": {
        "id": "30116",
        "call_sign": "KWQW",
        "frequency": "98.3  MHz",
        "service": "FM",
        "owner": "RADIO LICENSE HOLDING CBC, LLC",
        "city": "BOONE",
        "state": "IA"
      }
    },
    {
      "type": "Feature",
      "geometry": {
        "type": "Point",
        "coordinates": [
          -93.731611,
          41.830833
        ]
      },
      "properties": {
        "id": "30116",
        "call_sign": "KWQW",
        "frequency": "98.3  MHz",
        "service": "FS",
        "owner": "RADIO LICENSE HOLDING CBC, LLC",
        "city": "BOONE",
        "state": "IA"
      }
    },
    {
      "type": "Feature",
      "geometry": {
        "type": "Point",
        "coordinates": [
          -91.140694,
          40.801667
        ]
      },
      "properties": {
        "id": "133404",
        "call_sign": "KCDM-LP",
        "frequency": "98.3  MHz",
        "service": "FL",
        "owner": "BURLINGTON DIVINE MERCY ASSOCIATION",
        "city": "BURLINGTON",
        "state": "IA"
      }
    },
    {
      "type": "Feature",
      "geometry": {
        "type": "Point",
        "coordinates": [
          -90.445833,
          41.474722
        ]
      },
      "properties": {
        "id": "153553",
        "call_sign": "W252EM",
        "frequency": "98.3  MHz",
        "service": "FX",
        "owner": "AUGUSTANA COLLEGE",
        "city": "DAVENPORT",
        "state": "IA"
      }
    },
    {
      "type": "Feature",
      "geometry": {
        "type": "Point",
        "coordinates": [
          -90.680972,
          42.499722
        ]
      },
      "properties": {
        "id": "192723",
        "call_sign": "KCRD-LP",
        "frequency": "98.3  MHz",
        "service": "FL",
        "owner": "AQUINAS COMMUNICATIONS, INC.",
        "city": "DUBUQUE",
        "state": "IA"
      }
    },
    {
      "type": "Feature",
      "geometry": {
        "type": "Point",
        "coordinates": [
          -91.34125,
          40.63725
        ]
      },
      "properties": {
        "id": "133439",
        "call_sign": "KDME-LP",
        "frequency": "98.3  MHz",
        "service": "FL",
        "owner": "DIVINE MERCY EDUCATIONAL RADIO ASSOCIATION",
        "city": "FORT MADISON",
        "state": "IA"
      }
    },
    {
      "type": "Feature",
      "geometry": {
        "type": "Point",
        "coordinates": [
          -95.656389,
          43.180528
        ]
      },
      "properties": {
        "id": "190429",
        "call_sign": "KXIM",
        "frequency": "98.3  MHz",
        "service": "FM",
        "owner": "PAUL HEEREN",
        "city": "SANBORN",
        "state": "IA"
      }
    },
    {
      "type": "Feature",
      "geometry": {
        "type": "Point",
        "coordinates": [
          -95.146389,
          43.165833
        ]
      },
      "properties": {
        "id": "152235",
        "call_sign": "K252EX",
        "frequency": "98.3  MHz",
        "service": "FX",
        "owner": "SAGA COMMUNICATIONS OF IOWA, LLC",
        "city": "SPENCER",
        "state": "IA"
      }
    },
    {
      "type": "Feature",
      "geometry": {
        "type": "Point",
        "coordinates": [
          -94.202472,
          43.068028
        ]
      },
      "properties": {
        "id": "147897",
        "call_sign": "K253BJ",
        "frequency": "98.5  MHz",
        "service": "FX",
        "owner": "A2Z BROADCASTING, LLC",
        "city": "ALGONA",
        "state": "IA"
      }
    },
    {
      "type": "Feature",
      "geometry": {
        "type": "Point",
        "coordinates": [
          -92.397417,
          42.441944
        ]
      },
      "properties": {
        "id": "66780",
        "call_sign": "KKHQ-FM",
        "frequency": "98.5  MHz",
        "service": "FM",
        "owner": "TOWNSQUARE LICENSE, LLC",
        "city": "CEDAR FALLS",
        "state": "IA"
      }
    },
    {
      "type": "Feature",
      "geometry": {
        "type": "Point",
        "coordinates": [
          -96.02725,
          41.306944
        ]
      },
      "properties": {
        "id": "43238",
        "call_sign": "KQKQ-FM",
        "frequency": "98.5  MHz",
        "service": "FM",
        "owner": "NRG LICENSE SUB, LLC",
        "city": "COUNCIL BLUFFS",
        "state": "IA"
      }
    },
    {
      "type": "Feature",
      "geometry": {
        "type": "Point",
        "coordinates": [
          -95.949722,
          41.259417
        ]
      },
      "properties": {
        "id": "43238",
        "call_sign": "KQKQ-FM",
        "frequency": "98.5  MHz",
        "service": "FS",
        "owner": "NRG LICENSE SUB, LLC",
        "city": "COUNCIL BLUFFS",
        "state": "IA"
      }
    },
    {
      "type": "Feature",
      "geometry": {
        "type": "Point",
        "coordinates": [
          -91.508778,
          41.683917
        ]
      },
      "properties": {
        "id": "152186",
        "call_sign": "K253BE",
        "frequency": "98.5  MHz",
        "service": "FX",
        "owner": "KZIA, INC.",
        "city": "IOWA CITY",
        "state": "IA"
      }
    },