{
  "type": "FeatureCollection",
  "features": [
    {
      "type": "Feature",
      "geometry": {
        "type": "Point",
        "coordinates": [
          -86.546944,
          36.960333
        ]
      },
      "properties": {
        "id": "93017",
        "call_sign": "WAYD",
        "frequency": "88.1  MHz",
        "service": "FM",
        "owner": "HOPE MEDIA GROUP",
        "city": "AUBURN",
        "state": "KY"
      }
    },
    {
      "type": "Feature",
      "geometry": {
        "type": "Point",
        "coordinates": [
          -88.359194,
          36.810028
        ]
      },
      "properties": {
        "id": "88122",
        "call_sign": "WTRT",
        "frequency": "88.1  MHz",
        "service": "FM",
        "owner": "PENNYRILE CHRISTIAN COMMUNITY, INC.",
        "city": "BENTON",
        "state": "KY"
      }
    },
    {
      "type": "Feature",
      "geometry": {
        "type": "Point",
        "coordinates": [
          -87.108306,
          37.291694
        ]
      },
      "properties": {
        "id": "147296",
        "call_sign": "W201DD",
        "frequency": "88.1  MHz",
        "service": "FX",
        "owner": "HOPE MEDIA GROUP",
        "city": "CENTRAL CITY",
        "state": "KY"
      }
    },
    {
      "type": "Feature",
      "geometry": {
        "type": "Point",
        "coordinates": [
          -84.838556,
          37.596167
        ]
      },
      "properties": {
        "id": "1199",
        "call_sign": "WDFB-FM",
        "frequency": "88.1  MHz",
        "service": "FM",
        "owner": "ALUM SPRINGS EDUCATIONAL CORPORATION",
        "city": "DANVILLE",
        "state": "KY"
      }
    },
    {
      "type": "Feature",
      "geometry": {
        "type": "Point",
        "coordinates": [
          -83.376944,
          36.801389
        ]
      },
      "properties": {
        "id": "762690",
        "call_sign": "WUIC",
        "frequency": "88.1  MHz",
        "service": "FM",
        "owner": "TORSTRICK MINISTRIES, INC.",
        "city": "HARLAN",
        "state": "KY"
      }
    },
    {
      "type": "Feature",
      "geometry": {
        "type": "Point",
        "coordinates": [
          -85.688056,
          37.481944
        ]
      },
      "properties": {
        "id": "767558",
        "call_sign": "WTRL",
        "frequency": "88.1  MHz",
        "service": "FM",
        "owner": "FREEDOM'S WAY ASSEMBLY OF GOD",
        "city": "HODGENVILLE",
        "state": "KY"
      }
    },
    {
      "type": "Feature",
      "geometry": {
        "type": "Point",
        "coordinates": [
          -84.504389,
          38.038694
        ]
      },
      "properties": {
        "id": "54586",
        "call_sign": "WRFL",
        "frequency": "88.1  MHz",
        "service": "FM",
        "owner": "BOARD OF TRUSTEES, UNIVERSITY OF KENTUCKY",
        "city": "LEXINGTON",
        "state": "KY"
      }
    },
    {
      "type": "Feature",
      "geometry": {
        "type": "Point",
        "coordinates": [
          -83.812917,
          38.687583
        ]
      },
      "properties": {
        "id": "763940",
        "call_sign": "WEKM-FM",
        "frequency": "88.1  MHz",
        "service": "FM",
        "owner": "EASTERN KENTUCKY UNIVERSITY",
        "city": "MAYSVILLE",
        "state": "KY"
      }
    },
    {
      "type": "Feature",
      "geometry": {
        "type": "Point",
        "coordinates": [
          -83.955472,
          38.060917
        ]
      },
      "properties": {
        "id": "82988",
        "call_sign": "WAXG",
        "frequency": "88.1  MHz",
        "service": "FM",
        "owner": "AMERICAN FAMILY ASSOCIATION",
        "city": "MOUNT STERLING",
        "state": "KY"
      }
    },
    {
      "type": "Feature",
      "geometry": {
        "type": "Point",
        "coordinates": [
          -84.810778,
          37.07675
        ]
      },
      "properties": {
        "id": "93774",
        "call_sign": "WKVY",
        "frequency": "88.1  MHz",
        "service": "FM",
        "owner": "K-LOVE, INC.",
        "city": "SOMERSET",
        "state": "KY"
      }
    },
    {
      "type": "Feature",
      "geometry": {
        "type": "Point",
        "coordinates": [
          -84.885222,
          38.212583
        ]
      },
      "properties": {
        "id": "82908",
        "call_sign": "W202AZ",
        "frequency": "88.3  MHz",
        "service": "FX",
        "owner": "BIBLE BROADCASTING NETWORK, INC.",
        "city": "FRANKFORT",
        "state": "KY"
      }
    },
    {
      "type": "Feature",
      "geometry": {
        "type": "Point",
        "coordinates": [
          -85.691639,
          36.818111
        ]
      },
      "properties": {
        "id": "91596",
        "call_sign": "WSGP",
        "frequency": "88.3  MHz",
        "service": "FM",
        "owner": "SOMERSET EDUCATIONAL BROADCASTING FOUNDATION",
        "city": "GLASGOW",
        "state": "KY"
      }
    },
    {
      "type": "Feature",
      "geometry": {
        "type": "Point",
        "coordinates": [
          -83.671583,
          37.613139
        ]
      },
      "properties": {
        "id": "90101",
        "call_sign": "WEBF",
        "frequency": "88.3  MHz",
        "service": "FM",
        "owner": "HOUR OF HARVEST, INC.",
        "city": "LEROSE",
        "state": "KY"
      }
    },
    {
      "type": "Feature",
      "geometry": {
        "type": "Point",
        "coordinates": [
          -86.546944,
          36.960333
        ]
      },
      "properties": {
        "id": "64266",
        "call_sign": "W203BI",
        "frequency": "88.5  MHz",
        "service": "FX",
        "owner": "FAMILY FIRST",
        "city": "BOWLING GREEN",
        "state": "KY"
      }
    },
    {
      "type": "Feature",
      "geometry": {
        "type": "Point",
        "coordinates": [
          -84.394667,
          37.020361
        ]
      },
      "properties": {
        "id": "92574",
        "call_sign": "WEKC",
        "frequency": "88.5  MHz",
        "service": "FM",
        "owner": "EASTERN KENTUCKY UNIVERSITY",
        "city": "CORBIN",
        "state": "KY"
      }
    },
    {
      "type": "Feature",
      "geometry": {
        "type": "Point",
        "coordinates": [
          -83.406583,
          38.177306
        ]
      },
      "properties": {
        "id": "91590",
        "call_sign": "WBMK",
        "frequency": "88.5  MHz",
        "service": "FM",
        "owner": "AMERICAN FAMILY ASSOCIATION",
        "city": "MOREHEAD",
        "state": "KY"
      }
    },
    {
      "type": "Feature",
      "geometry": {
        "type": "Point",
        "coordinates": [
          -85.754389,
          38.033111
        ]
      },
      "properties": {
        "id": "19880",
        "call_sign": "WJIE-FM",
        "frequency": "88.5  MHz",
        "service": "FM",
        "owner": "EVANGEL SCHOOLS, INC.",
        "city": "OKOLONA",
        "state": "KY"
      }
    },
    {
      "type": "Feature",
      "geometry": {
        "type": "Point",
        "coordinates": [
          -84.570833,
          38.620556
        ]
      },
      "properties": {
        "id": "768624",
        "call_sign": "WNUA",
        "frequency": "88.5  MHz",
        "service": "FM",
        "owner": "VANGUARD ASSOCIATION OF SUNBELT COLLEGES CORPORATION",
        "city": "WILLIAMSTOWN",
        "state": "KY"
      }
    },
    {
      "type": "Feature",
      "geometry": {
        "type": "Point",
        "coordinates": [
          -87.936667,
          36.808889
        ]
      },
      "properties": {
        "id": "765780",
        "call_sign": "WLHE",
        "frequency": "88.7  MHz",
        "service": "FM",
        "owner": "MADISONVILLE BAPTIST TEMPLE INC.",
        "city": "CADIZ",
        "state": "KY"
      }
    },
    {
      "type": "Feature",
      "geometry": {
        "type": "Point",
        "coordinates": [
          -85.359389,
          37.344222
        ]
      },
      "properties": {
        "id": "176645",
        "call_sign": "WLCU",
        "frequency": "88.7  MHz",
        "service": "FM",
        "owner": "CAMPBELLSVILLE UNIVERSITY",
        "city": "CAMPBELLSVILLE",
        "state": "KY"
      }
    },
    {
      "type": "Feature",
      "geometry": {
        "type": "Point",
        "coordinates": [
          -87.995861,
          37.735861
        ]
      },
      "properties": {
        "id": "122810",
        "call_sign": "WEUC",
        "frequency": "88.7  MHz",
        "service": "FM",
        "owner": "EUCHARIST RADIO, INC.",
        "city": "MORGANFIELD",
        "state": "KY"
      }
    },
    {
      "type": "Feature",
      "geometry": {
        "type": "Point",
        "coordinates": [
          -85.424389,
          38.456444
        ]
      },
      "properties": {
        "id": "106487",
        "call_sign": "W204CP",
        "frequency": "88.7  MHz",
        "service": "FX",
        "owner": "CSN INTERNATIONAL",
        "city": "WESTPORT",
        "state": "KY"
      }
    },
    {
      "type": "Feature",
      "geometry": {
        "type": "Point",
        "coordinates": [
          -85.424389,
          38.456444
        ]
      },
      "properties": {
        "id": "106487",
        "call_sign": "W204CP",
        "frequency": "88.7  MHz",
        "service": "FX",
        "owner": "CSN INTERNATIONAL",
        "city": "WESTPORT",
        "state": "KY"
      }
    },
    {
      "type": "Feature",
      "geometry": {
        "type": "Point",
        "coordinates": [
          -82.737361,
          37.110639
        ]
      },
      "properties": {
        "id": "2476",
        "call_sign": "WMMT",
        "frequency": "88.7  MHz",
        "service": "FM",
        "owner": "APPALSHOP, INCORPORATED",
        "city": "WHITESBURG",
        "state": "KY"
      }
    },
    {
      "type": "Feature",
      "geometry": {
        "type": "Point",
        "coordinates": [
          -86.634722,
          37.089778
        ]
      },
      "properties": {
        "id": "71856",
        "call_sign": "WKYU-FM",
        "frequency": "88.9  MHz",
        "service": "FM",
        "owner": "WESTERN KENTUCKY UNIVERSITY",
        "city": "BOWLING GREEN",
        "state": "KY"
      }
    },
    {
      "type": "Feature",
      "geometry": {
        "type": "Point",
        "coordinates": [
          -86.634722,
          37.089778
        ]
      },
      "properties": {
        "id": "71856",
        "call_sign": "WKYU-FM",
        "frequency": "88.9  MHz",
        "service": "FS",
        "owner": "WESTERN KENTUCKY UNIVERSITY",
        "city": "BOWLING GREEN",
        "state": "KY"
      }
    },
    {
      "type": "Feature",
      "geometry": {
        "type": "Point",
        "coordinates": [
          -84.325778,
          37.87925
        ]
      },
      "properties": {
        "id": "18307",
        "call_sign": "WEKU",
        "frequency": "88.9  MHz",
        "service": "FM",
        "owner": "EASTERN KENTUCKY UNIVERSITY",
        "city": "RICHMOND",
        "state": "KY"
      }
    },
    {
      "type": "Feature",
      "geometry": {
        "type": "Point",
        "coordinates": [
          -84.499083,
          38.047556
        ]
      },
      "properties": {
        "id": "18307",
        "call_sign": "WEKU",
        "frequency": "88.9  MHz",
        "service": "FS",
        "owner": "EASTERN KENTUCKY UNIVERSITY",
        "city": "RICHMOND",
        "state": "KY"
      }
    },
    {
      "type": "Feature",
      "geometry": {
        "type": "Point",
        "coordinates": [
          -84.6955,
          38.791722
        ]
      },
      "properties": {
        "id": "175299",
        "call_sign": "WKCX",
        "frequency": "89.1  MHz",
        "service": "FM",
        "owner": "SOMERSET EDUCATIONAL BROADCASTING FOUNDATION",
        "city": "CRITTENDEN",
        "state": "KY"
      }
    },
    {
      "type": "Feature",
      "geometry": {
        "type": "Point",
        "coordinates": [
          -87.515556,
          37.363111
        ]
      },
      "properties": {
        "id": "93979",
        "call_sign": "W206BB",
        "frequency": "89.1  MHz",
        "service": "FX",
        "owner": "PENNYRILE CHRISTIAN COMMUNITY, INC.",
        "city": "MADISONVILLE",
        "state": "KY"
      }
    },
    {
      "type": "Feature",
      "geometry": {
        "type": "Point",
        "coordinates": [
          -88.475611,
          36.645528
        ]
      },
      "properties": {
        "id": "765784",
        "call_sign": "WKYG",
        "frequency": "89.1  MHz",
        "service": "FM",
        "owner": "MADISONVILLE BAPTIST TEMPLE",
        "city": "MURRAY",
        "state": "KY"
      }
    },
    {
      "type": "Feature",
      "geometry": {
        "type": "Point",
        "coordinates": [
          -86.364722,
          37.045889
        ]
      },
      "properties": {
        "id": "140701",
        "call_sign": "W207CG",
        "frequency": "89.3  MHz",
        "service": "FX",
        "owner": "CSN INTERNATIONAL",
        "city": "BOWLING GREEN",
        "state": "KY"
      }
    },
    {
      "type": "Feature",
      "geometry": {
        "type": "Point",
        "coordinates": [
          -85.878583,
          36.951417
        ]
      },
      "properties": {
        "id": "172311",
        "call_sign": "WZVK",
        "frequency": "89.3  MHz",
        "service": "FM",
        "owner": "CHRISTIAN FAMILY MEDIA MINISTRIES, INC.",
        "city": "GLASGOW",
        "state": "KY"
      }
    },
    {
      "type": "Feature",
      "geometry": {
        "type": "Point",
        "coordinates": [
          -87.405556,
          36.809472
        ]
      },
      "properties": {
        "id": "52223",
        "call_sign": "WNKJ",
        "frequency": "89.3  MHz",
        "service": "FM",
        "owner": "PENNYRILE CHRISTIAN COMMUNITY, INC.",
        "city": "HOPKINSVILLE",
        "state": "KY"
      }
    },
    {
      "type": "Feature",
      "geometry": {
        "type": "Point",
        "coordinates": [
          -85.839972,
          38.365333
        ]
      },
      "properties": {
        "id": "4258",
        "call_sign": "WFPL",
        "frequency": "89.3  MHz",
        "service": "FM",
        "owner": "KENTUCKY PUBLIC RADIO, INC.",
        "city": "LOUISVILLE",
        "state": "KY"
      }
    },
    {
      "type": "Feature",
      "geometry": {
        "type": "Point",
        "coordinates": [
          -83.820472,
          37.075083
        ]
      },
      "properties": {
        "id": "92949",
        "call_sign": "KYAI",
        "frequency": "89.3  MHz",
        "service": "FM",
        "owner": "K-LOVE, INC.",
        "city": "MCKEE",
        "state": "KY"
      }
    },
    {
      "type": "Feature",
      "geometry": {
        "type": "Point",
        "coordinates": [
          -83.774639,
          38.187833
        ]
      },
      "properties": {
        "id": "161760",
        "call_sign": "WIMV",
        "frequency": "89.3  MHz",
        "service": "FM",
        "owner": "CORBAN BROADCASTING, INC.",
        "city": "OWINGSVILLE",
        "state": "KY"
      }
    },
    {
      "type": "Feature",
      "geometry": {
        "type": "Point",
        "coordinates": [
          -88.978111,
          37.191972
        ]
      },
      "properties": {
        "id": "10961",
        "call_sign": "WGCF",
        "frequency": "89.3  MHz",
        "service": "FM",
        "owner": "AMERICAN FAMILY ASSOCIATION",
        "city": "PADUCAH",
        "state": "KY"
      }
    },
    {
      "type": "Feature",
      "geometry": {
        "type": "Point",
        "coordinates": [
          -82.799861,
          37.793972
        ]
      },
      "properties": {
        "id": "2471",
        "call_sign": "W207AO",
        "frequency": "89.3  MHz",
        "service": "FX",
        "owner": "APPALSHOP, INCORPORATED",
        "city": "PAINTSVILLE-VAN LEAR",
        "state": "KY"
      }
    },
    {
      "type": "Feature",
      "geometry": {
        "type": "Point",
        "coordinates": [
          -82.519861,
          37.49175
        ]
      },
      "properties": {
        "id": "2479",
        "call_sign": "W207BV",
        "frequency": "89.3  MHz",
        "service": "FX",
        "owner": "APPALSHOP, INCORPORATED",
        "city": "PIKEVILLE",
        "state": "KY"
      }
    },
    {
      "type": "Feature",
      "geometry": {
        "type": "Point",
        "coordinates": [
          -88.837,
          36.5695
        ]
      },
      "properties": {
        "id": "174018",
        "call_sign": "WKMT",
        "frequency": "89.5  MHz",
        "service": "FM",
        "owner": "BOARD OF REGENTS, MURRAY STATE UNIVERSITY",
        "city": "FULTON",
        "state": "KY"
      }
    },
    {
      "type": "Feature",
      "geometry": {
        "type": "Point",
        "coordinates": [
          -87.328611,
          37.851694
        ]
      },
      "properties": {
        "id": "71864",
        "call_sign": "WKPB",
        "frequency": "89.5  MHz",
        "service": "FM",
        "owner": "WESTERN KENTUCKY UNIVERSITY",
        "city": "HENDERSON",
        "state": "KY"
      }
    },
    {
      "type": "Feature",
      "geometry": {
        "type": "Point",
        "coordinates": [
          -87.328611,
          37.851694
        ]
      },
      "properties": {
        "id": "71864",
        "call_sign": "WKPB",
        "frequency": "89.5  MHz",
        "service": "FM",
        "owner": "WESTERN KENTUCKY UNIVERSITY",
        "city": "HENDERSON",
        "state": "KY"
      }
    },
    {
      "type": "Feature",
      "geometry": {
        "type": "Point",
        "coordinates": [
          -87.328611,
          37.851694
        ]
      },
      "properties": {
        "id": "71864",
        "call_sign": "WKPB",
        "frequency": "89.5  MHz",
        "service": "FM",
        "owner": "WESTERN KENTUCKY UNIVERSITY",
        "city": "HENDERSON",
        "state": "KY"
      }
    },
    {
      "type": "Feature",
      "geometry": {
        "type": "Point",
        "coordinates": [
          -87.328611,
          37.852
        ]
      },
      "properties": {
        "id": "71864",
        "call_sign": "WKPB",
        "frequency": "89.5  MHz",
        "service": "FS",
        "owner": "WESTERN KENTUCKY UNIVERSITY",
        "city": "HENDERSON",
        "state": "KY"
      }
    },
    {
      "type": "Feature",
      "geometry": {
        "type": "Point",
        "coordinates": [
          -84.540833,
          38.057222
        ]
      },
      "properties": {
        "id": "780660",
        "call_sign": "NEW",
        "frequency": "89.5  MHz",
        "service": "FL",
        "owner": "RADIO GRACIA CELESTIAL, LLC",
        "city": "LEXINGTON",
        "state": "KY"
      }
    },
    {
      "type": "Feature",
      "geometry": {
        "type": "Point",
        "coordinates": [
          -82.306806,
          37.89425
        ]
      },
      "properties": {
        "id": "2473",
        "call_sign": "W208BG",
        "frequency": "89.5  MHz",
        "service": "FX",
        "owner": "APPALSHOP, INCORPORATED",
        "city": "PRESTONSBURG",
        "state": "KY"
      }
    },
    {
      "type": "Feature",
      "geometry": {
        "type": "Point",
        "coordinates": [
          -88.223917,
          36.808667
        ]
      },
      "properties": {
        "id": "78270",
        "call_sign": "WVHM",
        "frequency": "89.7  MHz",
        "service": "FM",
        "owner": "PENNYRILE CHRISTIAN COMMUNITY, INC.",
        "city": "BENTON",
        "state": "KY"
      }
    },
    {
      "type": "Feature",
      "geometry": {
        "type": "Point",
        "coordinates": [
          -84.46575,
          39.039222
        ]
      },
      "properties": {
        "id": "4280",
        "call_sign": "WYHH",
        "frequency": "89.7  MHz",
        "service": "FM",
        "owner": "BIBLE BROADCASTING NETWORK, INC.",
        "city": "HIGHLAND HEIGHTS",
        "state": "KY"
      }
    },
    {
      "type": "Feature",
      "geometry": {
        "type": "Point",
        "coordinates": [
          -85.739722,
          38.224722
        ]
      },
      "properties": {
        "id": "779401",
        "call_sign": "WMHG-LP",
        "frequency": "89.7  MHz",
        "service": "FL",
        "owner": "FUEGO CORPORATION",
        "city": "LOUSIVILLE",
        "state": "KY"
      }
    },
    {
      "type": "Feature",
      "geometry": {
        "type": "Point",
        "coordinates": [
          -82.8325,
          37.8175
        ]
      },
      "properties": {
        "id": "767245",
        "call_sign": "-",
        "frequency": "89.7  MHz",
        "service": "FM",
        "owner": "JOHNSON COUNTY BOARD OF EDUCATION",
        "city": "PAINTSVILLE",
        "state": "KY"
      }
    },
    {
      "type": "Feature",
      "geometry": {
        "type": "Point",
        "coordinates": [
          -85.163833,
          37.158111
        ]
      },
      "properties": {
        "id": "71857",
        "call_sign": "WDCL-FM",
        "frequency": "89.7  MHz",
        "service": "FM",
        "owner": "WESTERN KENTUCKY UNIVERSITY",
        "city": "SOMERSET",
        "state": "KY"
      }
    },
    {
      "type": "Feature",
      "geometry": {
        "type": "Point",
        "coordinates": [
          -84.547444,
          38.20425
        ]
      },
      "properties": {
        "id": "23901",
        "call_sign": "WKVO",
        "frequency": "89.9  MHz",
        "service": "FM",
        "owner": "K-LOVE, INC.",
        "city": "GEORGETOWN",
        "state": "KY"
      }
    },
    {
      "type": "Feature",
      "geometry": {
        "type": "Point",
        "coordinates": [
          -83.231444,
          37.283778
        ]
      },
      "properties": {
        "id": "768396",
        "call_sign": "WHCV",
        "frequency": "89.9  MHz",
        "service": "FM",
        "owner": "APPALACHIAN EDUCATIONAL COMMUNICATION CORPORATION",
        "city": "HAZARD",
        "state": "KY"
      }
    },
    {
      "type": "Feature",
      "geometry": {
        "type": "Point",
        "coordinates": [
          -87.478028,
          37.35725
        ]
      },
      "properties": {
        "id": "39596",
        "call_sign": "WSOF",
        "frequency": "89.9  MHz",
        "service": "FM",
        "owner": "MADISONVILLE BAPTIST TEMPLE INC.",
        "city": "MADISONVILLE",
        "state": "KY"
      }
    },
    {
      "type": "Feature",
      "geometry": {
        "type": "Point",
        "coordinates": [
          -87.478028,
          37.35725
        ]
      },
      "properties": {
        "id": "39596",
        "call_sign": "WSOF",
        "frequency": "89.9  MHz",
        "service": "FM",
        "owner": "MADISONVILLE BAPTIST TEMPLE INC.",
        "city": "MADISONVILLE",
        "state": "KY"
      }
    },
    {
      "type": "Feature",
      "geometry": {
        "type": "Point",
        "coordinates": [
          -88.6145,
          37.048944
        ]
      },
      "properties": {
        "id": "93703",
        "call_sign": "WKYP",
        "frequency": "90.1  MHz",
        "service": "FM",
        "owner": "K-LOVE, INC.",
        "city": "LEDBETTER",
        "state": "KY"
      }
    },
    {
      "type": "Feature",
      "geometry": {
        "type": "Point",
        "coordinates": [
          -82.543361,
          37.462444
        ]
      },
      "properties": {
        "id": "43693",
        "call_sign": "WJSO",
        "frequency": "90.1  MHz",
        "service": "FM",
        "owner": "THE MOODY BIBLE INSTITUTE OF CHICAGO",
        "city": "PIKEVILLE",
        "state": "KY"
      }
    },
    {
      "type": "Feature",
      "geometry": {
        "type": "Point",
        "coordinates": [
          -83.70825,
          36.753694
        ]
      },
      "properties": {
        "id": "173819",
        "call_sign": "WEKP",
        "frequency": "90.1  MHz",
        "service": "FM",
        "owner": "EASTERN KENTUCKY UNIVERSITY",
        "city": "PINEVILLE",
        "state": "KY"
      }
    },
    {
      "type": "Feature",
      "geometry": {
        "type": "Point",
        "coordinates": [
          -86.0305,
          37.432528
        ]
      },
      "properties": {
        "id": "21837",
        "call_sign": "WJCR-FM",
        "frequency": "90.1  MHz",
        "service": "FM",
        "owner": "FM 90.1, INC.",
        "city": "UPTON",
        "state": "KY"
      }
    },
    {
      "type": "Feature",
      "geometry": {
        "type": "Point",
        "coordinates": [
          -87.467778,
          37.380889
        ]
      },
      "properties": {
        "id": "140468",
        "call_sign": "W212BZ",
        "frequency": "90.3  MHz",
        "service": "FX",
        "owner": "HOPE MEDIA GROUP",
        "city": "BRENTWOOD",
        "state": "KY"
      }
    },
    {
      "type": "Feature",
      "geometry": {
        "type": "Point",
        "coordinates": [
          -83.404639,
          38.177306
        ]
      },
      "properties": {
        "id": "43765",
        "call_sign": "WMKY",
        "frequency": "90.3  MHz",
        "service": "FM",
        "owner": "MOREHEAD STATE UNIVERSITY DOING BUSINESS AS:",
        "city": "MOREHEAD",
        "state": "KY"
      }
    },
    {
      "type": "Feature",
      "geometry": {
        "type": "Point",
        "coordinates": [
          -83.407611,
          38.175861
        ]
      },
      "properties": {
        "id": "43765",
        "call_sign": "WMKY",
        "frequency": "90.3  MHz",
        "service": "FS",
        "owner": "MOREHEAD STATE UNIVERSITY DOING BUSINESS AS:",
        "city": "MOREHEAD",
        "state": "KY"
      }
    },
    {
      "type": "Feature",
      "geometry": {
        "type": "Point",
        "coordinates": [
          -83.404889,
          38.177278
        ]
      },
      "properties": {
        "id": "43765",
        "call_sign": "WMKY",
        "frequency": "90.3  MHz",
        "service": "FS",
        "owner": "MOREHEAD STATE UNIVERSITY DOING BUSINESS AS:",
        "city": "MOREHEAD",
        "state": "KY"
      }
    },
    {
      "type": "Feature",
      "geometry": {
        "type": "Point",
        "coordinates": [
          -87.124139,
          37.74225
        ]
      },
      "properties": {
        "id": "34259",
        "call_sign": "WKWC",
        "frequency": "90.3  MHz",
        "service": "FM",
        "owner": "KENTUCKY WESLEYAN COLLEGE",
        "city": "OWENSBORO",
        "state": "KY"
      }
    },
    {
      "type": "Feature",
      "geometry": {
        "type": "Point",
        "coordinates": [
          -88.223917,
          36.808667
        ]
      },
      "properties": {
        "id": "26646",
        "call_sign": "WAAJ",
        "frequency": "90.5  MHz",
        "service": "FM",
        "owner": "PENNYRILE CHRISTIAN COMMUNITY, INC.",
        "city": "BENTON",
        "state": "KY"
      }
    },
    {
      "type": "Feature",
      "geometry": {
        "type": "Point",
        "coordinates": [
          -84.482167,
          39.045056
        ]
      },
      "properties": {
        "id": "93954",
        "call_sign": "W213CB",
        "frequency": "90.5  MHz",
        "service": "FX",
        "owner": "CSN INTERNATIONAL, INC.",
        "city": "COVINGTON",
        "state": "KY"
      }
    },
    {
      "type": "Feature",
      "geometry": {
        "type": "Point",
        "coordinates": [
          -85.839972,
          38.365333
        ]
      },
      "properties": {
        "id": "69113",
        "call_sign": "WUOL-FM",
        "frequency": "90.5  MHz",
        "service": "FM",
        "owner": "KENTUCKY PUBLIC RADIO, INC.",
        "city": "LOUISVILLE",
        "state": "KY"
      }
    },
    {
      "type": "Feature",
      "geometry": {
        "type": "Point",
        "coordinates": [
          -84.554111,
          37.131194
        ]
      },
      "properties": {
        "id": "60782",
        "call_sign": "WTHL",
        "frequency": "90.5  MHz",
        "service": "FM",
        "owner": "SOMERSET EDUCATIONAL BROADCASTING FOUNDATION",
        "city": "SOMERSET",
        "state": "KY"
      }
    },
    {
      "type": "Feature",
      "geometry": {
        "type": "Point",
        "coordinates": [
          -82.998778,
          38.722861
        ]
      },
      "properties": {
        "id": "89379",
        "call_sign": "W213BP",
        "frequency": "90.5  MHz",
        "service": "FX",
        "owner": "CSN INTERNATIONAL",
        "city": "SOUTH PORTSMOUTH",
        "state": "KY"
      }
    },
    {
      "type": "Feature",
      "geometry": {
        "type": "Point",
        "coordinates": [
          -86.521917,
          37.005028
        ]
      },
      "properties": {
        "id": "6569",
        "call_sign": "WCVK",
        "frequency": "90.7  MHz",
        "service": "FM",
        "owner": "CHRISTIAN FAMILY MEDIA MINISTRIES, INC.",
        "city": "BOWLING GREEN",
        "state": "KY"
      }
    },
    {
      "type": "Feature",
      "geometry": {
        "type": "Point",
        "coordinates": [
          -86.521917,
          37.005028
        ]
      },
      "properties": {
        "id": "6569",
        "call_sign": "WCVK",
        "frequency": "90.7  MHz",
        "service": "FM",
        "owner": "CHRISTIAN FAMILY MEDIA MINISTRIES, INC.",
        "city": "BOWLING GREEN",
        "state": "KY"
      }
    },
    {
      "type": "Feature",
      "geometry": {
        "type": "Point",
        "coordinates": [
          -86.521944,
          37.005056
        ]
      },
      "properties": {
        "id": "6569",
        "call_sign": "WCVK",
        "frequency": "90.7  MHz",
        "service": "FS",
        "owner": "CHRISTIAN FAMILY MEDIA MINISTRIES, INC.",
        "city": "BOWLING GREEN",
        "state": "KY"
      }
    },
    {
      "type": "Feature",
      "geometry": {
        "type": "Point",
        "coordinates": [
          -84.128833,
          38.327833
        ]
      },
      "properties": {
        "id": "93789",
        "call_sign": "WPTJ",
        "frequency": "90.7  MHz",
        "service": "FM",
        "owner": "SOMERSET EDUCATIONAL BROADCASTING FOUNDATION",
        "city": "PARIS",
        "state": "KY"
      }
    },
    {
      "type": "Feature",
      "geometry": {
        "type": "Point",
        "coordinates": [
          -85.889417,
          37.745056
        ]
      },
      "properties": {
        "id": "71860",
        "call_sign": "WKUE",
        "frequency": "90.9  MHz",
        "service": "FM",
        "owner": "WESTERN KENTUCKY UNIVERSITY",
        "city": "ELIZABETHTOWN",
        "state": "KY"
      }
    },
    {
      "type": "Feature",
      "geometry": {
        "type": "Point",
        "coordinates": [
          -83.187944,
          37.193139
        ]
      },
      "properties": {
        "id": "18306",
        "call_sign": "WEKH",
        "frequency": "90.9  MHz",
        "service": "FM",
        "owner": "EASTERN KENTUCKY UNIVERSITY",
        "city": "HAZARD",
        "state": "KY"
      }
    },
    {
      "type": "Feature",
      "geometry": {
        "type": "Point",
        "coordinates": [
          -87.515556,
          37.363111
        ]
      },
      "properties": {
        "id": "81313",
        "call_sign": "WKMD",
        "frequency": "90.9  MHz",
        "service": "FM",
        "owner": "BOARD OF REGENTS, MURRAY STATE UNIVERSITY",
        "city": "MADISONVILLE",
        "state": "KY"
      }
    },
    {
      "type": "Feature",
      "geometry": {
        "type": "Point",
        "coordinates": [
          -82.401528,
          38.419806
        ]
      },
      "properties": {
        "id": "81315",
        "call_sign": "WKAO",
        "frequency": "91.1  MHz",
        "service": "FM",
        "owner": "POSITIVE ALTERNATIVE RADIO, INC.",
        "city": "ASHLAND",
        "state": "KY"
      }
    },
    {
      "type": "Feature",
      "geometry": {
        "type": "Point",
        "coordinates": [
          -85.848028,
          37.108111
        ]
      },
      "properties": {
        "id": "176881",
        "call_sign": "WBFK",
        "frequency": "91.1  MHz",
        "service": "FM",
        "owner": "BETHEL FELLOWSHIP, INC.",
        "city": "HISEVILLE",
        "state": "KY"
      }
    },
    {
      "type": "Feature",
      "geometry": {
        "type": "Point",
        "coordinates": [
          -84.325778,
          37.87925
        ]
      },
      "properties": {
        "id": "4303",
        "call_sign": "WUKY",
        "frequency": "91.3  MHz",
        "service": "FM",
        "owner": "BOARD OF TRUSTEES, UNIVERSITY OF KENTUCKY",
        "city": "LEXINGTON",
        "state": "KY"
      }
    },
    {
      "type": "Feature",
      "geometry": {
        "type": "Point",
        "coordinates": [
          -84.522722,
          38.104722
        ]
      },
      "properties": {
        "id": "4303",
        "call_sign": "WUKY",
        "frequency": "91.3  MHz",
        "service": "FS",
        "owner": "BOARD OF TRUSTEES, UNIVERSITY OF KENTUCKY",
        "city": "LEXINGTON",
        "state": "KY"
      }
    },
    {
      "type": "Feature",
      "geometry": {
        "type": "Point",
        "coordinates": [
          -88.096694,
          36.921444
        ]
      },
      "properties": {
        "id": "47080",
        "call_sign": "WKMS-FM",
        "frequency": "91.3  MHz",
        "service": "FM",
        "owner": "BOARD OF REGENTS, MURRAY STATE UNIVERSITY",
        "city": "MURRAY",
        "state": "KY"
      }
    },
    {
      "type": "Feature",
      "geometry": {
        "type": "Point",
        "coordinates": [
          -88.32225,
          36.613111
        ]
      },
      "properties": {
        "id": "47080",
        "call_sign": "WKMS-FM",
        "frequency": "91.3  MHz",
        "service": "FS",
        "owner": "BOARD OF REGENTS, MURRAY STATE UNIVERSITY",
        "city": "MURRAY",
        "state": "KY"
      }
    },
    {
      "type": "Feature",
      "geometry": {
        "type": "Point",
        "coordinates": [
          -88.096694,
          36.921444
        ]
      },
      "properties": {
        "id": "47080",
        "call_sign": "WKMS-FM",
        "frequency": "91.3  MHz",
        "service": "FS",
        "owner": "BOARD OF REGENTS, MURRAY STATE UNIVERSITY",
        "city": "MURRAY",
        "state": "KY"
      }
    },
    {
      "type": "Feature",
      "geometry": {
        "type": "Point",
        "coordinates": [
          -88.096694,
          36.921444
        ]
      },
      "properties": {
        "id": "47080",
        "call_sign": "WKMS-FM",
        "frequency": "91.3  MHz",
        "service": "FS",
        "owner": "BOARD OF REGENTS, MURRAY STATE UNIVERSITY",
        "city": "MURRAY",
        "state": "KY"
      }
    },
    {
      "type": "Feature",
      "geometry": {
        "type": "Point",
        "coordinates": [
          -88.096694,
          36.921444
        ]
      },
      "properties": {
        "id": "47080",
        "call_sign": "WKMS-FM",
        "frequency": "91.3  MHz",
        "service": "FS",
        "owner": "BOARD OF REGENTS, MURRAY STATE UNIVERSITY",
        "city": "MURRAY",
        "state": "KY"
      }
    },
    {
      "type": "Feature",
      "geometry": {
        "type": "Point",
        "coordinates": [
          -87.079722,
          37.762278
        ]
      },
      "properties": {
        "id": "140460",
        "call_sign": "W217BP",
        "frequency": "91.3  MHz",
        "service": "FX",
        "owner": "HOPE MEDIA GROUP",
        "city": "OWENSBORO",
        "state": "KY"
      }
    },
    {
      "type": "Feature",
      "geometry": {
        "type": "Point",
        "coordinates": [
          -86.002194,
          36.9595
        ]
      },
      "properties": {
        "id": "92761",
        "call_sign": "W218CM",
        "frequency": "91.5  MHz",
        "service": "FX",
        "owner": "CSN INTERNATIONAL",
        "city": "GLASGOW",
        "state": "KY"
      }
    },
    {
      "type": "Feature",
      "geometry": {
        "type": "Point",
        "coordinates": [
          -84.133556,
          36.983694
        ]
      },
      "properties": {
        "id": "70115",
        "call_sign": "WVCT",
        "frequency": "91.5  MHz",
        "service": "FM",
        "owner": "VICTORY TRAINING SCHOOL CORP.",
        "city": "KEAVY",
        "state": "KY"
      }
    },
    {
      "type": "Feature",
      "geometry": {
        "type": "Point",
        "coordinates": [
          -86.37025,
          37.601722
        ]
      },
      "properties": {
        "id": "4989",
        "call_sign": "WBFI",
        "frequency": "91.5  MHz",
        "service": "FM",
        "owner": "BETHEL FELLOWSHIP, INC.",
        "city": "MCDANIELS",
        "state": "KY"
      }
    },
    {
      "type": "Feature",
      "geometry": {
        "type": "Point",
        "coordinates": [
          -84.292222,
          37.573056
        ]
      },
      "properties": {
        "id": "787794",
        "call_sign": "NEW",
        "frequency": "91.7  MHz",
        "service": "FL",
        "owner": "BEREA COLLEGE SCIENCE AND HEALTH FOUNDATION, INC.",
        "city": "BEREA",
        "state": "KY"
      }
    },
    {
      "type": "Feature",
      "geometry": {
        "type": "Point",
        "coordinates": [
          -86.523056,
          37.005333
        ]
      },
      "properties": {
        "id": "71863",
        "call_sign": "WWHR",
        "frequency": "91.7  MHz",
        "service": "FM",
        "owner": "WESTERN KENTUCKY UNIVERSITY",
        "city": "BOWLING GREEN",
        "state": "KY"
      }
    },
    {
      "type": "Feature",
      "geometry": {
        "type": "Point",
        "coordinates": [
          -85.331361,
          37.333111
        ]
      },
      "properties": {
        "id": "1642",
        "call_sign": "WAPD",
        "frequency": "91.7  MHz",
        "service": "FM",
        "owner": "AMERICAN FAMILY ASSOCIATION",
        "city": "CAMPBELLSVILLE",
        "state": "KY"
      }
    },
    {
      "type": "Feature",
      "geometry": {
        "type": "Point",
        "coordinates": [
          -84.402722,
          38.039806
        ]
      },
      "properties": {
        "id": "144206",
        "call_sign": "W219DM",
        "frequency": "91.7  MHz",
        "service": "FX",
        "owner": "RADIO BY GRACE, INC.",
        "city": "LEXINGTON",
        "state": "KY"
      }
    },
    {
      "type": "Feature",
      "geometry": {
        "type": "Point",
        "coordinates": [
          -87.490778,
          37.388194
        ]
      },
      "properties": {
        "id": "92339",
        "call_sign": "WNLJ",
        "frequency": "91.7  MHz",
        "service": "FM",
        "owner": "PENNYRILE CHRISTIAN COMMUNITY, INC.",
        "city": "MADISONVILLE",
        "state": "KY"
      }
    },
    {
      "type": "Feature",
      "geometry": {
        "type": "Point",
        "coordinates": [
          -83.407667,
          38.175889
        ]
      },
      "properties": {
        "id": "143879",
        "call_sign": "W219DI",
        "frequency": "91.7  MHz",
        "service": "FX",
        "owner": "FAMILY FIRST",
        "city": "MOREHEAD",
        "state": "KY"
      }
    },
    {
      "type": "Feature",
      "geometry": {
        "type": "Point",
        "coordinates": [
          -83.204389,
          38.284306
        ]
      },
      "properties": {
        "id": "765473",
        "call_sign": "WYNX",
        "frequency": "91.7  MHz",
        "service": "FM",
        "owner": "BELIEVERS IN JESUS CHRIST, INC.",
        "city": "OLIVE HILL",
        "state": "KY"
      }
    },
    {
      "type": "Feature",
      "geometry": {
        "type": "Point",
        "coordinates": [
          -87.116083,
          37.746694
        ]
      },
      "properties": {
        "id": "81648",
        "call_sign": "WJVK",
        "frequency": "91.7  MHz",
        "service": "FM",
        "owner": "CHRISTIAN FAMILY MEDIA MINISTRIES, INC.",
        "city": "OWENSBORO",
        "state": "KY"
      }
    },
    {
      "type": "Feature",
      "geometry": {
        "type": "Point",
        "coordinates": [
          -88.840528,
          37.061556
        ]
      },
      "properties": {
        "id": "175623",
        "call_sign": "WNFC",
        "frequency": "91.7  MHz",
        "service": "FM",
        "owner": "SOMERSET EDUCATIONAL BROADCASTING FOUNDATION",
        "city": "PADUCAH",
        "state": "KY"
      }
    },
    {
      "type": "Feature",
      "geometry": {
        "type": "Point",
        "coordinates": [
          -82.874861,
          37.32925
        ]
      },
      "properties": {
        "id": "56225",
        "call_sign": "WWJD",
        "frequency": "91.7  MHz",
        "service": "FM",
        "owner": "ALICE LLOYD COLLEGE",
        "city": "PIPPA PASSES",
        "state": "KY"
      }
    },
    {
      "type": "Feature",
      "geometry": {
        "type": "Point",
        "coordinates": [
          -85.839972,
          38.365333
        ]
      },
      "properties": {
        "id": "38621",
        "call_sign": "WFPK",
        "frequency": "91.9  MHz",
        "service": "FM",
        "owner": "KENTUCKY PUBLIC RADIO, INC.",
        "city": "LOUISVILLE",
        "state": "KY"
      }
    },
    {
      "type": "Feature",
      "geometry": {
        "type": "Point",
        "coordinates": [
          -86.446167,
          37.00125
        ]
      },
      "properties": {
        "id": "192729",
        "call_sign": "WSGJ-LP",
        "frequency": "92.1  MHz",
        "service": "FL",
        "owner": "COLUMBUS CLUB, INC.",
        "city": "BOWLING GREEN",
        "state": "KY"
      }
    },
    {
      "type": "Feature",
      "geometry": {
        "type": "Point",
        "coordinates": [
          -84.370222,
          38.188694
        ]
      },
      "properties": {
        "id": "30191",
        "call_sign": "WBVX",
        "frequency": "92.1  MHz",
        "service": "FM",
        "owner": "L.M. COMMUNICATIONS, INC.",
        "city": "CARLISLE",
        "state": "KY"
      }
    },
    {
      "type": "Feature",
      "geometry": {
        "type": "Point",
        "coordinates": [
          -84.506056,
          39.030333
        ]
      },
      "properties": {
        "id": "135044",
        "call_sign": "WNKU-LP",
        "frequency": "92.1  MHz",
        "service": "FL",
        "owner": "RGS COMMUNICATIONS, INC.",
        "city": "COVINGTON",
        "state": "KY"
      }
    },
    {
      "type": "Feature",
      "geometry": {
        "type": "Point",
        "coordinates": [
          -87.111667,
          36.813333
        ]
      },
      "properties": {
        "id": "141101",
        "call_sign": "W221EU",
        "frequency": "92.1  MHz",
        "service": "FX",
        "owner": "HAM BROADCASTING COMPANY, INC.",
        "city": "ELKTON",
        "state": "KY"
      }
    },
    {
      "type": "Feature",
      "geometry": {
        "type": "Point",
        "coordinates": [
          -88.001111,
          37.180861
        ]
      },
      "properties": {
        "id": "164226",
        "call_sign": "WKYF",
        "frequency": "92.1  MHz",
        "service": "FM",
        "owner": "K-LOVE, INC.",
        "city": "FREDONIA",
        "state": "KY"
      }
    },
    {
      "type": "Feature",
      "geometry": {
        "type": "Point",
        "coordinates": [
          -86.721944,
          37.925889
        ]
      },
      "properties": {
        "id": "202058",
        "call_sign": "W221EG",
        "frequency": "92.1  MHz",
        "service": "FX",
        "owner": "HANCOCK COMMUNICATIONS, INC.",
        "city": "HAWESVILLE",
        "state": "KY"
      }
    },
    {
      "type": "Feature",
      "geometry": {
        "type": "Point",
        "coordinates": [
          -88.32225,
          36.613111
        ]
      },
      "properties": {
        "id": "141597",
        "call_sign": "W221AA",
        "frequency": "92.1  MHz",
        "service": "FX",
        "owner": "PENNYRILE CHRISTIAN COMMUNITY",
        "city": "MURRAY",
        "state": "KY"
      }
    },
    {
      "type": "Feature",
      "geometry": {
        "type": "Point",
        "coordinates": [
          -87.123889,
          37.738333
        ]
      },
      "properties": {
        "id": "788378",
        "call_sign": "WKOG-LP",
        "frequency": "92.1  MHz",
        "service": "FL",
        "owner": "ONE FAITH FELLOWSHIP",
        "city": "OWENSBORO",
        "state": "KY"
      }
    },
    {
      "type": "Feature",
      "geometry": {
        "type": "Point",
        "coordinates": [
          -85.681389,
          36.724167
        ]
      },
      "properties": {
        "id": "72293",
        "call_sign": "WTKY-FM",
        "frequency": "92.1  MHz",
        "service": "FM",
        "owner": "FRANK KEETON AIRCASTERS, INC.",
        "city": "TOMPKINSVILLE",
        "state": "KY"
      }
    },
    {
      "type": "Feature",
      "geometry": {
        "type": "Point",
        "coordinates": [
          -85.658833,
          36.818667
        ]
      },
      "properties": {
        "id": "72293",
        "call_sign": "WTKY-FM",
        "frequency": "92.1  MHz",
        "service": "FM",
        "owner": "FRANK KEETON AIRCASTERS, INC.",
        "city": "TOMPKINSVILLE",
        "state": "KY"
      }
    },
    {
      "type": "Feature",
      "geometry": {
        "type": "Point",
        "coordinates": [
          -85.681389,
          36.724167
        ]
      },
      "properties": {
        "id": "72293",
        "call_sign": "WTKY-FM",
        "frequency": "92.1  MHz",
        "service": "FM",
        "owner": "FRANK KEETON AIRCASTERS, INC.",
        "city": "TOMPKINSVILLE",
        "state": "KY"
      }
    },
    {
      "type": "Feature",
      "geometry": {
        "type": "Point",
        "coordinates": [
          -86.576389,
          36.739167
        ]
      },
      "properties": {
        "id": "156061",
        "call_sign": "W222CZ",
        "frequency": "92.3  MHz",
        "service": "FX",
        "owner": "NEWBERRY BROADCASTING, INC.",
        "city": "FRANKLIN",
        "state": "KY"
      }
    },
    {
      "type": "Feature",
      "geometry": {
        "type": "Point",
        "coordinates": [
          -83.992139,
          37.150361
        ]
      },
      "properties": {
        "id": "19794",
        "call_sign": "WYGE",
        "frequency": "92.3  MHz",
        "service": "FM",
        "owner": "ETHEL HUFF BROADCASTING, LLC",
        "city": "LONDON",
        "state": "KY"
      }
    },
    {
      "type": "Feature",
      "geometry": {
        "type": "Point",
        "coordinates": [
          -82.627389,
          38.175917
        ]
      },
      "properties": {
        "id": "38568",
        "call_sign": "WHKQ",
        "frequency": "92.3  MHz",
        "service": "FM",
        "owner": "MAIN STREET INDUSTRIES, LLC",
        "city": "LOUISA",
        "state": "KY"
      }
    },
    {
      "type": "Feature",
      "geometry": {
        "type": "Point",
        "coordinates": [
          -85.785083,
          38.082028
        ]
      },
      "properties": {
        "id": "144748",
        "call_sign": "W222CD",
        "frequency": "92.3  MHz",
        "service": "FX",
        "owner": "PURE RADIO LLC",
        "city": "LOUISVILLE",
        "state": "KY"
      }
    },
    {
      "type": "Feature",
      "geometry": {
        "type": "Point",
        "coordinates": [
          -84.499083,
          38.047556
        ]
      },
      "properties": {
        "id": "148567",
        "call_sign": "W223CV",
        "frequency": "92.5  MHz",
        "service": "FX",
        "owner": "L.M. COMMUNICATIONS, INC.",
        "city": "LEXINGTON",
        "state": "KY"
      }
    },
    {
      "type": "Feature",
      "geometry": {
        "type": "Point",
        "coordinates": [
          -85.625833,
          38.481944
        ]
      },
      "properties": {
        "id": "203138",
        "call_sign": "W223DK",
        "frequency": "92.5  MHz",
        "service": "FX",
        "owner": "NEW ALBANY BROADCASTING CO., INC.",
        "city": "LOUISVILLE",
        "state": "KY"
      }
    },
    {
      "type": "Feature",
      "geometry": {
        "type": "Point",
        "coordinates": [
          -83.476944,
          38.210833
        ]
      },
      "properties": {
        "id": "788663",
        "call_sign": "WYJO-LP",
        "frequency": "92.5  MHz",
        "service": "FL",
        "owner": "HARVEST MENNONITE FELLOWSHIP CHURCH",
        "city": "MOREHEAD",
        "state": "KY"
      }
    },
    {
      "type": "Feature",
      "geometry": {
        "type": "Point",
        "coordinates": [
          -87.054167,
          37.608111
        ]
      },
      "properties": {
        "id": "67778",
        "call_sign": "WBKR",
        "frequency": "92.5  MHz",
        "service": "FM",
        "owner": "TOWNSQUARE MEDIA OF EVANSVILLE/OWENSBORO, INC.",
        "city": "OWENSBORO",
        "state": "KY"
      }
    },
    {
      "type": "Feature",
      "geometry": {
        "type": "Point",
        "coordinates": [
          -87.116083,
          37.741417
        ]
      },
      "properties": {
        "id": "67778",
        "call_sign": "WBKR",
        "frequency": "92.5  MHz",
        "service": "FS",
        "owner": "TOWNSQUARE MEDIA OF EVANSVILLE/OWENSBORO, INC.",
        "city": "OWENSBORO",
        "state": "KY"
      }
    },
    {
      "type": "Feature",
      "geometry": {
        "type": "Point",
        "coordinates": [
          -88.672278,
          37.0945
        ]
      },
      "properties": {
        "id": "81527",
        "call_sign": "W223BO",
        "frequency": "92.5  MHz",
        "service": "FX",
        "owner": "BOARD OF REGENTS, MURRAY STATE UNIVERSITY",
        "city": "PADUCAH",
        "state": "KY"
      }
    },
    {
      "type": "Feature",
      "geometry": {
        "type": "Point",
        "coordinates": [
          -84.149917,
          37.660083
        ]
      },
      "properties": {
        "id": "155988",
        "call_sign": "W223CU",
        "frequency": "92.5  MHz",
        "service": "FX",
        "owner": "KENTUCKY RIVER BROADCASTING CO., INC",
        "city": "RICHMOND",
        "state": "KY"
      }
    },
    {
      "type": "Feature",
      "geometry": {
        "type": "Point",
        "coordinates": [
          -83.227944,
          37.940083
        ]
      },
      "properties": {
        "id": "194595",
        "call_sign": "WEIM-LP",
        "frequency": "92.5  MHz",
        "service": "FL",
        "owner": "EAGLE EYE, INC.",
        "city": "WEST LIBERTY",
        "state": "KY"
      }
    },
    {
      "type": "Feature",
      "geometry": {
        "type": "Point",
        "coordinates": [
          -88.376333,
          36.821361
        ]
      },
      "properties": {
        "id": "191651",
        "call_sign": "WDMZ-LP",
        "frequency": "92.7  MHz",
        "service": "FL",
        "owner": "FALCON COMMUNICATIONS CORP.",
        "city": "BENTON",
        "state": "KY"
      }
    },
    {
      "type": "Feature",
      "geometry": {
        "type": "Point",
        "coordinates": [
          -82.596833,
          38.467583
        ]
      },
      "properties": {
        "id": "21589",
        "call_sign": "WCMI-FM",
        "frequency": "92.7  MHz",
        "service": "FM",
        "owner": "KINDRED COMMUNICATIONS, INC.",
        "city": "CATLETTSBURG",
        "state": "KY"
      }
    },
    {
      "type": "Feature",
      "geometry": {
        "type": "Point",
        "coordinates": [
          -82.662361,
          38.387278
        ]
      },
      "properties": {
        "id": "21589",
        "call_sign": "WCMI-FM",
        "frequency": "92.7  MHz",
        "service": "FS",
        "owner": "KINDRED COMMUNICATIONS, INC.",
        "city": "CATLETTSBURG",
        "state": "KY"
      }
    },
    {
      "type": "Feature",
      "geometry": {
        "type": "Point",
        "coordinates": [
          -83.130167,
          37.171194
        ]
      },
      "properties": {
        "id": "141971",
        "call_sign": "W224CV",
        "frequency": "92.7  MHz",
        "service": "FX",
        "owner": "PHILIP H. HAYES",
        "city": "HAZARD",
        "state": "KY"
      }
    },
    {
      "type": "Feature",
      "geometry": {
        "type": "Point",
        "coordinates": [
          -85.769139,
          38.197861
        ]
      },
      "properties": {
        "id": "788330",
        "call_sign": "WLSC-LP",
        "frequency": "92.7  MHz",
        "service": "FL",
        "owner": "WAVEBLAZE, INC.",
        "city": "LOUISVILLE",
        "state": "KY"
      }
    },
    {
      "type": "Feature",
      "geometry": {
        "type": "Point",
        "coordinates": [
          -83.794917,
          36.59425
        ]
      },
      "properties": {
        "id": "14731",
        "call_sign": "WMIK-FM",
        "frequency": "92.7  MHz",
        "service": "FM",
        "owner": "GATEWAY BROADCASTING, INC.",
        "city": "MIDDLESBORO",
        "state": "KY"
      }
    },
    {
      "type": "Feature",
      "geometry": {
        "type": "Point",
        "coordinates": [
          -85.174389,
          37.077833
        ]
      },
      "properties": {
        "id": "26639",
        "call_sign": "WHVE",
        "frequency": "92.7  MHz",
        "service": "FM",
        "owner": "SHORELINE COMMUNICATIONS, INC",
        "city": "RUSSELL SPRINGS",
        "state": "KY"
      }
    },
    {
      "type": "Feature",
      "geometry": {
        "type": "Point",
        "coordinates": [
          -85.889139,
          37.745056
        ]
      },
      "properties": {
        "id": "157649",
        "call_sign": "W225BS",
        "frequency": "92.9  MHz",
        "service": "FX",
        "owner": "SKYTOWER COMMUNICATIONS E'TOWN, INC.",
        "city": "ELIZABETHTOWN",
        "state": "KY"
      }
    },
    {
      "type": "Feature",
      "geometry": {
        "type": "Point",
        "coordinates": [
          -84.402972,
          38.0395
        ]
      },
      "properties": {
        "id": "27417",
        "call_sign": "WVLK-FM",
        "frequency": "92.9  MHz",
        "service": "FM",
        "owner": "CUMULUS LICENSING LLC",
        "city": "LEXINGTON",
        "state": "KY"
      }
    },
    {
      "type": "Feature",
      "geometry": {
        "type": "Point",
        "coordinates": [
          -84.402778,
          38.039722
        ]
      },
      "properties": {
        "id": "27417",
        "call_sign": "WVLK-FM",
        "frequency": "92.9  MHz",
        "service": "FS",
        "owner": "CUMULUS LICENSING LLC",
        "city": "LEXINGTON",
        "state": "KY"
      }
    },
    {
      "type": "Feature",
      "geometry": {
        "type": "Point",
        "coordinates": [
          -87.158889,
          37.775056
        ]
      },
      "properties": {
        "id": "147373",
        "call_sign": "W225CL",
        "frequency": "92.9  MHz",
        "service": "FX",
        "owner": "HANCOCK COMMUNICATIONS, INC.",
        "city": "OWENSBORO",
        "state": "KY"
      }
    },
    {
      "type": "Feature",
      "geometry": {
        "type": "Point",
        "coordinates": [
          -87.515556,
          37.363139
        ]
      },
      "properties": {
        "id": "149023",
        "call_sign": "W286AM",
        "frequency": "93.1  MHz",
        "service": "FX",
        "owner": "BOARD OF REGENTS, MURRAY STATE UNIVERSITY",
        "city": "MADISONVILLE",
        "state": "KY"
      }
    },
    {
      "type": "Feature",
      "geometry": {
        "type": "Point",
        "coordinates": [
          -84.846056,
          36.808139
        ]
      },
      "properties": {
        "id": "43654",
        "call_sign": "WMKZ",
        "frequency": "93.1  MHz",
        "service": "FM",
        "owner": "WHISKEY SOURS BROADCASTING AND PRODUCTIONS, LLC",
        "city": "MONTICELLO",
        "state": "KY"
      }
    },
    {
      "type": "Feature",
      "geometry": {
        "type": "Point",
        "coordinates": [
          -82.550972,
          37.465944
        ]
      },
      "properties": {
        "id": "18224",
        "call_sign": "WDHR",
        "frequency": "93.1  MHz",
        "service": "FM",
        "owner": "MOUNTAIN TOP MEDIA LLC",
        "city": "PIKEVILLE",
        "state": "KY"
      }
    },
    {
      "type": "Feature",
      "geometry": {
        "type": "Point",
        "coordinates": [
          -83.899639,
          36.866472
        ]
      },
      "properties": {
        "id": "158017",
        "call_sign": "W227CD",
        "frequency": "93.3  MHz",
        "service": "FX",
        "owner": "CHOICE RADIO CORPORATION",
        "city": "BARBOURVILLE",
        "state": "KY"
      }
    },
    {
      "type": "Feature",
      "geometry": {
        "type": "Point",
        "coordinates": [
          -85.451583,
          37.811167
        ]
      },
      "properties": {
        "id": "788324",
        "call_sign": "WXBG-LP",
        "frequency": "93.3  MHz",
        "service": "FL",
        "owner": "SIGNAL SOCIETY INC",
        "city": "BARDSTOWN",
        "state": "KY"
      }
    },
    {
      "type": "Feature",
      "geometry": {
        "type": "Point",
        "coordinates": [
          -86.253028,
          36.944194
        ]
      },
      "properties": {
        "id": "15258",
        "call_sign": "WDNS",
        "frequency": "93.3  MHz",
        "service": "FM",
        "owner": "DAILY NEWS BROADCASTING COMPANY",
        "city": "BOWLING GREEN",
        "state": "KY"
      }
    },
    {
      "type": "Feature",
      "geometry": {
        "type": "Point",
        "coordinates": [
          -82.596833,
          38.467583
        ]
      },
      "properties": {
        "id": "141051",
        "call_sign": "W227CI",
        "frequency": "93.3  MHz",
        "service": "FX",
        "owner": "KINDRED COMMUNICATIONS, INC.",
        "city": "CATLETTSBURG",
        "state": "KY"
      }
    },
    {
      "type": "Feature",
      "geometry": {
        "type": "Point",
        "coordinates": [
          -84.486889,
          38.065639
        ]
      },
      "properties": {
        "id": "145363",
        "call_sign": "W227CW",
        "frequency": "93.3  MHz",
        "service": "FX",
        "owner": "CHRISTIAN BROADCASTING SYSTEM, LTD.",
        "city": "LEXINGTON-FAYETTE",
        "state": "KY"
      }
    },
    {
      "type": "Feature",
      "geometry": {
        "type": "Point",
        "coordinates": [
          -83.407667,
          38.175889
        ]
      },
      "properties": {
        "id": "145364",
        "call_sign": "W227AX",
        "frequency": "93.3  MHz",
        "service": "FX",
        "owner": "K-LOVE, INC.",
        "city": "MOREHEAD",
        "state": "KY"
      }
    },
    {
      "type": "Feature",
      "geometry": {
        "type": "Point",
        "coordinates": [
          -84.32875,
          37.350472
        ]
      },
      "properties": {
        "id": "192353",
        "call_sign": "WOPW-LP",
        "frequency": "93.3  MHz",
        "service": "FL",
        "owner": "CENTRAL BAPTIST CHURCH",
        "city": "MOUNT VERNON",
        "state": "KY"
      }
    },
    {
      "type": "Feature",
      "geometry": {
        "type": "Point",
        "coordinates": [
          -88.6145,
          37.048944
        ]
      },
      "properties": {
        "id": "6877",
        "call_sign": "WKYQ",
        "frequency": "93.3  MHz",
        "service": "FM",
        "owner": "BRISTOL BROADCASTING COMPANY, INC.",
        "city": "PADUCAH",
        "state": "KY"
      }
    },
    {
      "type": "Feature",
      "geometry": {
        "type": "Point",
        "coordinates": [
          -85.201611,
          38.208667
        ]
      },
      "properties": {
        "id": "135254",
        "call_sign": "WXLN-LP",
        "frequency": "93.3  MHz",
        "service": "FL",
        "owner": "BULLOCK'S CHRISTIAN BROADCASTING CORPORATION",
        "city": "SHELBYVILLE",
        "state": "KY"
      }
    },
    {
      "type": "Feature",
      "geometry": {
        "type": "Point",
        "coordinates": [
          -86.184417,
          37.985917
        ]
      },
      "properties": {
        "id": "40928",
        "call_sign": "WMMG-FM",
        "frequency": "93.5  MHz",
        "service": "FM",
        "owner": "MEADE COUNTY COMMUNICATIONS, INC.",
        "city": "BRANDENBURG",
        "state": "KY"
      }
    },
    {
      "type": "Feature",
      "geometry": {
        "type": "Point",
        "coordinates": [
          -85.278306,
          37.107278
        ]
      },
      "properties": {
        "id": "67714",
        "call_sign": "WAIN-FM",
        "frequency": "93.5  MHz",
        "service": "FM",
        "owner": "TRI-COUNTY RADIO BROADCASTING CORP.",
        "city": "COLUMBIA",
        "state": "KY"
      }
    },
    {
      "type": "Feature",
      "geometry": {
        "type": "Point",
        "coordinates": [
          -84.750694,
          37.631667
        ]
      },
      "properties": {
        "id": "193814",
        "call_sign": "WDPJ-LP",
        "frequency": "93.5  MHz",
        "service": "FL",
        "owner": "IGLESIA ROSA DE SARON",
        "city": "DANVILLE",
        "state": "KY"
      }
    },
    {
      "type": "Feature",
      "geometry": {
        "type": "Point",
        "coordinates": [
          -84.914944,
          38.22175
        ]
      },
      "properties": {
        "id": "145358",
        "call_sign": "W228CL",
        "frequency": "93.5  MHz",
        "service": "FX",
        "owner": "SOUTHERN BELLE, LLC",
        "city": "FRANKFORT",
        "state": "KY"
      }
    },
    {
      "type": "Feature",
      "geometry": {
        "type": "Point",
        "coordinates": [
          -87.511944,
          36.870889
        ]
      },
      "properties": {
        "id": "135680",
        "call_sign": "WSPP-LP",
        "frequency": "93.5  MHz",
        "service": "FL",
        "owner": "IMMACULATE HEART RADIO ASSOCIATION",
        "city": "HOPKINSVILLE",
        "state": "KY"
      }
    },
    {
      "type": "Feature",
      "geometry": {
        "type": "Point",
        "coordinates": [
          -85.713806,
          38.265972
        ]
      },
      "properties": {
        "id": "203047",
        "call_sign": "W228EO",
        "frequency": "93.5  MHz",
        "service": "FX",
        "owner": "WORD BROADCASTING NETWORK, INC.",
        "city": "LOUISVILLE",
        "state": "KY"
      }
    },
    {
      "type": "Feature",
      "geometry": {
        "type": "Point",
        "coordinates": [
          -87.573,
          37.414639
        ]
      },
      "properties": {
        "id": "200108",
        "call_sign": "W228DV",
        "frequency": "93.5  MHz",
        "service": "FX",
        "owner": "MADISONVILLE CBC, INC.",
        "city": "MADISONVILLE",
        "state": "KY"
      }
    },
    {
      "type": "Feature",
      "geometry": {
        "type": "Point",
        "coordinates": [
          -82.662389,
          38.387306
        ]
      },
      "properties": {
        "id": "21436",
        "call_sign": "WDGG",
        "frequency": "93.7  MHz",
        "service": "FM",
        "owner": "KINDRED COMMUNICATIONS, INC.",
        "city": "ASHLAND",
        "state": "KY"
      }
    },
    {
      "type": "Feature",
      "geometry": {
        "type": "Point",
        "coordinates": [
          -85.736083,
          37.554778
        ]
      },
      "properties": {
        "id": "200106",
        "call_sign": "W229DB",
        "frequency": "93.7  MHz",
        "service": "FX",
        "owner": "LINCOLN RADIO, LLC",
        "city": "BUFFALO",
        "state": "KY"
      }
    },
    {
      "type": "Feature",
      "geometry": {
        "type": "Point",
        "coordinates": [
          -84.553806,
          38.207556
        ]
      },
      "properties": {
        "id": "134608",
        "call_sign": "WRVG-LP",
        "frequency": "93.7  MHz",
        "service": "FL",
        "owner": "GEORGETOWN COLLEGE",
        "city": "GEORGETOWN",
        "state": "KY"
      }
    },
    {
      "type": "Feature",
      "geometry": {
        "type": "Point",
        "coordinates": [
          -84.206111,
          37.750556
        ]
      },
      "properties": {
        "id": "157721",
        "call_sign": "W229CP",
        "frequency": "93.7  MHz",
        "service": "FX",
        "owner": "THE KENTUCKY MOUNTAIN HOLINESS ASSOCIATION",
        "city": "RICHMOND",
        "state": "KY"
      }
    },
    {
      "type": "Feature",
      "geometry": {
        "type": "Point",
        "coordinates": [
          -84.459639,
          37.154222
        ]
      },
      "properties": {
        "id": "37027",
        "call_sign": "WSEK-FM",
        "frequency": "93.9  MHz",
        "service": "FM",
        "owner": "IHM LICENSES, LLC",
        "city": "BURNSIDE",
        "state": "KY"
      }
    },
    {
      "type": "Feature",
      "geometry": {
        "type": "Point",
        "coordinates": [
          -84.486944,
          38.065556
        ]
      },
      "properties": {
        "id": "194135",
        "call_sign": "WLXU-LP",
        "frequency": "93.9  MHz",
        "service": "FL",
        "owner": "LEXINGTON COMMUNITY RADIO, INC.",
        "city": "LEXINGTON",
        "state": "KY"
      }
    },
    {
      "type": "Feature",
      "geometry": {
        "type": "Point",
        "coordinates": [
          -87.403056,
          37.523944
        ]
      },
      "properties": {
        "id": "60877",
        "call_sign": "WKTG",
        "frequency": "93.9  MHz",
        "service": "FM",
        "owner": "HAM BROADCASTING COMPANY, INC.",
        "city": "MADISONVILLE",
        "state": "KY"
      }
    },
    {
      "type": "Feature",
      "geometry": {
        "type": "Point",
        "coordinates": [
          -87.495833,
          37.358667
        ]
      },
      "properties": {
        "id": "60877",
        "call_sign": "WKTG",
        "frequency": "93.9  MHz",
        "service": "FS",
        "owner": "HAM BROADCASTING COMPANY, INC.",
        "city": "MADISONVILLE",
        "state": "KY"
      }
    },
    {
      "type": "Feature",
      "geometry": {
        "type": "Point",
        "coordinates": [
          -88.660333,
          36.755333
        ]
      },
      "properties": {
        "id": "145366",
        "call_sign": "W230BN",
        "frequency": "93.9  MHz",
        "service": "FX",
        "owner": "J.D.M. COMMUNICATIONS, INC.",
        "city": "MAYFIELD",
        "state": "KY"
      }
    },
    {
      "type": "Feature",
      "geometry": {
        "type": "Point",
        "coordinates": [
          -84.144167,
          37.995556
        ]
      },
      "properties": {
        "id": "784040",
        "call_sign": "WDAG-LP",
        "frequency": "93.9  MHz",
        "service": "FL",
        "owner": "NEW LIFE ASSEMBLY OF GOD OF WINCHESTER, KENTUCKY, INC.",
        "city": "WINCHESTER",
        "state": "KY"
      }
    },
    {
      "type": "Feature",
      "geometry": {
        "type": "Point",
        "coordinates": [
          -85.872194,
          36.983944
        ]
      },
      "properties": {
        "id": "57897",
        "call_sign": "WLYE-FM",
        "frequency": "94.1  MHz",
        "service": "FM",
        "owner": "NEWBERRY BROADCASTING, INC.",
        "city": "GLASGOW",
        "state": "KY"
      }
    },
    {
      "type": "Feature",
      "geometry": {
        "type": "Point",
        "coordinates": [
          -83.40575,
          37.672028
        ]
      },
      "properties": {
        "id": "203240",
        "call_sign": "W231DX",
        "frequency": "94.1  MHz",
        "service": "FX",
        "owner": "INTERMOUNTAIN BROADCASTING CO., INC.",
        "city": "JACKSON",
        "state": "KY"
      }
    },
    {
      "type": "Feature",
      "geometry": {
        "type": "Point",
        "coordinates": [
          -84.556944,
          37.905
        ]
      },
      "properties": {
        "id": "155931",
        "call_sign": "W231DM",
        "frequency": "94.1  MHz",
        "service": "FX",
        "owner": "DAVID GREENLEE",
        "city": "LANCASTER",
        "state": "KY"
      }
    },
    {
      "type": "Feature",
      "geometry": {
        "type": "Point",
        "coordinates": [
          -84.556944,
          37.905
        ]
      },
      "properties": {
        "id": "155931",
        "call_sign": "W231DM",
        "frequency": "94.1  MHz",
        "service": "FX",
        "owner": "DAVID GREENLEE",
        "city": "LANCASTER",
        "state": "KY"
      }
    },
    {
      "type": "Feature",
      "geometry": {
        "type": "Point",
        "coordinates": [
          -84.556944,
          37.905
        ]
      },
      "properties": {
        "id": "155931",
        "call_sign": "W231DM",
        "frequency": "94.1  MHz",
        "service": "FX",
        "owner": "DAVID GREENLEE",
        "city": "LANCASTER",
        "state": "KY"
      }
    },
    {
      "type": "Feature",
      "geometry": {
        "type": "Point",
        "coordinates": [
          -84.556944,
          37.905
        ]
      },
      "properties": {
        "id": "155931",
        "call_sign": "W231DM",
        "frequency": "94.1  MHz",
        "service": "FX",
        "owner": "DAVID GREENLEE",
        "city": "LANCASTER",
        "state": "KY"
      }
    },
    {
      "type": "Feature",
      "geometry": {
        "type": "Point",
        "coordinates": [
          -84.556944,
          37.905
        ]
      },
      "properties": {
        "id": "155931",
        "call_sign": "W231DM",
        "frequency": "94.1  MHz",
        "service": "FX",
        "owner": "DAVID GREENLEE",
        "city": "LANCASTER",
        "state": "KY"
      }
    },
    {
      "type": "Feature",
      "geometry": {
        "type": "Point",
        "coordinates": [
          -86.26775,
          37.871722
        ]
      },
      "properties": {
        "id": "25799",
        "call_sign": "WULF",
        "frequency": "94.3  MHz",
        "service": "FM",
        "owner": "SKYTOWER COMMUNICATIONS - 94.3, LLC",
        "city": "HARDINSBURG",
        "state": "KY"
      }
    },
    {
      "type": "Feature",
      "geometry": {
        "type": "Point",
        "coordinates": [
          -82.620167,
          37.1665
        ]
      },
      "properties": {
        "id": "37155",
        "call_sign": "WIFX-FM",
        "frequency": "94.3  MHz",
        "service": "FM",
        "owner": "AJSPD, LLC",
        "city": "JENKINS",
        "state": "KY"
      }
    },
    {
      "type": "Feature",
      "geometry": {
        "type": "Point",
        "coordinates": [
          -87.433611,
          36.641167
        ]
      },
      "properties": {
        "id": "14915",
        "call_sign": "WRND",
        "frequency": "94.3  MHz",
        "service": "FM",
        "owner": "SAGA COMMUNICATIONS OF TUCKESSEE, LLC",
        "city": "OAK GROVE",
        "state": "KY"
      }
    },
    {
      "type": "Feature",
      "geometry": {
        "type": "Point",
        "coordinates": [
          -84.627972,
          37.128111
        ]
      },
      "properties": {
        "id": "195839",
        "call_sign": "WIJS-LP",
        "frequency": "94.3  MHz",
        "service": "FL",
        "owner": "OUTREACH FOR JESUS",
        "city": "SOMERSET",
        "state": "KY"
      }
    },
    {
      "type": "Feature",
      "geometry": {
        "type": "Point",
        "coordinates": [
          -86.4525,
          37.009444
        ]
      },
      "properties": {
        "id": "145215",
        "call_sign": "W233CZ",
        "frequency": "94.5  MHz",
        "service": "FX",
        "owner": "SOUTHERN BELLE MEDIA FAMILY, LLC",
        "city": "BOWLING GREEN",
        "state": "KY"
      }
    },
    {
      "type": "Feature",
      "geometry": {
        "type": "Point",
        "coordinates": [
          -84.443556,
          38.123417
        ]
      },
      "properties": {
        "id": "68208",
        "call_sign": "WMXL",
        "frequency": "94.5  MHz",
        "service": "FM",
        "owner": "IHM LICENSES, LLC",
        "city": "LEXINGTON",
        "state": "KY"
      }
    },
    {
      "type": "Feature",
      "geometry": {
        "type": "Point",
        "coordinates": [
          -88.016472,
          37.737333
        ]
      },
      "properties": {
        "id": "184596",
        "call_sign": "WBFW",
        "frequency": "94.5  MHz",
        "service": "FM",
        "owner": "MUSIC MINISTRIES, INC.",
        "city": "SMITH MILLS",
        "state": "KY"
      }
    },
    {
      "type": "Feature",
      "geometry": {
        "type": "Point",
        "coordinates": [
          -88.660222,
          36.755333
        ]
      },
      "properties": {
        "id": "71613",
        "call_sign": "WZYK",
        "frequency": "94.7  MHz",
        "service": "FM",
        "owner": "BRISTOL BROADCASTING COMPANY, INC.",
        "city": "CLINTON",
        "state": "KY"
      }
    },
    {
      "type": "Feature",
      "geometry": {
        "type": "Point",
        "coordinates": [
          -82.800694,
          37.795083
        ]
      },
      "properties": {
        "id": "3432",
        "call_sign": "WKLW-FM",
        "frequency": "94.7  MHz",
        "service": "FM",
        "owner": "S.I.P. BROADCASTING COMPANY, INC.",
        "city": "PAINTSVILLE",
        "state": "KY"
      }
    },
    {
      "type": "Feature",
      "geometry": {
        "type": "Point",
        "coordinates": [
          -86.991111,
          37.697278
        ]
      },
      "properties": {
        "id": "65577",
        "call_sign": "WBIO",
        "frequency": "94.7  MHz",
        "service": "FM",
        "owner": "HANCOCK COMMUNICATIONS, INC.",
        "city": "PHILPOT",
        "state": "KY"
      }
    },
    {
      "type": "Feature",
      "geometry": {
        "type": "Point",
        "coordinates": [
          -85.468056,
          37.883611
        ]
      },
      "properties": {
        "id": "783815",
        "call_sign": "WDRL-LP",
        "frequency": "94.9  MHz",
        "service": "FL",
        "owner": "JOURNEY CHURCH OF BRANDENBURG, INC.",
        "city": "BARDSTOWN",
        "state": "KY"
      }
    },
    {
      "type": "Feature",
      "geometry": {
        "type": "Point",
        "coordinates": [
          -85.444111,
          38.1795
        ]
      },
      "properties": {
        "id": "201488",
        "call_sign": "W235CZ",
        "frequency": "94.9  MHz",
        "service": "FX",
        "owner": "LCR PARTNERS, LTD",
        "city": "FISHERVILLE",
        "state": "KY"
      }
    },
    {
      "type": "Feature",
      "geometry": {
        "type": "Point",
        "coordinates": [
          -87.536389,
          36.846694
        ]
      },
      "properties": {
        "id": "135616",
        "call_sign": "WPJI-LP",
        "frequency": "94.9  MHz",
        "service": "FL",
        "owner": "PILGRIMS JOURNEY, INC.",
        "city": "HOPKINSVILLE",
        "state": "KY"
      }
    },
    {
      "type": "Feature",
      "geometry": {
        "type": "Point",
        "coordinates": [
          -85.289111,
          37.551444
        ]
      },
      "properties": {
        "id": "202245",
        "call_sign": "W235DB",
        "frequency": "94.9  MHz",
        "service": "FX",
        "owner": "BARDSTOWN RADIO TEAM, LLC",
        "city": "LEBANON",
        "state": "KY"
      }
    },
    {
      "type": "Feature",
      "geometry": {
        "type": "Point",
        "coordinates": [
          -84.486889,
          38.065639
        ]
      },
      "properties": {
        "id": "150275",
        "call_sign": "W235AK",
        "frequency": "94.9  MHz",
        "service": "FX",
        "owner": "RELEVANT RADIO, INC.",
        "city": "LEXINGTON",
        "state": "KY"
      }
    },
    {
      "type": "Feature",
      "geometry": {
        "type": "Point",
        "coordinates": [
          -87.495833,
          37.358667
        ]
      },
      "properties": {
        "id": "26647",
        "call_sign": "W235AC",
        "frequency": "94.9  MHz",
        "service": "FX",
        "owner": "HAM BROADCASTING COMPANY, INC.",
        "city": "MADISONVILLE",
        "state": "KY"
      }
    },
    {
      "type": "Feature",
      "geometry": {
        "type": "Point",
        "coordinates": [
          -86.189167,
          36.912
        ]
      },
      "properties": {
        "id": "27007",
        "call_sign": "WGGC",
        "frequency": "95.1  MHz",
        "service": "FM",
        "owner": "HERITAGE COMMUNICATIONS, INC.",
        "city": "BOWLING GREEN",
        "state": "KY"
      }
    },
    {
      "type": "Feature",
      "geometry": {
        "type": "Point",
        "coordinates": [
          -83.577972,
          38.41175
        ]
      },
      "properties": {
        "id": "21719",
        "call_sign": "WFLE-FM",
        "frequency": "95.1  MHz",
        "service": "FM",
        "owner": "DREAMCATCHER COMMUNICATIONS, INC.",
        "city": "FLEMINGSBURG",
        "state": "KY"
      }
    },
    {
      "type": "Feature",
      "geometry": {
        "type": "Point",
        "coordinates": [
          -84.114444,
          37.153056
        ]
      },
      "properties": {
        "id": "781828",
        "call_sign": "WKAG-LP",
        "frequency": "95.1  MHz",
        "service": "FL",
        "owner": "FAITH ASSEMBLY OF GOD CHURCH, INC.",
        "city": "LONDON",
        "state": "KY"
      }
    },
    {
      "type": "Feature",
      "geometry": {
        "type": "Point",
        "coordinates": [
          -85.847778,
          38.356389
        ]
      },
      "properties": {
        "id": "140963",
        "call_sign": "W236AN",
        "frequency": "95.1  MHz",
        "service": "FX",
        "owner": "K-LOVE, INC.",
        "city": "LOUISVILLE",
        "state": "KY"
      }
    },
    {
      "type": "Feature",
      "geometry": {
        "type": "Point",
        "coordinates": [
          -85.847778,
          38.356389
        ]
      },
      "properties": {
        "id": "140963",
        "call_sign": "W236AN",
        "frequency": "95.1  MHz",
        "service": "FX",
        "owner": "K-LOVE, INC.",
        "city": "LOUISVILLE",
        "state": "KY"
      }
    },
    {
      "type": "Feature",
      "geometry": {
        "type": "Point",
        "coordinates": [
          -83.752139,
          37.149806
        ]
      },
      "properties": {
        "id": "191697",
        "call_sign": "WWZB-LP",
        "frequency": "95.1  MHz",
        "service": "FL",
        "owner": "WOLFE COMMUNICATIONS",
        "city": "MANCHESTER",
        "state": "KY"
      }
    },
    {
      "type": "Feature",
      "geometry": {
        "type": "Point",
        "coordinates": [
          -82.519861,
          37.492056
        ]
      },
      "properties": {
        "id": "141596",
        "call_sign": "W236AY",
        "frequency": "95.1  MHz",
        "service": "FX",
        "owner": "EASTERN KENTUCKY UNIVERSITY",
        "city": "PIKEVILLE",
        "state": "KY"
      }
    },
    {
      "type": "Feature",
      "geometry": {
        "type": "Point",
        "coordinates": [
          -85.691389,
          38.013611
        ]
      },
      "properties": {
        "id": "196989",
        "call_sign": "WIOP-LP",
        "frequency": "95.1  MHz",
        "service": "FL",
        "owner": "LIGHTHOUSE BAPTIST CHURCH",
        "city": "SHEPHERDSVILLE",
        "state": "KY"
      }
    },
    {
      "type": "Feature",
      "geometry": {
        "type": "Point",
        "coordinates": [
          -82.737361,
          37.110639
        ]
      },
      "properties": {
        "id": "142215",
        "call_sign": "W236CS",
        "frequency": "95.1  MHz",
        "service": "FX",
        "owner": "T.C.W. BROADCASTING, INC.",
        "city": "WHITESBURG",
        "state": "KY"
      }
    },
    {
      "type": "Feature",
      "geometry": {
        "type": "Point",
        "coordinates": [
          -84.173528,
          36.744528
        ]
      },
      "properties": {
        "id": "134917",
        "call_sign": "WNLW-LP",
        "frequency": "95.1  MHz",
        "service": "FL",
        "owner": "NEW LIFE RADIO, INC",
        "city": "WILLIAMSBURG",
        "state": "KY"
      }
    },
    {
      "type": "Feature",
      "geometry": {
        "type": "Point",
        "coordinates": [
          -86.184361,
          37.985806
        ]
      },
      "properties": {
        "id": "192730",
        "call_sign": "WLHN-LP",
        "frequency": "95.3  MHz",
        "service": "FL",
        "owner": "MEADE COUNTY CATHOLIC RADIO, INC.",
        "city": "BRANDENBURG",
        "state": "KY"
      }
    },
    {
      "type": "Feature",
      "geometry": {
        "type": "Point",
        "coordinates": [
          -85.280778,
          38.666167
        ]
      },
      "properties": {
        "id": "72388",
        "call_sign": "WIKI",
        "frequency": "95.3  MHz",
        "service": "FM",
        "owner": "WAGON WHEEL BROADCASTING, LLC",
        "city": "CARROLLTON",
        "state": "KY"
      }
    },
    {
      "type": "Feature",
      "geometry": {
        "type": "Point",
        "coordinates": [
          -84.094361,
          36.93175
        ]
      },
      "properties": {
        "id": "133957",
        "call_sign": "WRHR-LP",
        "frequency": "95.3  MHz",
        "service": "FL",
        "owner": "CORBIN PUBLIC SCHOOLS",
        "city": "CORBIN",
        "state": "KY"
      }
    },
    {
      "type": "Feature",
      "geometry": {
        "type": "Point",
        "coordinates": [
          -87.623917,
          37.777278
        ]
      },
      "properties": {
        "id": "68810",
        "call_sign": "WKVN",
        "frequency": "95.3  MHz",
        "service": "FM",
        "owner": "K-LOVE, INC.",
        "city": "CORYDON",
        "state": "KY"
      }
    },
    {
      "type": "Feature",
      "geometry": {
        "type": "Point",
        "coordinates": [
          -87.547222,
          36.928083
        ]
      },
      "properties": {
        "id": "145325",
        "call_sign": "W237BV",
        "frequency": "95.3  MHz",
        "service": "FX",
        "owner": "H.O.P. BROADCASTING, INC.",
        "city": "HOPKINSVILLE",
        "state": "KY"
      }
    },
    {
      "type": "Feature",
      "geometry": {
        "type": "Point",
        "coordinates": [
          -84.545,
          37.960278
        ]
      },
      "properties": {
        "id": "69991",
        "call_sign": "WVRB",
        "frequency": "95.3  MHz",
        "service": "FM",
        "owner": "K-LOVE, INC.",
        "city": "WILMORE",
        "state": "KY"
      }
    },
    {
      "type": "Feature",
      "geometry": {
        "type": "Point",
        "coordinates": [
          -84.635694,
          39.00725
        ]
      },
      "properties": {
        "id": "135059",
        "call_sign": "WCXE-LP",
        "frequency": "95.5  MHz",
        "service": "FL",
        "owner": "SGM, INC.",
        "city": "ERLANGER",
        "state": "KY"
      }
    },
    {
      "type": "Feature",
      "geometry": {
        "type": "Point",
        "coordinates": [
          -84.453111,
          37.538194
        ]
      },
      "properties": {
        "id": "155751",
        "call_sign": "W238CN",
        "frequency": "95.5  MHz",
        "service": "FX",
        "owner": "DAVID GREENLEE",
        "city": "LANCASTER",
        "state": "KY"
      }
    },
    {
      "type": "Feature",
      "geometry": {
        "type": "Point",
        "coordinates": [
          -88.647222,
          36.766111
        ]
      },
      "properties": {
        "id": "145533",
        "call_sign": "W238AN",
        "frequency": "95.5  MHz",
        "service": "FX",
        "owner": "BRISTOL BROADCASTING COMPANY, INC.",
        "city": "MAYFIELD",
        "state": "KY"
      }
    },
    {
      "type": "Feature",
      "geometry": {
        "type": "Point",
        "coordinates": [
          -83.749056,
          36.608944
        ]
      },
      "properties": {
        "id": "192103",
        "call_sign": "WYJR-LP",
        "frequency": "95.5  MHz",
        "service": "FL",
        "owner": "MIDDLESBORO BOARD OF EDUCATION",
        "city": "MIDDLESBORO",
        "state": "KY"
      }
    },
    {
      "type": "Feature",
      "geometry": {
        "type": "Point",
        "coordinates": [
          -82.756528,
          37.695917
        ]
      },
      "properties": {
        "id": "71347",
        "call_sign": "WQHY",
        "frequency": "95.5  MHz",
        "service": "FM",
        "owner": "WDOC, INC.",
        "city": "PRESTONSBURG",
        "state": "KY"
      }
    },
    {
      "type": "Feature",
      "geometry": {
        "type": "Point",
        "coordinates": [
          -86.871361,
          37.681139
        ]
      },
      "properties": {
        "id": "192733",
        "call_sign": "WJOR-LP",
        "frequency": "95.5  MHz",
        "service": "FL",
        "owner": "PASSIONIST NUNS OF WHITESVILLE, KY., INC.",
        "city": "WHITESVILLE",
        "state": "KY"
      }
    },
    {
      "type": "Feature",
      "geometry": {
        "type": "Point",
        "coordinates": [
          -88.359472,
          37.113111
        ]
      },
      "properties": {
        "id": "63436",
        "call_sign": "WCCK",
        "frequency": "95.7  MHz",
        "service": "FM",
        "owner": "FREELAND BROADCASTING CO., INC.",
        "city": "CALVERT CITY",
        "state": "KY"
      }
    },
    {
      "type": "Feature",
      "geometry": {
        "type": "Point",
        "coordinates": [
          -86.002194,
          36.9595
        ]
      },
      "properties": {
        "id": "143295",
        "call_sign": "W239BT",
        "frequency": "95.7  MHz",
        "service": "FX",
        "owner": "NEWBERRY BROADCASTING, INC.",
        "city": "GLASGOW",
        "state": "KY"
      }
    },
    {
      "type": "Feature",
      "geometry": {
        "type": "Point",
        "coordinates": [
          -84.536639,
          38.066472
        ]
      },
      "properties": {
        "id": "194665",
        "call_sign": "WLXL-LP",
        "frequency": "95.7  MHz",
        "service": "FL",
        "owner": "LEXINGTON COMMUNITY RADIO, INC.",
        "city": "LEXINGTON",
        "state": "KY"
      }
    },
    {
      "type": "Feature",
      "geometry": {
        "type": "Point",
        "coordinates": [
          -84.846944,
          36.81
        ]
      },
      "properties": {
        "id": "200339",
        "call_sign": "W239CP",
        "frequency": "95.7  MHz",
        "service": "FX",
        "owner": "STEPHEN W. STAPLES, JR",
        "city": "MONTICELLO",
        "state": "KY"
      }
    },
    {
      "type": "Feature",
      "geometry": {
        "type": "Point",
        "coordinates": [
          -83.861806,
          37.908167
        ]
      },
      "properties": {
        "id": "200234",
        "call_sign": "W239DC",
        "frequency": "95.7  MHz",
        "service": "FX",
        "owner": "THE KENTUCKY MOUNTAIN HOLINESS ASSOCIATION",
        "city": "STANTON",
        "state": "KY"
      }
    },
    {
      "type": "Feature",
      "geometry": {
        "type": "Point",
        "coordinates": [
          -86.546944,
          36.960333
        ]
      },
      "properties": {
        "id": "139196",
        "call_sign": "W240CP",
        "frequency": "95.9  MHz",
        "service": "FX",
        "owner": "SOUTHERN BELLE BOWLING GREEN LLC",
        "city": "BOWLING GREEN",
        "state": "KY"
      }
    },
    {
      "type": "Feature",
      "geometry": {
        "type": "Point",
        "coordinates": [
          -83.779639,
          38.643111
        ]
      },
      "properties": {
        "id": "62216",
        "call_sign": "WFTM-FM",
        "frequency": "95.9  MHz",
        "service": "FM",
        "owner": "STANDARD TOBACCO COMPANY, INC.",
        "city": "MAYSVILLE",
        "state": "KY"
      }
    },
    {
      "type": "Feature",
      "geometry": {
        "type": "Point",
        "coordinates": [
          -82.550972,
          37.465944
        ]
      },
      "properties": {
        "id": "140614",
        "call_sign": "W240CL",
        "frequency": "95.9  MHz",
        "service": "FX",
        "owner": "MOUNTAIN TOP MEDIA LLC",
        "city": "PIKEVILLE",
        "state": "KY"
      }
    },
    {
      "type": "Feature",
      "geometry": {
        "type": "Point",
        "coordinates": [
          -84.310306,
          37.724556
        ]
      },
      "properties": {
        "id": "196114",
        "call_sign": "WKRI-LP",
        "frequency": "95.9  MHz",
        "service": "FL",
        "owner": "RICHMONDRADIO,INC",
        "city": "RICHMOND",
        "state": "KY"
      }
    },
    {
      "type": "Feature",
      "geometry": {
        "type": "Point",
        "coordinates": [
          -85.080222,
          37.094222
        ]
      },
      "properties": {
        "id": "200262",
        "call_sign": "W240DV",
        "frequency": "95.9  MHz",
        "service": "FX",
        "owner": "HAMMOND BROADCASTING, INC.",
        "city": "RUSSELL SPRINGS",
        "state": "KY"
      }
    },
    {
      "type": "Feature",
      "geometry": {
        "type": "Point",
        "coordinates": [
          -88.967,
          36.938111
        ]
      },
      "properties": {
        "id": "53945",
        "call_sign": "WGKY",
        "frequency": "95.9  MHz",
        "service": "FM",
        "owner": "WITHERS BROADCASTING COMPANY OF PADUCAH, LLC",
        "city": "WICKLIFFE",
        "state": "KY"
      }
    },
    {
      "type": "Feature",
      "geometry": {
        "type": "Point",
        "coordinates": [
          -83.899639,
          36.866472
        ]
      },
      "properties": {
        "id": "3954",
        "call_sign": "WKKQ",
        "frequency": "96.1  MHz",
        "service": "FM",
        "owner": "CHOICE RADIO CORPORATION",
        "city": "BARBOURVILLE",
        "state": "KY"
      }
    },
    {
      "type": "Feature",
      "geometry": {
        "type": "Point",
        "coordinates": [
          -83.899639,
          36.866472
        ]
      },
      "properties": {
        "id": "3954",
        "call_sign": "WKKQ",
        "frequency": "96.1  MHz",
        "service": "FM",
        "owner": "CHOICE RADIO CORPORATION",
        "city": "NORTH CORBIN",
        "state": "KY"
      }
    },
    {
      "type": "Feature",
      "geometry": {
        "type": "Point",
        "coordinates": [
          -87.3575,
          37.772278
        ]
      },
      "properties": {
        "id": "51072",
        "call_sign": "WSTO",
        "frequency": "96.1  MHz",
        "service": "FM",
        "owner": "MIDWEST COMMUNICATIONS, INC.",
        "city": "OWENSBORO",
        "state": "KY"
      }
    },
    {
      "type": "Feature",
      "geometry": {
        "type": "Point",
        "coordinates": [
          -84.370222,
          38.188556
        ]
      },
      "properties": {
        "id": "59387",
        "call_sign": "WZNN",
        "frequency": "96.1  MHz",
        "service": "FM",
        "owner": "CLARITY COMMUNICATIONS, INC.",
        "city": "PARIS",
        "state": "KY"
      }
    },
    {
      "type": "Feature",
      "geometry": {
        "type": "Point",
        "coordinates": [
          -83.303778,
          36.900917
        ]
      },
      "properties": {
        "id": "158297",
        "call_sign": "W242BR",
        "frequency": "96.3  MHz",
        "service": "FX",
        "owner": "EASTERN KENTUCKY UNIVERSITY",
        "city": "HARLAN",
        "state": "KY"
      }
    },
    {
      "type": "Feature",
      "geometry": {
        "type": "Point",
        "coordinates": [
          -83.407667,
          38.175889
        ]
      },
      "properties": {
        "id": "23344",
        "call_sign": "WIVY",
        "frequency": "96.3  MHz",
        "service": "FM",
        "owner": "GATEWAY RADIO WORKS, INC.",
        "city": "MOREHEAD",
        "state": "KY"
      }
    },
    {
      "type": "Feature",
      "geometry": {
        "type": "Point",
        "coordinates": [
          -88.614444,
          37.048889
        ]
      },
      "properties": {
        "id": "201098",
        "call_sign": "W242CX",
        "frequency": "96.3  MHz",
        "service": "FX",
        "owner": "BRISTOL BROADCASTING COMPANY, INC.",
        "city": "PADUCAH",
        "state": "KY"
      }
    },
    {
      "type": "Feature",
      "geometry": {
        "type": "Point",
        "coordinates": [
          -84.870222,
          37.522444
        ]
      },
      "properties": {
        "id": "37560",
        "call_sign": "WXKY",
        "frequency": "96.3  MHz",
        "service": "FM",
        "owner": "K-LOVE, INC.",
        "city": "STANFORD",
        "state": "KY"
      }
    },
    {
      "type": "Feature",
      "geometry": {
        "type": "Point",
        "coordinates": [
          -87.543611,
          37.888111
        ]
      },
      "properties": {
        "id": "90883",
        "call_sign": "W243CU",
        "frequency": "96.5  MHz",
        "service": "FX",
        "owner": "HENSON MEDIA OF HENDERSON COUNTY, LLC",
        "city": "HENDERSON",
        "state": "KY"
      }
    },
    {
      "type": "Feature",
      "geometry": {
        "type": "Point",
        "coordinates": [
          -87.476667,
          36.860611
        ]
      },
      "properties": {
        "id": "21839",
        "call_sign": "W243CH",
        "frequency": "96.5  MHz",
        "service": "FX",
        "owner": "HAM BROADCASTING COMPANY, INC.",
        "city": "HOPKINSVILLE",
        "state": "KY"
      }
    },
    {
      "type": "Feature",
      "geometry": {
        "type": "Point",
        "coordinates": [
          -84.450556,
          38.035
        ]
      },
      "properties": {
        "id": "143040",
        "call_sign": "W243DG",
        "frequency": "96.5  MHz",
        "service": "FX",
        "owner": "AMERICAN FAMILY ASSOCIATION",
        "city": "WINCHESTER",
        "state": "KY"
      }
    },
    {
      "type": "Feature",
      "geometry": {
        "type": "Point",
        "coordinates": [
          -84.033528,
          37.223417
        ]
      },
      "properties": {
        "id": "162367",
        "call_sign": "WANV",
        "frequency": "96.7  MHz",
        "service": "FM",
        "owner": "F.T.G. BROADCASTING, INC.",
        "city": "ANNVILLE",
        "state": "KY"
      }
    },
    {
      "type": "Feature",
      "geometry": {
        "type": "Point",
        "coordinates": [
          -86.258333,
          36.843111
        ]
      },
      "properties": {
        "id": "71244",
        "call_sign": "WOVO",
        "frequency": "96.7  MHz",
        "service": "FM",
        "owner": "SOUTHERN BELLE MEDIA FAMILY, LLC",
        "city": "AUBURN",
        "state": "KY"
      }
    },
    {
      "type": "Feature",
      "geometry": {
        "type": "Point",
        "coordinates": [
          -83.87075,
          36.858417
        ]
      },
      "properties": {
        "id": "146303",
        "call_sign": "W245AS",
        "frequency": "96.9  MHz",
        "service": "FX",
        "owner": "EASTERN KENTUCKY UNIVERSITY",
        "city": "BARBOURVILLE",
        "state": "KY"
      }
    },
    {
      "type": "Feature",
      "geometry": {
        "type": "Point",
        "coordinates": [
          -83.184333,
          37.193417
        ]
      },
      "properties": {
        "id": "141976",
        "call_sign": "W245CP",
        "frequency": "96.9  MHz",
        "service": "FX",
        "owner": "MOUNTAIN BROADCASTING SERVICE, INC.",
        "city": "HAZARD",
        "state": "KY"
      }
    },
    {
      "type": "Feature",
      "geometry": {
        "type": "Point",
        "coordinates": [
          -88.6145,
          37.048944
        ]
      },
      "properties": {
        "id": "54719",
        "call_sign": "WDDJ",
        "frequency": "96.9  MHz",
        "service": "FM",
        "owner": "BRISTOL BROADCASTING COMPANY, INC.",
        "city": "PADUCAH",
        "state": "KY"
      }
    },
    {
      "type": "Feature",
      "geometry": {
        "type": "Point",
        "coordinates": [
          -84.353333,
          38.125556
        ]
      },
      "properties": {
        "id": "36140",
        "call_sign": "WGKS",
        "frequency": "96.9  MHz",
        "service": "FM",
        "owner": "L.M. COMMUNICATIONS, INC.",
        "city": "STAMPING GROUND",
        "state": "KY"
      }
    },
    {
      "type": "Feature",
      "geometry": {
        "type": "Point",
        "coordinates": [
          -85.486056,
          37.819222
        ]
      },
      "properties": {
        "id": "145097",
        "call_sign": "W246AT",
        "frequency": "97.1  MHz",
        "service": "FX",
        "owner": "BARDSTOWN RADIO TEAM, LLC",
        "city": "BARDSTOWN",
        "state": "KY"
      }
    },
    {
      "type": "Feature",
      "geometry": {
        "type": "Point",
        "coordinates": [
          -85.732444,
          38.249222
        ]
      },
      "properties": {
        "id": "194204",
        "call_sign": "WXOX-LP",
        "frequency": "97.1  MHz",
        "service": "FL",
        "owner": "ART FM, INC.",
        "city": "LOUISVILLE",
        "state": "KY"
      }
    },
    {
      "type": "Feature",
      "geometry": {
        "type": "Point",
        "coordinates": [
          -84.568528,
          36.961167
        ]
      },
      "properties": {
        "id": "21624",
        "call_sign": "WJQQ",
        "frequency": "97.1  MHz",
        "service": "FM",
        "owner": "IHM LICENSES, LLC",
        "city": "SOMERSET",
        "state": "KY"
      }
    },
    {
      "type": "Feature",
      "geometry": {
        "type": "Point",
        "coordinates": [
          -84.612167,
          37.118417
        ]
      },
      "properties": {
        "id": "21624",
        "call_sign": "WJQQ",
        "frequency": "97.1  MHz",
        "service": "FS",
        "owner": "IHM LICENSES, LLC",
        "city": "SOMERSET",
        "state": "KY"
      }
    },
    {
      "type": "Feature",
      "geometry": {
        "type": "Point",
        "coordinates": [
          -86.991111,
          37.697278
        ]
      },
      "properties": {
        "id": "73214",
        "call_sign": "WXCM",
        "frequency": "97.1  MHz",
        "service": "FM",
        "owner": "HANCOCK COMMUNICATIONS, INC.",
        "city": "WHITESVILLE",
        "state": "KY"
      }
    },
    {
      "type": "Feature",
      "geometry": {
        "type": "Point",
        "coordinates": [
          -84.522722,
          39.200333
        ]
      },