{
  "type": "FeatureCollection",
  "features": [
    {
      "type": "Feature",
      "geometry": {
        "type": "Point",
        "coordinates": [
          -75.439917,
          40.564556
        ]
      },
      "properties": {
        "id": "36992",
        "call_sign": "WDIY",
        "frequency": "88.1  MHz",
        "service": "FM",
        "owner": "LEHIGH VALLEY COMMUNITY BROADCASTERS ASSOCIATION",
        "city": "ALLENTOWN",
        "state": "PA"
      }
    },
    {
      "type": "Feature",
      "geometry": {
        "type": "Point",
        "coordinates": [
          -76.409361,
          41.525889
        ]
      },
      "properties": {
        "id": "177289",
        "call_sign": "WMLD",
        "frequency": "88.1  MHz",
        "service": "FM",
        "owner": "TELIKOJA EDUCATIONAL BROADCASTING INC.",
        "city": "DUSHORE",
        "state": "PA"
      }
    },
    {
      "type": "Feature",
      "geometry": {
        "type": "Point",
        "coordinates": [
          -80.110889,
          41.966444
        ]
      },
      "properties": {
        "id": "20975",
        "call_sign": "WEFR",
        "frequency": "88.1  MHz",
        "service": "FM",
        "owner": "LOAM MEDIA, INC.",
        "city": "ERIE",
        "state": "PA"
      }
    },
    {
      "type": "Feature",
      "geometry": {
        "type": "Point",
        "coordinates": [
          -80.380333,
          41.414194
        ]
      },
      "properties": {
        "id": "172901",
        "call_sign": "WXTC",
        "frequency": "88.1  MHz",
        "service": "FM",
        "owner": "THIEL COLLEGE",
        "city": "GREENVILLE",
        "state": "PA"
      }
    },
    {
      "type": "Feature",
      "geometry": {
        "type": "Point",
        "coordinates": [
          -76.886083,
          40.262306
        ]
      },
      "properties": {
        "id": "66520",
        "call_sign": "WZXM",
        "frequency": "88.1  MHz",
        "service": "FM",
        "owner": "FOUR RIVERS COMMUNITY BROADCASTING CORP.",
        "city": "HARRISBURG",
        "state": "PA"
      }
    },
    {
      "type": "Feature",
      "geometry": {
        "type": "Point",
        "coordinates": [
          -78.355278,
          40.488694
        ]
      },
      "properties": {
        "id": "91685",
        "call_sign": "WHHN",
        "frequency": "88.1  MHz",
        "service": "FM",
        "owner": "RADIO MARIA, INC.",
        "city": "HOLLIDAYSBURG",
        "state": "PA"
      }
    },
    {
      "type": "Feature",
      "geometry": {
        "type": "Point",
        "coordinates": [
          -74.795417,
          41.336194
        ]
      },
      "properties": {
        "id": "156320",
        "call_sign": "W201DO",
        "frequency": "88.1  MHz",
        "service": "FX",
        "owner": "CHARLES WILLIAMSON",
        "city": "MILFORD",
        "state": "PA"
      }
    },
    {
      "type": "Feature",
      "geometry": {
        "type": "Point",
        "coordinates": [
          -79.657806,
          40.520056
        ]
      },
      "properties": {
        "id": "26527",
        "call_sign": "WKGO",
        "frequency": "88.1  MHz",
        "service": "FM",
        "owner": "BROADCAST EDUCATIONAL COMMUNICATIONS, INC.",
        "city": "MURRYSVILLE",
        "state": "PA"
      }
    },
    {
      "type": "Feature",
      "geometry": {
        "type": "Point",
        "coordinates": [
          -76.998028,
          40.890917
        ]
      },
      "properties": {
        "id": "43663",
        "call_sign": "WBGM",
        "frequency": "88.1  MHz",
        "service": "FM",
        "owner": "MONTROSE BROADCASTING CORPORATION",
        "city": "NEW BERLIN",
        "state": "PA"
      }
    },
    {
      "type": "Feature",
      "geometry": {
        "type": "Point",
        "coordinates": [
          -75.21875,
          39.94825
        ]
      },
      "properties": {
        "id": "71637",
        "call_sign": "WPEB",
        "frequency": "88.1  MHz",
        "service": "FM",
        "owner": "SCRIBE VIDEO CENTER, INC.",
        "city": "PHILADELPHIA",
        "state": "PA"
      }
    },
    {
      "type": "Feature",
      "geometry": {
        "type": "Point",
        "coordinates": [
          -76.376556,
          40.506583
        ]
      },
      "properties": {
        "id": "763335",
        "call_sign": "WFCP",
        "frequency": "88.1  MHz",
        "service": "FM",
        "owner": "CALVARY CHAPEL BIBLE BROADCASTING",
        "city": "PINE GROVE",
        "state": "PA"
      }
    },
    {
      "type": "Feature",
      "geometry": {
        "type": "Point",
        "coordinates": [
          -78.647222,
          41.247
        ]
      },
      "properties": {
        "id": "175421",
        "call_sign": "WRQV",
        "frequency": "88.1  MHz",
        "service": "FM",
        "owner": "INVISIBLE ALLIES MINISTRIES",
        "city": "RIDGWAY",
        "state": "PA"
      }
    },
    {
      "type": "Feature",
      "geometry": {
        "type": "Point",
        "coordinates": [
          -80.042833,
          41.062
        ]
      },
      "properties": {
        "id": "60619",
        "call_sign": "WSRU",
        "frequency": "88.1  MHz",
        "service": "FM",
        "owner": "SLIPPERY ROCK STUDENT GOVERNMENT ASSOCIATION, INC.",
        "city": "SLIPPERY ROCK",
        "state": "PA"
      }
    },
    {
      "type": "Feature",
      "geometry": {
        "type": "Point",
        "coordinates": [
          -76.124083,
          41.298389
        ]
      },
      "properties": {
        "id": "24681",
        "call_sign": "WRGN",
        "frequency": "88.1  MHz",
        "service": "FM",
        "owner": "GOOD NEWS FOR LIFE",
        "city": "SWEET VALLEY",
        "state": "PA"
      }
    },
    {
      "type": "Feature",
      "geometry": {
        "type": "Point",
        "coordinates": [
          -75.878278,
          40.129278
        ]
      },
      "properties": {
        "id": "91617",
        "call_sign": "WZZD",
        "frequency": "88.1  MHz",
        "service": "FM",
        "owner": "FOUR RIVERS COMMUNITY BROADCASTING CORP.",
        "city": "WARWICK",
        "state": "PA"
      }
    },
    {
      "type": "Feature",
      "geometry": {
        "type": "Point",
        "coordinates": [
          -77.033056,
          41.262222
        ]
      },
      "properties": {
        "id": "52188",
        "call_sign": "WKWP",
        "frequency": "88.1  MHz",
        "service": "FM",
        "owner": "K-LOVE, INC.",
        "city": "WILLIAMSPORT",
        "state": "PA"
      }
    },
    {
      "type": "Feature",
      "geometry": {
        "type": "Point",
        "coordinates": [
          -77.033056,
          41.262222
        ]
      },
      "properties": {
        "id": "52188",
        "call_sign": "WKWP",
        "frequency": "88.1  MHz",
        "service": "FM",
        "owner": "K-LOVE, INC.",
        "city": "WILLIAMSPORT",
        "state": "PA"
      }
    },
    {
      "type": "Feature",
      "geometry": {
        "type": "Point",
        "coordinates": [
          -76.729389,
          39.947028
        ]
      },
      "properties": {
        "id": "74381",
        "call_sign": "WVYC",
        "frequency": "88.1  MHz",
        "service": "FM",
        "owner": "YORK COLLEGE OF PENNSYLVANIA",
        "city": "YORK",
        "state": "PA"
      }
    },
    {
      "type": "Feature",
      "geometry": {
        "type": "Point",
        "coordinates": [
          -79.902778,
          40.874444
        ]
      },
      "properties": {
        "id": "147791",
        "call_sign": "W202CK",
        "frequency": "88.3  MHz",
        "service": "FX",
        "owner": "FAMILY LIFE MINISTRIES, INC",
        "city": "BUTLER",
        "state": "PA"
      }
    },
    {
      "type": "Feature",
      "geometry": {
        "type": "Point",
        "coordinates": [
          -77.195806,
          40.202583
        ]
      },
      "properties": {
        "id": "68238",
        "call_sign": "WDCV-FM",
        "frequency": "88.3  MHz",
        "service": "FM",
        "owner": "TRUSTEES OF DICKINSON COLLEGE",
        "city": "CARLISLE",
        "state": "PA"
      }
    },
    {
      "type": "Feature",
      "geometry": {
        "type": "Point",
        "coordinates": [
          -77.475278,
          39.961194
        ]
      },
      "properties": {
        "id": "93044",
        "call_sign": "WZXQ",
        "frequency": "88.3  MHz",
        "service": "FM",
        "owner": "FOUR RIVERS COMMUNITY BROADCASTING CORP.",
        "city": "CHAMBERSBURG",
        "state": "PA"
      }
    },
    {
      "type": "Feature",
      "geometry": {
        "type": "Point",
        "coordinates": [
          -75.965222,
          39.733444
        ]
      },
      "properties": {
        "id": "174592",
        "call_sign": "WZXE",
        "frequency": "88.3  MHz",
        "service": "FM",
        "owner": "FOUR RIVERS COMMUNITY BROADCASTING CORP.",
        "city": "EAST NOTTINGHAM",
        "state": "PA"
      }
    },
    {
      "type": "Feature",
      "geometry": {
        "type": "Point",
        "coordinates": [
          -76.593556,
          40.148139
        ]
      },
      "properties": {
        "id": "19356",
        "call_sign": "WWEC",
        "frequency": "88.3  MHz",
        "service": "FM",
        "owner": "ELIZABETHTOWN COLLEGE",
        "city": "ELIZABETHTOWN",
        "state": "PA"
      }
    },
    {
      "type": "Feature",
      "geometry": {
        "type": "Point",
        "coordinates": [
          -76.115167,
          40.85
        ]
      },
      "properties": {
        "id": "766931",
        "call_sign": "WTWH",
        "frequency": "88.3  MHz",
        "service": "FM",
        "owner": "CALVARY CHAPEL BIBLE BROADCASTING",
        "city": "HAZLETON",
        "state": "PA"
      }
    },
    {
      "type": "Feature",
      "geometry": {
        "type": "Point",
        "coordinates": [
          -76.062444,
          40.46925
        ]
      },
      "properties": {
        "id": "175920",
        "call_sign": "WYBQ",
        "frequency": "88.3  MHz",
        "service": "FM",
        "owner": "BIBLE BROADCASTING NETWORK, INC.",
        "city": "LEESPORT",
        "state": "PA"
      }
    },
    {
      "type": "Feature",
      "geometry": {
        "type": "Point",
        "coordinates": [
          -76.924944,
          41.7595
        ]
      },
      "properties": {
        "id": "177089",
        "call_sign": "WTIO",
        "frequency": "88.3  MHz",
        "service": "FM",
        "owner": "NORTHEASTERN PENNSYLVANIA EDUCATIONAL TELEVISION ASSOCIATION",
        "city": "MAINESBURG",
        "state": "PA"
      }
    },
    {
      "type": "Feature",
      "geometry": {
        "type": "Point",
        "coordinates": [
          -79.692222,
          41.543167
        ]
      },
      "properties": {
        "id": "172337",
        "call_sign": "WQHE",
        "frequency": "88.3  MHz",
        "service": "FM",
        "owner": "HOLY FAMILY COMMUNICATIONS",
        "city": "OIL CITY",
        "state": "PA"
      }
    },
    {
      "type": "Feature",
      "geometry": {
        "type": "Point",
        "coordinates": [
          -79.943361,
          40.444222
        ]
      },
      "properties": {
        "id": "1",
        "call_sign": "WRCT",
        "frequency": "88.3  MHz",
        "service": "FM",
        "owner": "WRCT RADIO, INC.",
        "city": "PITTSBURGH",
        "state": "PA"
      }
    },
    {
      "type": "Feature",
      "geometry": {
        "type": "Point",
        "coordinates": [
          -77.841639,
          40.905417
        ]
      },
      "properties": {
        "id": "91930",
        "call_sign": "WCOB",
        "frequency": "88.3  MHz",
        "service": "FM",
        "owner": "FAMILY LIFE MINISTRIES, INC.",
        "city": "STATE COLLEGE",
        "state": "PA"
      }
    },
    {
      "type": "Feature",
      "geometry": {
        "type": "Point",
        "coordinates": [
          -77.838611,
          40.901111
        ]
      },
      "properties": {
        "id": "91930",
        "call_sign": "WCOB",
        "frequency": "88.3  MHz",
        "service": "FM",
        "owner": "FAMILY LIFE MINISTRIES, INC.",
        "city": "STATE COLLEGE",
        "state": "PA"
      }
    },
    {
      "type": "Feature",
      "geometry": {
        "type": "Point",
        "coordinates": [
          -75.461833,
          41.543694
        ]
      },
      "properties": {
        "id": "41202",
        "call_sign": "WLKA",
        "frequency": "88.3  MHz",
        "service": "FM",
        "owner": "K-LOVE, INC.",
        "city": "TAFTON",
        "state": "PA"
      }
    },
    {
      "type": "Feature",
      "geometry": {
        "type": "Point",
        "coordinates": [
          -79.943389,
          42.090333
        ]
      },
      "properties": {
        "id": "41215",
        "call_sign": "WMCE-FM",
        "frequency": "88.5  MHz",
        "service": "FM",
        "owner": "LAKE ERIE COLLEGE OF OSTEOPATHIC MEDICINE, INC.",
        "city": "ERIE",
        "state": "PA"
      }
    },
    {
      "type": "Feature",
      "geometry": {
        "type": "Point",
        "coordinates": [
          -80.056167,
          42.093667
        ]
      },
      "properties": {
        "id": "41215",
        "call_sign": "WMCE-FM",
        "frequency": "88.5  MHz",
        "service": "FS",
        "owner": "LAKE ERIE COLLEGE OF OSTEOPATHIC MEDICINE, INC.",
        "city": "ERIE",
        "state": "PA"
      }
    },
    {
      "type": "Feature",
      "geometry": {
        "type": "Point",
        "coordinates": [
          -76.903306,
          40.457306
        ]
      },
      "properties": {
        "id": "91925",
        "call_sign": "WKHW",
        "frequency": "88.5  MHz",
        "service": "FM",
        "owner": "K-LOVE, INC.",
        "city": "HALIFAX",
        "state": "PA"
      }
    },
    {
      "type": "Feature",
      "geometry": {
        "type": "Point",
        "coordinates": [
          -79.039556,
          40.604306
        ]
      },
      "properties": {
        "id": "20682",
        "call_sign": "WCOA-FM",
        "frequency": "88.5  MHz",
        "service": "FM",
        "owner": "FAMILY LIFE MINISTRIES, INC.",
        "city": "JOHNSTOWN",
        "state": "PA"
      }
    },
    {
      "type": "Feature",
      "geometry": {
        "type": "Point",
        "coordinates": [
          -79.9895,
          39.787
        ]
      },
      "properties": {
        "id": "81152",
        "call_sign": "WYFU",
        "frequency": "88.5  MHz",
        "service": "FM",
        "owner": "BIBLE BROADCASTING NETWORK, INC.",
        "city": "MASONTOWN",
        "state": "PA"
      }
    },
    {
      "type": "Feature",
      "geometry": {
        "type": "Point",
        "coordinates": [
          -75.236889,
          40.038806
        ]
      },
      "properties": {
        "id": "68229",
        "call_sign": "WXPN",
        "frequency": "88.5  MHz",
        "service": "FM",
        "owner": "THE TRUSTEES OF THE UNIVERSITY OF PENNSYLVANIA",
        "city": "PHILADELPHIA",
        "state": "PA"
      }
    },
    {
      "type": "Feature",
      "geometry": {
        "type": "Point",
        "coordinates": [
          -75.878806,
          41.248972
        ]
      },
      "properties": {
        "id": "34899",
        "call_sign": "WRKC",
        "frequency": "88.5  MHz",
        "service": "FM",
        "owner": "KINGS COLLEGE",
        "city": "WILKES-BARRE",
        "state": "PA"
      }
    },
    {
      "type": "Feature",
      "geometry": {
        "type": "Point",
        "coordinates": [
          -79.261139,
          41.902
        ]
      },
      "properties": {
        "id": "89403",
        "call_sign": "WYVL",
        "frequency": "88.5  MHz",
        "service": "FM",
        "owner": "CALVARY CHAPEL OF RUSSELL",
        "city": "YOUNGSVILLE",
        "state": "PA"
      }
    },
    {
      "type": "Feature",
      "geometry": {
        "type": "Point",
        "coordinates": [
          -78.503333,
          40.043056
        ]
      },
      "properties": {
        "id": "762537",
        "call_sign": "WPME",
        "frequency": "88.7  MHz",
        "service": "FM",
        "owner": "CENTRAL PENNSYLVANIA CHRISTIAN INSTITUTE, INC.",
        "city": "BEDFORD",
        "state": "PA"
      }
    },
    {
      "type": "Feature",
      "geometry": {
        "type": "Point",
        "coordinates": [
          -79.949389,
          41.318833
        ]
      },
      "properties": {
        "id": "172665",
        "call_sign": "WCGT",
        "frequency": "88.7  MHz",
        "service": "FM",
        "owner": "FAMILY LIFE MINISTRIES, INC.",
        "city": "CLINTONVILLE",
        "state": "PA"
      }
    },
    {
      "type": "Feature",
      "geometry": {
        "type": "Point",
        "coordinates": [
          -76.257778,
          41.541528
        ]
      },
      "properties": {
        "id": "768431",
        "call_sign": "WYSP",
        "frequency": "88.7  MHz",
        "service": "FM",
        "owner": "TELIKOJA EDUCATIONAL BROADCASTING, INC.",
        "city": "COLLEY",
        "state": "PA"
      }
    },
    {
      "type": "Feature",
      "geometry": {
        "type": "Point",
        "coordinates": [
          -79.5175,
          40.014444
        ]
      },
      "properties": {
        "id": "768606",
        "call_sign": "WKGQ",
        "frequency": "88.7  MHz",
        "service": "FM",
        "owner": "BROADCAST EDUCATIONAL COMMUNICATIONS, INC.",
        "city": "CONNELLSVILLE",
        "state": "PA"
      }
    },
    {
      "type": "Feature",
      "geometry": {
        "type": "Point",
        "coordinates": [
          -75.926056,
          39.810083
        ]
      },
      "properties": {
        "id": "37557",
        "call_sign": "WWLU",
        "frequency": "88.7  MHz",
        "service": "FM",
        "owner": "LINCOLN UNIVERSITY",
        "city": "LINCOLN UNIVERSITY",
        "state": "PA"
      }
    },
    {
      "type": "Feature",
      "geometry": {
        "type": "Point",
        "coordinates": [
          -77.956389,
          39.925917
        ]
      },
      "properties": {
        "id": "85292",
        "call_sign": "WWCF",
        "frequency": "88.7  MHz",
        "service": "FM",
        "owner": "COVE MOUNTAIN EDUCATIONAL BROADCASTING, INC.",
        "city": "MCCONNELLSBURG",
        "state": "PA"
      }
    },
    {
      "type": "Feature",
      "geometry": {
        "type": "Point",
        "coordinates": [
          -76.621639,
          40.035389
        ]
      },
      "properties": {
        "id": "87834",
        "call_sign": "WXPH",
        "frequency": "88.7  MHz",
        "service": "FM",
        "owner": "THE TRUSTEES OF THE UNIVERSITY OF PENNSYLVANIA",
        "city": "MIDDLETOWN",
        "state": "PA"
      }
    },
    {
      "type": "Feature",
      "geometry": {
        "type": "Point",
        "coordinates": [
          -77.694139,
          40.586167
        ]
      },
      "properties": {
        "id": "172732",
        "call_sign": "WRYV",
        "frequency": "88.7  MHz",
        "service": "FM",
        "owner": "INVISIBLE ALLIES MINISTRIES",
        "city": "MILROY",
        "state": "PA"
      }
    },
    {
      "type": "Feature",
      "geometry": {
        "type": "Point",
        "coordinates": [
          -79.994333,
          40.472
        ]
      },
      "properties": {
        "id": "148415",
        "call_sign": "W204CT",
        "frequency": "88.7  MHz",
        "service": "FX",
        "owner": "K-LOVE, INC.",
        "city": "PITTSBURGH",
        "state": "PA"
      }
    },
    {
      "type": "Feature",
      "geometry": {
        "type": "Point",
        "coordinates": [
          -77.521667,
          40.062778
        ]
      },
      "properties": {
        "id": "60203",
        "call_sign": "WSYC-FM",
        "frequency": "88.7  MHz",
        "service": "FM",
        "owner": "SHIPPENSBURG UNIVERSITY OF PENNSYLVANIA",
        "city": "SHIPPENSBURG",
        "state": "PA"
      }
    },
    {
      "type": "Feature",
      "geometry": {
        "type": "Point",
        "coordinates": [
          -75.378778,
          41.044528
        ]
      },
      "properties": {
        "id": "22181",
        "call_sign": "WBYX",
        "frequency": "88.7  MHz",
        "service": "FM",
        "owner": "FOUR RIVERS COMMUNITY BROADCASTING CORP.",
        "city": "STROUDSBURG",
        "state": "PA"
      }
    },
    {
      "type": "Feature",
      "geometry": {
        "type": "Point",
        "coordinates": [
          -75.728778,
          41.435889
        ]
      },
      "properties": {
        "id": "24680",
        "call_sign": "W205AG",
        "frequency": "88.9  MHz",
        "service": "FX",
        "owner": "GOOD NEWS FOR LIFE",
        "city": "CLARKS SUMMIT, ETC.",
        "state": "PA"
      }
    },
    {
      "type": "Feature",
      "geometry": {
        "type": "Point",
        "coordinates": [
          -80.177278,
          41.877278
        ]
      },
      "properties": {
        "id": "18665",
        "call_sign": "WFSE",
        "frequency": "88.9  MHz",
        "service": "FM",
        "owner": "PENNSYLVANIA WESTERN UNIVERSITY (A/K/A PENNWEST UNIVERSITY)",
        "city": "EDINBORO",
        "state": "PA"
      }
    },
    {
      "type": "Feature",
      "geometry": {
        "type": "Point",
        "coordinates": [
          -76.071583,
          41.5245
        ]
      },
      "properties": {
        "id": "24687",
        "call_sign": "W205CL",
        "frequency": "88.9  MHz",
        "service": "FX",
        "owner": "GOOD NEWS FOR LIFE",
        "city": "MESHOPPEN",
        "state": "PA"
      }
    },
    {
      "type": "Feature",
      "geometry": {
        "type": "Point",
        "coordinates": [
          -80.338944,
          41.111444
        ]
      },
      "properties": {
        "id": "72031",
        "call_sign": "WWNW",
        "frequency": "88.9  MHz",
        "service": "FM",
        "owner": "WESTMINSTER COLLEGE BOARD OF TRUSTEES",
        "city": "NEW WILMINGTON",
        "state": "PA"
      }
    },
    {
      "type": "Feature",
      "geometry": {
        "type": "Point",
        "coordinates": [
          -76.751083,
          40.953417
        ]
      },
      "properties": {
        "id": "64184",
        "call_sign": "WQSU",
        "frequency": "88.9  MHz",
        "service": "FM",
        "owner": "SUSQUEHANNA UNIVERSITY",
        "city": "SELINSGROVE",
        "state": "PA"
      }
    },
    {
      "type": "Feature",
      "geometry": {
        "type": "Point",
        "coordinates": [
          -75.350167,
          40.383972
        ]
      },
      "properties": {
        "id": "7922",
        "call_sign": "WBYO",
        "frequency": "88.9  MHz",
        "service": "FM",
        "owner": "FOUR RIVERS COMMUNITY BROADCASTING CORP.",
        "city": "SELLERSVILLE",
        "state": "PA"
      }
    },
    {
      "type": "Feature",
      "geometry": {
        "type": "Point",
        "coordinates": [
          -78.699417,
          41.427139
        ]
      },
      "properties": {
        "id": "766727",
        "call_sign": "WCOI",
        "frequency": "88.9  MHz",
        "service": "FM",
        "owner": "FAMILY LIFE MINISTRIES, INC.",
        "city": "ST. MARYS",
        "state": "PA"
      }
    },
    {
      "type": "Feature",
      "geometry": {
        "type": "Point",
        "coordinates": [
          -78.325556,
          40.732222
        ]
      },
      "properties": {
        "id": "154681",
        "call_sign": "W205CW",
        "frequency": "88.9  MHz",
        "service": "FX",
        "owner": "INVISIBLE ALLIES MINISTRIES",
        "city": "TYRONE",
        "state": "PA"
      }
    },
    {
      "type": "Feature",
      "geometry": {
        "type": "Point",
        "coordinates": [
          -75.163778,
          41.412028
        ]
      },
      "properties": {
        "id": "78759",
        "call_sign": "WBYH",
        "frequency": "89.1  MHz",
        "service": "FM",
        "owner": "FOUR RIVERS COMMUNITY BROADCASTING CORP.",
        "city": "HAWLEY",
        "state": "PA"
      }
    },
    {
      "type": "Feature",
      "geometry": {
        "type": "Point",
        "coordinates": [
          -76.320222,
          40.045361
        ]
      },
      "properties": {
        "id": "22306",
        "call_sign": "WFNM",
        "frequency": "89.1  MHz",
        "service": "FM",
        "owner": "FRANKLIN AND MARSHALL COLLEGE",
        "city": "LANCASTER",
        "state": "PA"
      }
    },
    {
      "type": "Feature",
      "geometry": {
        "type": "Point",
        "coordinates": [
          -76.929444,
          41.7775
        ]
      },
      "properties": {
        "id": "767635",
        "call_sign": "WDFS",
        "frequency": "89.1  MHz",
        "service": "FM",
        "owner": "CHILDREN'S EDUCATIONAL BROADCASTING FOUNDATION",
        "city": "MAINESBURG",
        "state": "PA"
      }
    },
    {
      "type": "Feature",
      "geometry": {
        "type": "Point",
        "coordinates": [
          -79.101944,
          39.783333
        ]
      },
      "properties": {
        "id": "763299",
        "call_sign": "WHYU-FM",
        "frequency": "89.1  MHz",
        "service": "FM",
        "owner": "AMERICAN MILITIA ASSOCIATION",
        "city": "MEYERSDALE",
        "state": "PA"
      }
    },
    {
      "type": "Feature",
      "geometry": {
        "type": "Point",
        "coordinates": [
          -79.101944,
          39.783333
        ]
      },
      "properties": {
        "id": "763299",
        "call_sign": "WHYU-FM",
        "frequency": "89.1  MHz",
        "service": "FM",
        "owner": "AMERICAN MILITIA ASSOCIATION",
        "city": "MEYERSDALE",
        "state": "PA"
      }
    },
    {
      "type": "Feature",
      "geometry": {
        "type": "Point",
        "coordinates": [
          -76.062444,
          40.46925
        ]
      },
      "properties": {
        "id": "173919",
        "call_sign": "WZMV",
        "frequency": "89.1  MHz",
        "service": "FM",
        "owner": "FOUR RIVERS COMMUNITY BROADCASTING CORP.",
        "city": "MOHRSVILLE",
        "state": "PA"
      }
    },
    {
      "type": "Feature",
      "geometry": {
        "type": "Point",
        "coordinates": [
          -75.99075,
          41.195056
        ]
      },
      "properties": {
        "id": "39261",
        "call_sign": "WSFX",
        "frequency": "89.1  MHz",
        "service": "FM",
        "owner": "LUZERNE COUNTY COMMUNITY COLLEGE",
        "city": "NANTICOKE",
        "state": "PA"
      }
    },
    {
      "type": "Feature",
      "geometry": {
        "type": "Point",
        "coordinates": [
          -77.974167,
          40.9195
        ]
      },
      "properties": {
        "id": "91941",
        "call_sign": "WRXV",
        "frequency": "89.1  MHz",
        "service": "FM",
        "owner": "INVISIBLE ALLIES MINISTRIES",
        "city": "STATE COLLEGE",
        "state": "PA"
      }
    },
    {
      "type": "Feature",
      "geometry": {
        "type": "Point",
        "coordinates": [
          -75.337111,
          40.032861
        ]
      },
      "properties": {
        "id": "70229",
        "call_sign": "WXVU",
        "frequency": "89.1  MHz",
        "service": "FM",
        "owner": "VILLANOVA UNIVERSITY",
        "city": "VILLANOVA",
        "state": "PA"
      }
    },
    {
      "type": "Feature",
      "geometry": {
        "type": "Point",
        "coordinates": [
          -75.439917,
          40.564556
        ]
      },
      "properties": {
        "id": "4370",
        "call_sign": "WJCS",
        "frequency": "89.3  MHz",
        "service": "FM",
        "owner": "BEACON BROADCASTING CORPORATION",
        "city": "ALLENTOWN",
        "state": "PA"
      }
    },
    {
      "type": "Feature",
      "geometry": {
        "type": "Point",
        "coordinates": [
          -75.813,
          40.024
        ]
      },
      "properties": {
        "id": "90653",
        "call_sign": "WRTJ",
        "frequency": "89.3  MHz",
        "service": "FM",
        "owner": "TEMPLE UNIVERSITY OF THE COMMONWEALTH SYSTEM OF HIGHER ED",
        "city": "COATESVILLE",
        "state": "PA"
      }
    },
    {
      "type": "Feature",
      "geometry": {
        "type": "Point",
        "coordinates": [
          -79.633889,
          41.850278
        ]
      },
      "properties": {
        "id": "767010",
        "call_sign": "WCGM",
        "frequency": "89.3  MHz",
        "service": "FM",
        "owner": "FAMILY LIFE MINISTRIES, INC.",
        "city": "COLUMBUS",
        "state": "PA"
      }
    },
    {
      "type": "Feature",
      "geometry": {
        "type": "Point",
        "coordinates": [
          -75.913806,
          41.017306
        ]
      },
      "properties": {
        "id": "20819",
        "call_sign": "W207AG",
        "frequency": "89.3  MHz",
        "service": "FX",
        "owner": "FAMILY LIFE MINISTRIES, INC.",
        "city": "FREELAND, ETC.",
        "state": "PA"
      }
    },
    {
      "type": "Feature",
      "geometry": {
        "type": "Point",
        "coordinates": [
          -77.468889,
          41.134167
        ]
      },
      "properties": {
        "id": "106572",
        "call_sign": "W207BM",
        "frequency": "89.3  MHz",
        "service": "FX",
        "owner": "FAMILY WORSHIP CENTER CHURCH, INC.",
        "city": "LOCK HAVEN",
        "state": "PA"
      }
    },
    {
      "type": "Feature",
      "geometry": {
        "type": "Point",
        "coordinates": [
          -79.963944,
          40.446167
        ]
      },
      "properties": {
        "id": "54002",
        "call_sign": "WQED-FM",
        "frequency": "89.3  MHz",
        "service": "FM",
        "owner": "WQED MULTIMEDIA",
        "city": "PITTSBURGH",
        "state": "PA"
      }
    },
    {
      "type": "Feature",
      "geometry": {
        "type": "Point",
        "coordinates": [
          -75.894361,
          40.319806
        ]
      },
      "properties": {
        "id": "20705",
        "call_sign": "W207AE",
        "frequency": "89.3  MHz",
        "service": "FX",
        "owner": "LOAM MEDIA, INC.",
        "city": "READING",
        "state": "PA"
      }
    },
    {
      "type": "Feature",
      "geometry": {
        "type": "Point",
        "coordinates": [
          -78.260556,
          40.292556
        ]
      },
      "properties": {
        "id": "762512",
        "call_sign": "WPMN",
        "frequency": "89.3  MHz",
        "service": "FM",
        "owner": "CENTRAL PENNSYLVANIA CHRISTIAN INSTITUTE, INC.",
        "city": "SAXTON",
        "state": "PA"
      }
    },
    {
      "type": "Feature",
      "geometry": {
        "type": "Point",
        "coordinates": [
          -75.107111,
          40.205361
        ]
      },
      "properties": {
        "id": "7931",
        "call_sign": "WRDV",
        "frequency": "89.3  MHz",
        "service": "FM",
        "owner": "BUX-MONT EDUCATIONAL RADIO ASSOCIATION",
        "city": "WARMINSTER",
        "state": "PA"
      }
    },
    {
      "type": "Feature",
      "geometry": {
        "type": "Point",
        "coordinates": [
          -76.958306,
          41.208972
        ]
      },
      "properties": {
        "id": "49418",
        "call_sign": "W207AA",
        "frequency": "89.3  MHz",
        "service": "FX",
        "owner": "NORTHEASTERN PENNSYLVANIA EDUCATIONAL TELEVISION ASSOCIATION",
        "city": "WILLIAMSPORT",
        "state": "PA"
      }
    },
    {
      "type": "Feature",
      "geometry": {
        "type": "Point",
        "coordinates": [
          -78.703028,
          41.045639
        ]
      },
      "properties": {
        "id": "762559",
        "call_sign": "WPMU",
        "frequency": "89.5  MHz",
        "service": "FM",
        "owner": "CENTRAL PENNSYLVANIA CHRISTIAN INSTITUTE, INC.",
        "city": "DUBOIS",
        "state": "PA"
      }
    },
    {
      "type": "Feature",
      "geometry": {
        "type": "Point",
        "coordinates": [
          -79.772,
          41.394222
        ]
      },
      "properties": {
        "id": "84440",
        "call_sign": "WAWN",
        "frequency": "89.5  MHz",
        "service": "FM",
        "owner": "AMERICAN FAMILY ASSOCIATION",
        "city": "FRANKLIN",
        "state": "PA"
      }
    },
    {
      "type": "Feature",
      "geometry": {
        "type": "Point",
        "coordinates": [
          -76.868306,
          40.345639
        ]
      },
      "properties": {
        "id": "73084",
        "call_sign": "WITF-FM",
        "frequency": "89.5  MHz",
        "service": "FM",
        "owner": "PENNON ORGANIZATION",
        "city": "HARRISBURG",
        "state": "PA"
      }
    },
    {
      "type": "Feature",
      "geometry": {
        "type": "Point",
        "coordinates": [
          -76.868306,
          40.345639
        ]
      },
      "properties": {
        "id": "73084",
        "call_sign": "WITF-FM",
        "frequency": "89.5  MHz",
        "service": "FS",
        "owner": "PENNON ORGANIZATION",
        "city": "HARRISBURG",
        "state": "PA"
      }
    },
    {
      "type": "Feature",
      "geometry": {
        "type": "Point",
        "coordinates": [
          -77.073278,
          41.806444
        ]
      },
      "properties": {
        "id": "39817",
        "call_sign": "WNTE",
        "frequency": "89.5  MHz",
        "service": "FM",
        "owner": "COMMONWEALTH UNIVERSITY OF PENNSYLVANIA",
        "city": "MANSFIELD",
        "state": "PA"
      }
    },
    {
      "type": "Feature",
      "geometry": {
        "type": "Point",
        "coordinates": [
          -75.869083,
          41.182556
        ]
      },
      "properties": {
        "id": "20962",
        "call_sign": "W208AF",
        "frequency": "89.5  MHz",
        "service": "FX",
        "owner": "LOAM MEDIA, INC.",
        "city": "NANTICOKE, ETC.",
        "state": "PA"
      }
    },
    {
      "type": "Feature",
      "geometry": {
        "type": "Point",
        "coordinates": [
          -75.300833,
          40.859472
        ]
      },
      "properties": {
        "id": "78699",
        "call_sign": "WWPJ",
        "frequency": "89.5  MHz",
        "service": "FM",
        "owner": "MERCER COUNTY COMMUNITY COLLEGE",
        "city": "PEN ARGYL",
        "state": "PA"
      }
    },
    {
      "type": "Feature",
      "geometry": {
        "type": "Point",
        "coordinates": [
          -77.635278,
          39.908139
        ]
      },
      "properties": {
        "id": "106565",
        "call_sign": "W209BN",
        "frequency": "89.7  MHz",
        "service": "FX",
        "owner": "FAMILY WORSHIP CENTER CHURCH, INC.",
        "city": "CHAMBERSBURG",
        "state": "PA"
      }
    },
    {
      "type": "Feature",
      "geometry": {
        "type": "Point",
        "coordinates": [
          -79.950611,
          42.082806
        ]
      },
      "properties": {
        "id": "89658",
        "call_sign": "W209CS",
        "frequency": "89.7  MHz",
        "service": "FX",
        "owner": "CSN INTERNATIONAL",
        "city": "ERIE",
        "state": "PA"
      }
    },
    {
      "type": "Feature",
      "geometry": {
        "type": "Point",
        "coordinates": [
          -78.981972,
          40.371472
        ]
      },
      "properties": {
        "id": "54003",
        "call_sign": "WQEJ",
        "frequency": "89.7  MHz",
        "service": "FM",
        "owner": "WQED MULTIMEDIA",
        "city": "JOHNSTOWN",
        "state": "PA"
      }
    },
    {
      "type": "Feature",
      "geometry": {
        "type": "Point",
        "coordinates": [
          -80.340422,
          41.089472
        ]
      },
      "properties": {
        "id": "74437",
        "call_sign": "W209CQ",
        "frequency": "89.7  MHz",
        "service": "FX",
        "owner": "YOUNGSTOWN STATE UNIVERSITY",
        "city": "NEW WILMINGTON",
        "state": "PA"
      }
    },
    {
      "type": "Feature",
      "geometry": {
        "type": "Point",
        "coordinates": [
          -75.898333,
          40.35425
        ]
      },
      "properties": {
        "id": "20705",
        "call_sign": "W207AE",
        "frequency": "89.7  MHz",
        "service": "FX",
        "owner": "LOAM MEDIA, INC.",
        "city": "READING",
        "state": "PA"
      }
    },
    {
      "type": "Feature",
      "geometry": {
        "type": "Point",
        "coordinates": [
          -77.030778,
          41.248389
        ]
      },
      "properties": {
        "id": "92638",
        "call_sign": "WVYA",
        "frequency": "89.7  MHz",
        "service": "FM",
        "owner": "NORTHEASTERN PENNSYLVANIA EDUCATIONAL TELEVISION ASSOCIATION",
        "city": "WILLIAMSPORT",
        "state": "PA"
      }
    },
    {
      "type": "Feature",
      "geometry": {
        "type": "Point",
        "coordinates": [
          -80.173083,
          41.823889
        ]
      },
      "properties": {
        "id": "176354",
        "call_sign": "WCGV",
        "frequency": "89.9  MHz",
        "service": "FM",
        "owner": "FAMILY LIFE MINISTRIES, INC.",
        "city": "CAMBRIDGE SPRINGS",
        "state": "PA"
      }
    },
    {
      "type": "Feature",
      "geometry": {
        "type": "Point",
        "coordinates": [
          -75.871028,
          41.182028
        ]
      },
      "properties": {
        "id": "49436",
        "call_sign": "WVIA-FM",
        "frequency": "89.9  MHz",
        "service": "FM",
        "owner": "NORTHEASTERN PENNSYLVANIA EDUCATIONAL TELEVISION ASSOCIATION",
        "city": "SCRANTON",
        "state": "PA"
      }
    },
    {
      "type": "Feature",
      "geometry": {
        "type": "Point",
        "coordinates": [
          -77.892667,
          40.71675
        ]
      },
      "properties": {
        "id": "9944",
        "call_sign": "WTLR",
        "frequency": "89.9  MHz",
        "service": "FM",
        "owner": "CENTRAL PENNSYLVANIA CHRISTIAN INSTITUTE, INC.",
        "city": "STATE COLLEGE",
        "state": "PA"
      }
    },
    {
      "type": "Feature",
      "geometry": {
        "type": "Point",
        "coordinates": [
          -76.881917,
          40.33925
        ]
      },
      "properties": {
        "id": "67128",
        "call_sign": "W211AA",
        "frequency": "90.1  MHz",
        "service": "FX",
        "owner": "AMERICAN FAMILY ASSOCIATION, INC.",
        "city": "HARRISBURG, ETC.",
        "state": "PA"
      }
    },
    {
      "type": "Feature",
      "geometry": {
        "type": "Point",
        "coordinates": [
          -79.166667,
          40.609028
        ]
      },
      "properties": {
        "id": "28604",
        "call_sign": "WIUP-FM",
        "frequency": "90.1  MHz",
        "service": "FM",
        "owner": "INDIANA UNIVERSITY OF PENNSYLVANIA",
        "city": "INDIANA",
        "state": "PA"
      }
    },
    {
      "type": "Feature",
      "geometry": {
        "type": "Point",
        "coordinates": [
          -78.803639,
          41.617833
        ]
      },
      "properties": {
        "id": "66240",
        "call_sign": "WPSX",
        "frequency": "90.1  MHz",
        "service": "FM",
        "owner": "THE PENNSYLVANIA STATE UNIVERSITY",
        "city": "KANE",
        "state": "PA"
      }
    },
    {
      "type": "Feature",
      "geometry": {
        "type": "Point",
        "coordinates": [
          -77.515278,
          40.179806
        ]
      },
      "properties": {
        "id": "173888",
        "call_sign": "WZXN",
        "frequency": "90.1  MHz",
        "service": "FM",
        "owner": "FOUR RIVERS COMMUNITY BROADCASTING CORP.",
        "city": "NEWBURG",
        "state": "PA"
      }
    },
    {
      "type": "Feature",
      "geometry": {
        "type": "Point",
        "coordinates": [
          -80.293111,
          41.013111
        ]
      },
      "properties": {
        "id": "43698",
        "call_sign": "WVMN",
        "frequency": "90.1  MHz",
        "service": "FM",
        "owner": "THE MOODY BIBLE INSTITUTE OF CHICAGO",
        "city": "NEW CASTLE",
        "state": "PA"
      }
    },
    {
      "type": "Feature",
      "geometry": {
        "type": "Point",
        "coordinates": [
          -75.236139,
          40.041667
        ]
      },
      "properties": {
        "id": "65190",
        "call_sign": "WRTI",
        "frequency": "90.1  MHz",
        "service": "FM",
        "owner": "TEMPLE UNIVERSITY OF THE COMMONWEALTH SYSTEM OF HIGHER ED",
        "city": "PHILADELPHIA",
        "state": "PA"
      }
    },
    {
      "type": "Feature",
      "geometry": {
        "type": "Point",
        "coordinates": [
          -75.236833,
          40.038722
        ]
      },
      "properties": {
        "id": "65190",
        "call_sign": "WRTI",
        "frequency": "90.1  MHz",
        "service": "FS",
        "owner": "TEMPLE UNIVERSITY OF THE COMMONWEALTH SYSTEM OF HIGHER ED",
        "city": "PHILADELPHIA",
        "state": "PA"
      }
    },
    {
      "type": "Feature",
      "geometry": {
        "type": "Point",
        "coordinates": [
          -79.575667,
          40.140806
        ]
      },
      "properties": {
        "id": "768778",
        "call_sign": "WLWS",
        "frequency": "90.1  MHz",
        "service": "FM",
        "owner": "BROADCAST EDUCATIONAL COMMUNICATIONS, INC.",
        "city": "SCOTTDALE",
        "state": "PA"
      }
    },
    {
      "type": "Feature",
      "geometry": {
        "type": "Point",
        "coordinates": [
          -76.898861,
          40.84175
        ]
      },
      "properties": {
        "id": "175641",
        "call_sign": "WFBV",
        "frequency": "90.1  MHz",
        "service": "FM",
        "owner": "BEAVER SPRINGS FAITH BAPTIST CHURCH, INC.",
        "city": "SELINSGROVE",
        "state": "PA"
      }
    },
    {
      "type": "Feature",
      "geometry": {
        "type": "Point",
        "coordinates": [
          -77.114944,
          41.457278
        ]
      },
      "properties": {
        "id": "106476",
        "call_sign": "WCDV-FM",
        "frequency": "90.1  MHz",
        "service": "FM",
        "owner": "FAMILY LIFE MINISTRIES, INC.",
        "city": "TROUT RUN",
        "state": "PA"
      }
    },
    {
      "type": "Feature",
      "geometry": {
        "type": "Point",
        "coordinates": [
          -77.380167,
          41.051639
        ]
      },
      "properties": {
        "id": "172335",
        "call_sign": "WJVM",
        "frequency": "90.3  MHz",
        "service": "FM",
        "owner": "VOICE OF DIVINE MERCY",
        "city": "BELLEFONTE",
        "state": "PA"
      }
    },
    {
      "type": "Feature",
      "geometry": {
        "type": "Point",
        "coordinates": [
          -75.686278,
          41.467
        ]
      },
      "properties": {
        "id": "49461",
        "call_sign": "W212AT",
        "frequency": "90.3  MHz",
        "service": "FX",
        "owner": "NORTHEASTERN PENNSYLVANIA EDUCATIONAL TELEVISION ASSOCIATION",
        "city": "CLARKS SUMMIT",
        "state": "PA"
      }
    },
    {
      "type": "Feature",
      "geometry": {
        "type": "Point",
        "coordinates": [
          -75.172111,
          40.998694
        ]
      },
      "properties": {
        "id": "18247",
        "call_sign": "WESS",
        "frequency": "90.3  MHz",
        "service": "FM",
        "owner": "EAST STROUDSBURG UNIVERSITY OF PENNSYLVANIA",
        "city": "EAST STROUDSBURG",
        "state": "PA"
      }
    },
    {
      "type": "Feature",
      "geometry": {
        "type": "Point",
        "coordinates": [
          -79.772,
          41.394222
        ]
      },
      "properties": {
        "id": "106553",
        "call_sign": "W212BK",
        "frequency": "90.3  MHz",
        "service": "FX",
        "owner": "FAMILY WORSHIP CENTER CHURCH, INC.",
        "city": "FRANKLIN",
        "state": "PA"
      }
    },
    {
      "type": "Feature",
      "geometry": {
        "type": "Point",
        "coordinates": [
          -76.461917,
          40.058694
        ]
      },
      "properties": {
        "id": "14467",
        "call_sign": "WJTL",
        "frequency": "90.3  MHz",
        "service": "FM",
        "owner": "CREATIVE MINISTRIES, INC.",
        "city": "LANCASTER",
        "state": "PA"
      }
    },
    {
      "type": "Feature",
      "geometry": {
        "type": "Point",
        "coordinates": [
          -80.143667,
          41.649194
        ]
      },
      "properties": {
        "id": "1055",
        "call_sign": "WARC",
        "frequency": "90.3  MHz",
        "service": "FM",
        "owner": "ALLEGHENY COLLEGE",
        "city": "MEADVILLE",
        "state": "PA"
      }
    },
    {
      "type": "Feature",
      "geometry": {
        "type": "Point",
        "coordinates": [
          -76.858583,
          41.89425
        ]
      },
      "properties": {
        "id": "20641",
        "call_sign": "WCDN-FM",
        "frequency": "90.3  MHz",
        "service": "FM",
        "owner": "FAMILY LIFE MINISTRIES, INC.",
        "city": "RIDGEBURY",
        "state": "PA"
      }
    },
    {
      "type": "Feature",
      "geometry": {
        "type": "Point",
        "coordinates": [
          -75.611,
          40.662028
        ]
      },
      "properties": {
        "id": "36983",
        "call_sign": "WLHI",
        "frequency": "90.3  MHz",
        "service": "FM",
        "owner": "FOUR RIVERS COMMUNITY BROADCASTING CORP.",
        "city": "SCHNECKSVILLE",
        "state": "PA"
      }
    },
    {
      "type": "Feature",
      "geometry": {
        "type": "Point",
        "coordinates": [
          -78.551417,
          41.076167
        ]
      },
      "properties": {
        "id": "175137",
        "call_sign": "WRVI",
        "frequency": "90.5  MHz",
        "service": "FM",
        "owner": "INVISIBLE ALLIES MINISTRIES",
        "city": "ALLPORT",
        "state": "PA"
      }
    },
    {
      "type": "Feature",
      "geometry": {
        "type": "Point",
        "coordinates": [
          -77.164139,
          40.711167
        ]
      },
      "properties": {
        "id": "174681",
        "call_sign": "WFBM",
        "frequency": "90.5  MHz",
        "service": "FM",
        "owner": "BEAVER SPRINGS FAITH BAPTIST CHURCH, INC.",
        "city": "BEAVER SPRINGS",
        "state": "PA"
      }
    },
    {
      "type": "Feature",
      "geometry": {
        "type": "Point",
        "coordinates": [
          -75.844639,
          40.412583
        ]
      },
      "properties": {
        "id": "174572",
        "call_sign": "WZXB",
        "frequency": "90.5  MHz",
        "service": "FM",
        "owner": "FOUR RIVERS COMMUNITY BROADCASTING CORP.",
        "city": "BECHTELSVILLE",
        "state": "PA"
      }
    },
    {
      "type": "Feature",
      "geometry": {
        "type": "Point",
        "coordinates": [
          -80.065611,
          42.042833
        ]
      },
      "properties": {
        "id": "23087",
        "call_sign": "WERG",
        "frequency": "90.5  MHz",
        "service": "FM",
        "owner": "GANNON UNIVERSITY",
        "city": "ERIE",
        "state": "PA"
      }
    },
    {
      "type": "Feature",
      "geometry": {
        "type": "Point",
        "coordinates": [
          -75.952417,
          40.969528
        ]
      },
      "properties": {
        "id": "81931",
        "call_sign": "W213BU",
        "frequency": "90.5  MHz",
        "service": "FX",
        "owner": "GOOD NEWS FOR LIFE",
        "city": "HAZLETON",
        "state": "PA"
      }
    },
    {
      "type": "Feature",
      "geometry": {
        "type": "Point",
        "coordinates": [
          -76.778111,
          41.339278
        ]
      },
      "properties": {
        "id": "768946",
        "call_sign": "WVAM-FM",
        "frequency": "90.5  MHz",
        "service": "FM",
        "owner": "CEDAR COVE BROADCASTING, INC.",
        "city": "HUNTERSVILLE",
        "state": "PA"
      }
    },
    {
      "type": "Feature",
      "geometry": {
        "type": "Point",
        "coordinates": [
          -76.384667,
          40.792306
        ]
      },
      "properties": {
        "id": "171604",
        "call_sign": "WFBA",
        "frequency": "90.5  MHz",
        "service": "FM",
        "owner": "BEAVER SPRINGS FAITH BAPTIST CHURCH, INC.",
        "city": "KULPMONT",
        "state": "PA"
      }
    },
    {
      "type": "Feature",
      "geometry": {
        "type": "Point",
        "coordinates": [
          -76.170194,
          41.678667
        ]
      },
      "properties": {
        "id": "177314",
        "call_sign": "WQOR",
        "frequency": "90.5  MHz",
        "service": "FM",
        "owner": "J.M.J. RADIO, INC.",
        "city": "LACEYVILLE",
        "state": "PA"
      }
    },
    {
      "type": "Feature",
      "geometry": {
        "type": "Point",
        "coordinates": [
          -76.881611,
          40.955083
        ]
      },
      "properties": {
        "id": "7722",
        "call_sign": "WVBU-FM",
        "frequency": "90.5  MHz",
        "service": "FM",
        "owner": "NORTHEASTERN PENNSYLVANIA EDUCATIONAL TELEVISION ASSOCIATION",
        "city": "LEWISBURG",
        "state": "PA"
      }
    },
    {
      "type": "Feature",
      "geometry": {
        "type": "Point",
        "coordinates": [
          -80.006722,
          40.431167
        ]
      },
      "properties": {
        "id": "17747",
        "call_sign": "WESA",
        "frequency": "90.5  MHz",
        "service": "FM",
        "owner": "PITTSBURGH COMMUNITY BROADCASTING CORPORATION",
        "city": "PITTSBURGH",
        "state": "PA"
      }
    },
    {
      "type": "Feature",
      "geometry": {
        "type": "Point",
        "coordinates": [
          -80.006722,
          40.431167
        ]
      },
      "properties": {
        "id": "17747",
        "call_sign": "WESA",
        "frequency": "90.5  MHz",
        "service": "FS",
        "owner": "PITTSBURGH COMMUNITY BROADCASTING CORPORATION",
        "city": "PITTSBURGH",
        "state": "PA"
      }
    },
    {
      "type": "Feature",
      "geometry": {
        "type": "Point",
        "coordinates": [
          -76.197444,
          40.322861
        ]
      },
      "properties": {
        "id": "65193",
        "call_sign": "W214AL",
        "frequency": "90.7  MHz",
        "service": "FX",
        "owner": "TEMPLE UNIVERSITY OF THE COMMONWEALTH SYSTEM OF HIGHER ED",
        "city": "DENVER, ETC.",
        "state": "PA"
      }
    },
    {
      "type": "Feature",
      "geometry": {
        "type": "Point",
        "coordinates": [
          -76.197444,
          40.322861
        ]
      },
      "properties": {
        "id": "65177",
        "call_sign": "WRTL",
        "frequency": "90.7  MHz",
        "service": "FM",
        "owner": "TEMPLE UNIVERSITY OF THE COMMONWEALTH SYSTEM OF HIGHER ED",
        "city": "EPHRATA",
        "state": "PA"
      }
    },
    {
      "type": "Feature",
      "geometry": {
        "type": "Point",
        "coordinates": [
          -76.983028,
          40.159528
        ]
      },
      "properties": {
        "id": "41312",
        "call_sign": "WVMM",
        "frequency": "90.7  MHz",
        "service": "FM",
        "owner": "MESSIAH UNIVERSITY",
        "city": "GRANTHAM",
        "state": "PA"
      }
    },
    {
      "type": "Feature",
      "geometry": {
        "type": "Point",
        "coordinates": [
          -77.023056,
          41.830472
        ]
      },
      "properties": {
        "id": "89607",
        "call_sign": "W214CF",
        "frequency": "90.7  MHz",
        "service": "FX",
        "owner": "PENSACOLA CHRISTIAN COLLEGE, INC.",
        "city": "MANSFIELD",
        "state": "PA"
      }
    },
    {
      "type": "Feature",
      "geometry": {
        "type": "Point",
        "coordinates": [
          -78.803083,
          40.505639
        ]
      },
      "properties": {
        "id": "90689",
        "call_sign": "WPAI",
        "frequency": "90.7  MHz",
        "service": "FM",
        "owner": "K-LOVE, INC.",
        "city": "NANTY GLO",
        "state": "PA"
      }
    },
    {
      "type": "Feature",
      "geometry": {
        "type": "Point",
        "coordinates": [
          -76.949972,
          39.863139
        ]
      },
      "properties": {
        "id": "173893",
        "call_sign": "WZXY",
        "frequency": "90.7  MHz",
        "service": "FM",
        "owner": "FOUR RIVERS COMMUNITY BROADCASTING CORP.",
        "city": "SPRING GROVE",
        "state": "PA"
      }
    },
    {
      "type": "Feature",
      "geometry": {
        "type": "Point",
        "coordinates": [
          -77.869444,
          40.7995
        ]
      },
      "properties": {
        "id": "65471",
        "call_sign": "WKPS",
        "frequency": "90.7  MHz",
        "service": "FM",
        "owner": "THE BOARD OF TRUSTEES OF PA STATE UNIVERSITY",
        "city": "STATE COLLEGE",
        "state": "PA"
      }
    },
    {
      "type": "Feature",
      "geometry": {
        "type": "Point",
        "coordinates": [
          -75.858806,
          41.186472
        ]
      },
      "properties": {
        "id": "72459",
        "call_sign": "WCLH",
        "frequency": "90.7  MHz",
        "service": "FM",
        "owner": "WILKES UNIVERSITY",
        "city": "WILKES-BARRE",
        "state": "PA"
      }
    },
    {
      "type": "Feature",
      "geometry": {
        "type": "Point",
        "coordinates": [
          -75.858806,
          41.186472
        ]
      },
      "properties": {
        "id": "72459",
        "call_sign": "WCLH",
        "frequency": "90.7  MHz",
        "service": "FM",
        "owner": "WILKES UNIVERSITY",
        "city": "WILKES-BARRE",
        "state": "PA"
      }
    },
    {
      "type": "Feature",
      "geometry": {
        "type": "Point",
        "coordinates": [
          -77.150528,
          41.231556
        ]
      },
      "properties": {
        "id": "93885",
        "call_sign": "WCRG",
        "frequency": "90.7  MHz",
        "service": "FM",
        "owner": "SALT AND LIGHT MEDIA MINISTRIES, INC.",
        "city": "WILLIAMSPORT",
        "state": "PA"
      }
    },
    {
      "type": "Feature",
      "geometry": {
        "type": "Point",
        "coordinates": [
          -76.708306,
          40.958694
        ]
      },
      "properties": {
        "id": "174767",
        "call_sign": "WEVW",
        "frequency": "90.9  MHz",
        "service": "FM",
        "owner": "FOUR RIVERS COMMUNITY BROADCASTING CORP.",
        "city": "ELYSBURG",
        "state": "PA"
      }
    },
    {
      "type": "Feature",
      "geometry": {
        "type": "Point",
        "coordinates": [
          -75.461278,
          41.547028
        ]
      },
      "properties": {
        "id": "91954",
        "call_sign": "WZZH",
        "frequency": "90.9  MHz",
        "service": "FM",
        "owner": "FOUR RIVERS COMMUNITY BROADCASTING CORP.",
        "city": "HONESDALE",
        "state": "PA"
      }
    },
    {
      "type": "Feature",
      "geometry": {
        "type": "Point",
        "coordinates": [
          -76.392417,
          41.502
        ]
      },
      "properties": {
        "id": "176743",
        "call_sign": "WCDR",
        "frequency": "90.9  MHz",
        "service": "FM",
        "owner": "FAMILY LIFE MINISTRIES, INC.",
        "city": "LAPORTE",
        "state": "PA"
      }
    },
    {
      "type": "Feature",
      "geometry": {
        "type": "Point",
        "coordinates": [
          -77.513889,
          40.572306
        ]
      },
      "properties": {
        "id": "58716",
        "call_sign": "WJRC",
        "frequency": "90.9  MHz",
        "service": "FM",
        "owner": "SALT AND LIGHT MEDIA MINISTRIES, INC",
        "city": "LEWISTOWN",
        "state": "PA"
      }
    },
    {
      "type": "Feature",
      "geometry": {
        "type": "Point",
        "coordinates": [
          -74.729972,
          41.373056
        ]
      },
      "properties": {
        "id": "92758",
        "call_sign": "W215BG",
        "frequency": "90.9  MHz",
        "service": "FX",
        "owner": "WAMC",
        "city": "MILFORD",
        "state": "PA"
      }
    },
    {
      "type": "Feature",
      "geometry": {
        "type": "Point",
        "coordinates": [
          -76.997472,
          40.518972
        ]
      },
      "properties": {
        "id": "67126",
        "call_sign": "W215AA",
        "frequency": "90.9  MHz",
        "service": "FX",
        "owner": "AMERICAN FAMILY ASSOCIATION, INC.",
        "city": "MILLERSBURG, ETC.",
        "state": "PA"
      }
    },
    {
      "type": "Feature",
      "geometry": {
        "type": "Point",
        "coordinates": [
          -75.239611,
          40.041778
        ]
      },
      "properties": {
        "id": "72336",
        "call_sign": "WHYY-FM",
        "frequency": "90.9  MHz",
        "service": "FM",
        "owner": "WHYY, INC.",
        "city": "PHILADELPHIA",
        "state": "PA"
      }
    },
    {
      "type": "Feature",
      "geometry": {
        "type": "Point",
        "coordinates": [
          -75.239417,
          40.041917
        ]
      },
      "properties": {
        "id": "72336",
        "call_sign": "WHYY-FM",
        "frequency": "90.9  MHz",
        "service": "FS",
        "owner": "WHYY, INC.",
        "city": "PHILADELPHIA",
        "state": "PA"
      }
    },
    {
      "type": "Feature",
      "geometry": {
        "type": "Point",
        "coordinates": [
          -79.055028,
          42.001722
        ]
      },
      "properties": {
        "id": "20653",
        "call_sign": "WCGN",
        "frequency": "90.9  MHz",
        "service": "FM",
        "owner": "FAMILY LIFE MINISTRIES, INC.",
        "city": "TIDIOUTE",
        "state": "PA"
      }
    },
    {
      "type": "Feature",
      "geometry": {
        "type": "Point",
        "coordinates": [
          -78.562611,
          40.29
        ]
      },
      "properties": {
        "id": "91927",
        "call_sign": "WCOX",
        "frequency": "91.1  MHz",
        "service": "FM",
        "owner": "FAMILY LIFE MINISTRIES, INC",
        "city": "BEDFORD",
        "state": "PA"
      }
    },
    {
      "type": "Feature",
      "geometry": {
        "type": "Point",
        "coordinates": [
          -76.447167,
          41.008139
        ]
      },
      "properties": {
        "id": "5881",
        "call_sign": "WHSK",
        "frequency": "91.1  MHz",
        "service": "FM",
        "owner": "COMMONWEALTH UNIVERSITY OF PENNSYLVANIA",
        "city": "BLOOMSBURG",
        "state": "PA"
      }
    },
    {
      "type": "Feature",
      "geometry": {
        "type": "Point",
        "coordinates": [
          -77.223583,
          39.841472
        ]
      },
      "properties": {
        "id": "24132",
        "call_sign": "WZBT",
        "frequency": "91.1  MHz",
        "service": "FM",
        "owner": "GETTYSBURG COLLEGE",
        "city": "GETTYSBURG",
        "state": "PA"
      }
    },
    {
      "type": "Feature",
      "geometry": {
        "type": "Point",
        "coordinates": [
          -79.900056,
          41.246722
        ]
      },
      "properties": {
        "id": "25463",
        "call_sign": "WSAJ-FM",
        "frequency": "91.1  MHz",
        "service": "FM",
        "owner": "GROVE CITY COLLEGE",
        "city": "GROVE CITY",
        "state": "PA"
      }
    },
    {
      "type": "Feature",
      "geometry": {
        "type": "Point",
        "coordinates": [
          -75.378778,
          41.044528
        ]
      },
      "properties": {
        "id": "65178",
        "call_sign": "WRTY",
        "frequency": "91.1  MHz",
        "service": "FM",
        "owner": "TEMPLE UNIVERSITY OF THE COMMONWEALTH SYSTEM OF HIGHER ED",
        "city": "JACKSON TOWNSHIP",
        "state": "PA"
      }
    },
    {
      "type": "Feature",
      "geometry": {
        "type": "Point",
        "coordinates": [
          -77.366917,
          41.229222
        ]
      },
      "properties": {
        "id": "763648",
        "call_sign": "WPMY",
        "frequency": "91.1  MHz",
        "service": "FM",
        "owner": "CENTRAL PENNSYLVANIA CHRISTIAN INSTITUTE, INC.",
        "city": "LOCK HAVEN",
        "state": "PA"
      }
    },
    {
      "type": "Feature",
      "geometry": {
        "type": "Point",
        "coordinates": [
          -76.746083,
          40.212306
        ]
      },
      "properties": {
        "id": "42004",
        "call_sign": "WMSS",
        "frequency": "91.1  MHz",
        "service": "FM",
        "owner": "MIDDLETOWN AREA SCHOOL DISTRICT",
        "city": "MIDDLETOWN",
        "state": "PA"
      }
    },
    {
      "type": "Feature",
      "geometry": {
        "type": "Point",
        "coordinates": [
          -78.7,
          41.4045
        ]
      },
      "properties": {
        "id": "176200",
        "call_sign": "WRPV",
        "frequency": "91.1  MHz",
        "service": "FM",
        "owner": "INVISIBLE ALLIES MINISTRIES",
        "city": "RIDGWAY",
        "state": "PA"
      }
    },
    {
      "type": "Feature",
      "geometry": {
        "type": "Point",
        "coordinates": [
          -75.360278,
          40.601722
        ]
      },
      "properties": {
        "id": "36984",
        "call_sign": "WLVR-FM",
        "frequency": "91.3  MHz",
        "service": "FM",
        "owner": "LEHIGH UNIVERSITY",
        "city": "BETHLEHEM",
        "state": "PA"
      }
    },
    {
      "type": "Feature",
      "geometry": {
        "type": "Point",
        "coordinates": [
          -75.359056,
          40.601194
        ]
      },
      "properties": {
        "id": "36984",
        "call_sign": "WLVR-FM",
        "frequency": "91.3  MHz",
        "service": "FM",
        "owner": "LEHIGH UNIVERSITY",
        "city": "BETHLEHEM",
        "state": "PA"
      }
    },
    {
      "type": "Feature",
      "geometry": {
        "type": "Point",
        "coordinates": [
          -77.277194,
          40.276472
        ]
      },
      "properties": {
        "id": "175197",
        "call_sign": "WPFG",
        "frequency": "91.3  MHz",
        "service": "FM",
        "owner": "CUMBERLAND VALLEY CHRISTIAN RADIO",
        "city": "CARLISLE",
        "state": "PA"
      }
    },
    {
      "type": "Feature",
      "geometry": {
        "type": "Point",
        "coordinates": [
          -80.065583,
          42.042
        ]
      },
      "properties": {
        "id": "53720",
        "call_sign": "WQLN-FM",
        "frequency": "91.3  MHz",
        "service": "FM",
        "owner": "PUBLIC BROADCASTING OF NORTHWEST PENNSYLVANIA, INC.",
        "city": "ERIE",
        "state": "PA"
      }
    },
    {
      "type": "Feature",
      "geometry": {
        "type": "Point",
        "coordinates": [
          -76.288278,
          40.070361
        ]
      },
      "properties": {
        "id": "61632",
        "call_sign": "WLCH-FM",
        "frequency": "91.3  MHz",
        "service": "FM",
        "owner": "SPANISH AMERICAN CIVIC ASSOCIATION FOR EQUALITY, INC.",
        "city": "LANCASTER",
        "state": "PA"
      }
    },
    {
      "type": "Feature",
      "geometry": {
        "type": "Point",
        "coordinates": [
          -77.277194,
          40.276472
        ]
      },
      "properties": {
        "id": "203376",
        "call_sign": "WPFG-FM1",
        "frequency": "91.3  MHz",
        "service": "FB",
        "owner": "CUMBERLAND VALLEY CHRISTIAN RADIO",
        "city": "LANDISBURG",
        "state": "PA"
      }
    },
    {
      "type": "Feature",
      "geometry": {
        "type": "Point",
        "coordinates": [
          -76.878861,
          40.944528
        ]
      },
      "properties": {
        "id": "58717",
        "call_sign": "WGRC",
        "frequency": "91.3  MHz",
        "service": "FM",
        "owner": "SALT AND LIGHT MEDIA MINISTRIES, INC",
        "city": "LEWISBURG",
        "state": "PA"
      }
    },
    {
      "type": "Feature",
      "geometry": {
        "type": "Point",
        "coordinates": [
          -79.931167,
          40.411722
        ]
      },
      "properties": {
        "id": "52745",
        "call_sign": "WYEP-FM",
        "frequency": "91.3  MHz",
        "service": "FM",
        "owner": "PITTSBURGH COMMUNITY BROADCASTING CORPORATION",
        "city": "PITTSBURGH",
        "state": "PA"
      }
    },
    {
      "type": "Feature",
      "geometry": {
        "type": "Point",
        "coordinates": [
          -75.906861,
          40.36925
        ]
      },
      "properties": {
        "id": "880",
        "call_sign": "WXAC",
        "frequency": "91.3  MHz",
        "service": "FM",
        "owner": "CENTRO HISPANO DANIEL TORRES, INC.",
        "city": "READING",
        "state": "PA"
      }
    },
    {
      "type": "Feature",
      "geometry": {
        "type": "Point",
        "coordinates": [
          -75.239611,
          40.041778
        ]
      },
      "properties": {
        "id": "123262",
        "call_sign": "NEW",
        "frequency": "91.3  MHz",
        "service": "FX",
        "owner": "FOUR RIVERS COMMUNITY B/CSTG CORPORATION",
        "city": "SHAWMONT",
        "state": "PA"
      }
    },
    {
      "type": "Feature",
      "geometry": {
        "type": "Point",
        "coordinates": [
          -76.071583,
          41.5245
        ]
      },
      "properties": {
        "id": "91944",
        "call_sign": "WCDJ",
        "frequency": "91.3  MHz",
        "service": "FM",
        "owner": "FAMILY LIFE MINISTRIES, INC.",
        "city": "TUNKHANNOCK",
        "state": "PA"
      }
    },
    {
      "type": "Feature",
      "geometry": {
        "type": "Point",
        "coordinates": [
          -77.023028,
          41.830083
        ]
      },
      "properties": {
        "id": "106481",
        "call_sign": "W218BN",
        "frequency": "91.5  MHz",
        "service": "FX",
        "owner": "FAMILY WORSHIP CENTER CHURCH, INC.",
        "city": "MANSFIELD",
        "state": "PA"
      }
    },
    {
      "type": "Feature",
      "geometry": {
        "type": "Point",
        "coordinates": [
          -75.163778,
          41.412028
        ]
      },
      "properties": {
        "id": "173824",
        "call_sign": "WPAU",
        "frequency": "91.5  MHz",
        "service": "FM",
        "owner": "NORTHEASTERN PENNSYLVANIA EDUCATIONAL TELEVISION ASSOCIATION",
        "city": "PALMYRA TOWNSHIP",
        "state": "PA"
      }
    },
    {
      "type": "Feature",
      "geometry": {
        "type": "Point",
        "coordinates": [
          -76.114917,
          40.849528
        ]
      },
      "properties": {
        "id": "90214",
        "call_sign": "WCDH",
        "frequency": "91.5  MHz",
        "service": "FM",
        "owner": "FAMILY LIFE MINISTRIES, INC.",
        "city": "SHENANDOAH",
        "state": "PA"
      }
    },
    {
      "type": "Feature",
      "geometry": {
        "type": "Point",
        "coordinates": [
          -77.974167,
          40.919778
        ]
      },
      "properties": {
        "id": "66239",
        "call_sign": "WPSU",
        "frequency": "91.5  MHz",
        "service": "FM",
        "owner": "THE PENNSYLVANIA STATE UNIVERSITY",
        "city": "STATE COLLEGE",
        "state": "PA"
      }
    },
    {
      "type": "Feature",
      "geometry": {
        "type": "Point",
        "coordinates": [
          -75.354056,
          39.905111
        ]
      },
      "properties": {
        "id": "64289",
        "call_sign": "WSRN-FM",
        "frequency": "91.5  MHz",
        "service": "FM",
        "owner": "SWARTHMORE COLLEGE",
        "city": "SWARTHMORE",
        "state": "PA"
      }
    },
    {
      "type": "Feature",
      "geometry": {
        "type": "Point",
        "coordinates": [
          -79.657806,
          41.600889
        ]
      },
      "properties": {
        "id": "53721",
        "call_sign": "W218AP",
        "frequency": "91.5  MHz",
        "service": "FX",
        "owner": "PUBLIC BROADCASTING OF NORTHWEST PENNSYLVANIA, INC.",
        "city": "TITUSVILLE",
        "state": "PA"
      }
    },
    {
      "type": "Feature",
      "geometry": {
        "type": "Point",
        "coordinates": [
          -76.676111,
          40.005833
        ]
      },
      "properties": {
        "id": "88126",
        "call_sign": "W220BX",
        "frequency": "91.5  MHz",
        "service": "FX",
        "owner": "CSN INTERNATIONAL, INC.",
        "city": "YORK",
        "state": "PA"
      }
    },
    {
      "type": "Feature",
      "geometry": {
        "type": "Point",
        "coordinates": [
          -75.510167,
          40.597861
        ]
      },
      "properties": {
        "id": "46947",
        "call_sign": "WMUH",
        "frequency": "91.7  MHz",
        "service": "FM",
        "owner": "MUHLENBERG COLLEGE",
        "city": "ALLENTOWN",
        "state": "PA"
      }
    },
    {
      "type": "Feature",
      "geometry": {
        "type": "Point",
        "coordinates": [
          -74.85625,
          40.15925
        ]
      },
      "properties": {
        "id": "7923",
        "call_sign": "WLBS",
        "frequency": "91.7  MHz",
        "service": "FM",
        "owner": "BUX-MONT EDUCATIONAL RADIO ASSOCIATION",
        "city": "BRISTOL",
        "state": "PA"
      }
    },
    {
      "type": "Feature",
      "geometry": {
        "type": "Point",
        "coordinates": [
          -79.37775,
          41.208972
        ]
      },
      "properties": {
        "id": "11663",
        "call_sign": "WCUC-FM",
        "frequency": "91.7  MHz",
        "service": "FM",
        "owner": "PENNSYLVANIA WESTERN UNIVERSITY",
        "city": "CLARION",
        "state": "PA"
      }
    },
    {
      "type": "Feature",
      "geometry": {
        "type": "Point",
        "coordinates": [
          -78.9825,
          40.371444
        ]
      },
      "properties": {
        "id": "26524",
        "call_sign": "W219DB",
        "frequency": "91.7  MHz",
        "service": "FX",
        "owner": "BIBLE BROADCASTING NETWORK, INC.",
        "city": "JOHNSTOWN",
        "state": "PA"
      }
    },
    {
      "type": "Feature",
      "geometry": {
        "type": "Point",
        "coordinates": [
          -76.360761,
          40.000981
        ]
      },
      "properties": {
        "id": "42651",
        "call_sign": "WIXQ",
        "frequency": "91.7  MHz",
        "service": "FM",
        "owner": "MILLERSVILLE UNIVERSITY",
        "city": "MILLERSVILLE",
        "state": "PA"
      }
    },
    {
      "type": "Feature",
      "geometry": {
        "type": "Point",
        "coordinates": [
          -79.428417,
          40.1555
        ]
      },
      "properties": {
        "id": "763776",
        "call_sign": "WLWG",
        "frequency": "91.7  MHz",
        "service": "FM",
        "owner": "GRACE FM, INC.",
        "city": "MOUNT PLEASANT",
        "state": "PA"
      }
    },
    {
      "type": "Feature",
      "geometry": {
        "type": "Point",
        "coordinates": [
          -79.428417,
          40.1555
        ]
      },
      "properties": {
        "id": "763776",
        "call_sign": "WLWG",
        "frequency": "91.7  MHz",
        "service": "FM",
        "owner": "GRACE FM, INC.",
        "city": "MOUNT PLEASANT",
        "state": "PA"
      }
    },
    {
      "type": "Feature",
      "geometry": {
        "type": "Point",
        "coordinates": [
          -76.392417,
          41.502
        ]
      },
      "properties": {
        "id": "177311",
        "call_sign": "WCOZ",
        "frequency": "91.7  MHz",
        "service": "FM",
        "owner": "J.M.J RADIO",
        "city": "NEW ALBANY",
        "state": "PA"
      }
    },
    {
      "type": "Feature",
      "geometry": {
        "type": "Point",
        "coordinates": [
          -75.190444,
          39.960111
        ]
      },
      "properties": {
        "id": "17596",
        "call_sign": "WKDU",
        "frequency": "91.7  MHz",
        "service": "FM",
        "owner": "DREXEL UNIVERSITY",
        "city": "PHILADELPHIA",
        "state": "PA"
      }
    },
    {
      "type": "Feature",
      "geometry": {
        "type": "Point",
        "coordinates": [
          -75.190444,
          39.960111
        ]
      },
      "properties": {
        "id": "17596",
        "call_sign": "WKDU",
        "frequency": "91.7  MHz",
        "service": "FS",
        "owner": "DREXEL UNIVERSITY",
        "city": "PHILADELPHIA",
        "state": "PA"
      }
    },
    {
      "type": "Feature",
      "geometry": {
        "type": "Point",
        "coordinates": [
          -75.631556,
          41.433944
        ]
      },
      "properties": {
        "id": "40634",
        "call_sign": "WVMW-FM",
        "frequency": "91.7  MHz",
        "service": "FM",
        "owner": "MARYWOOD UNIVERSITY",
        "city": "SCRANTON",
        "state": "PA"
      }
    },
    {
      "type": "Feature",
      "geometry": {
        "type": "Point",
        "coordinates": [
          -77.007194,
          40.305639
        ]
      },
      "properties": {
        "id": "65184",
        "call_sign": "WJAZ",
        "frequency": "91.7  MHz",
        "service": "FM",
        "owner": "TEMPLE UNIVERSITY OF THE COMMONWEALTH SYSTEM OF HIGHER ED",
        "city": "SUMMERDALE",
        "state": "PA"
      }
    },
    {
      "type": "Feature",
      "geometry": {
        "type": "Point",
        "coordinates": [
          -75.291028,
          40.313444
        ]
      },
      "properties": {
        "id": "68857",
        "call_sign": "WBMR",
        "frequency": "91.7  MHz",
        "service": "FM",
        "owner": "UNITED MINISTRIES",
        "city": "TELFORD",
        "state": "PA"
      }
    },
    {
      "type": "Feature",
      "geometry": {
        "type": "Point",
        "coordinates": [
          -75.291,
          40.313417
        ]
      },
      "properties": {
        "id": "68857",
        "call_sign": "WBMR",
        "frequency": "91.7  MHz",
        "service": "FS",
        "owner": "UNITED MINISTRIES",
        "city": "TELFORD",
        "state": "PA"
      }
    },
    {
      "type": "Feature",
      "geometry": {
        "type": "Point",
        "coordinates": [
          -80.241611,
          40.131167
        ]
      },
      "properties": {
        "id": "70942",
        "call_sign": "WNJR",
        "frequency": "91.7  MHz",
        "service": "FM",
        "owner": "WASHINGTON & JEFFERSON COLLEGE",
        "city": "WASHINGTON",
        "state": "PA"
      }
    },
    {
      "type": "Feature",
      "geometry": {
        "type": "Point",
        "coordinates": [
          -75.599083,
          39.950639
        ]
      },
      "properties": {
        "id": "63564",
        "call_sign": "WCUR",
        "frequency": "91.7  MHz",
        "service": "FM",
        "owner": "STUDENT SERVICES, INC.",
        "city": "WEST CHESTER",
        "state": "PA"
      }
    },
    {
      "type": "Feature",
      "geometry": {
        "type": "Point",
        "coordinates": [
          -75.911611,
          39.822056
        ]
      },
      "properties": {
        "id": "173248",
        "call_sign": "WZWG",
        "frequency": "91.7  MHz",
        "service": "FM",
        "owner": "CALVARY CHAPEL OF MARLTON",
        "city": "WEST GROVE",
        "state": "PA"
      }
    },
    {
      "type": "Feature",
      "geometry": {
        "type": "Point",
        "coordinates": [
          -76.996889,
          41.245056
        ]
      },
      "properties": {
        "id": "39273",
        "call_sign": "WRLC",
        "frequency": "91.7  MHz",
        "service": "FM",
        "owner": "LYCOMING COLLEGE",
        "city": "WILLIAMSPORT",
        "state": "PA"
      }
    },
    {
      "type": "Feature",
      "geometry": {
        "type": "Point",
        "coordinates": [
          -79.90325,
          40.047444
        ]
      },
      "properties": {
        "id": "63559",
        "call_sign": "WCAL",
        "frequency": "91.9  MHz",
        "service": "FM",
        "owner": "THE STUDENT ASSOCIATION, INC.",
        "city": "CALIFORNIA",
        "state": "PA"
      }
    },
    {
      "type": "Feature",
      "geometry": {
        "type": "Point",
        "coordinates": [
          -75.462944,
          41.542861
        ]
      },
      "properties": {
        "id": "91847",
        "call_sign": "W220CO",
        "frequency": "91.9  MHz",
        "service": "FX",
        "owner": "LIFETALK RADIO, INC.",
        "city": "CARBONDALE",
        "state": "PA"
      }
    },
    {
      "type": "Feature",
      "geometry": {
        "type": "Point",
        "coordinates": [
          -78.322778,
          40.729778
        ]
      },
      "properties": {
        "id": "172334",
        "call_sign": "WMMH",
        "frequency": "91.9  MHz",
        "service": "FM",
        "owner": "J.M.J. RADIO, INC.",
        "city": "HOUTZDALE",
        "state": "PA"
      }
    },
    {
      "type": "Feature",
      "geometry": {
        "type": "Point",
        "coordinates": [
          -76.384667,
          40.792306
        ]
      },
      "properties": {
        "id": "174790",
        "call_sign": "WZRG",
        "frequency": "91.9  MHz",
        "service": "FM",
        "owner": "SALT AND LIGHT MEDIA MINISTRIES, INC.",
        "city": "KULPMONT",
        "state": "PA"
      }
    },
    {
      "type": "Feature",
      "geometry": {
        "type": "Point",
        "coordinates": [
          -80.177,
          41.630611
        ]
      },
      "properties": {
        "id": "88021",
        "call_sign": "WVME",
        "frequency": "91.9  MHz",
        "service": "FM",
        "owner": "THE MOODY BIBLE INSTITUTE OF CHICAGO",
        "city": "MEADVILLE",
        "state": "PA"
      }
    },
    {
      "type": "Feature",
      "geometry": {
        "type": "Point",
        "coordinates": [
          -79.682806,
          41.429778
        ]
      },
      "properties": {
        "id": "53732",
        "call_sign": "W220BA",
        "frequency": "91.9  MHz",
        "service": "FX",
        "owner": "PUBLIC BROADCASTING OF NORTHWEST PENNSYLVANIA, INC",
        "city": "OIL CITY",
        "state": "PA"
      }
    },
    {
      "type": "Feature",
      "geometry": {
        "type": "Point",
        "coordinates": [
          -75.953806,
          40.185917
        ]
      },
      "properties": {
        "id": "91726",
        "call_sign": "WYTL",
        "frequency": "91.9  MHz",
        "service": "FM",
        "owner": "FOUR RIVERS COMMUNITY BROADCASTING CORP.",
        "city": "WYOMISSING",
        "state": "PA"
      }
    },
    {
      "type": "Feature",
      "geometry": {
        "type": "Point",
        "coordinates": [
          -76.676083,
          40.005944
        ]
      },
      "properties": {
        "id": "88126",
        "call_sign": "W220BX",
        "frequency": "91.9  MHz",
        "service": "FX",
        "owner": "CSN INTERNATIONAL, INC.",
        "city": "YORK",
        "state": "PA"
      }
    },
    {
      "type": "Feature",
      "geometry": {
        "type": "Point",
        "coordinates": [
          -75.439917,
          40.564556
        ]
      },
      "properties": {
        "id": "139244",
        "call_sign": "W221CU",
        "frequency": "92.1  MHz",
        "service": "FX",
        "owner": "BEACON BROADCASTING CORPORATION",
        "city": "ALLENTOWN",
        "state": "PA"
      }
    },
    {
      "type": "Feature",
      "geometry": {
        "type": "Point",
        "coordinates": [
          -78.760333,
          41.103167
        ]
      },
      "properties": {
        "id": "85865",
        "call_sign": "W221BD",
        "frequency": "92.1  MHz",
        "service": "FX",
        "owner": "THE PENNSYLVANIA STATE UNIVERSITY",
        "city": "DUBOIS",
        "state": "PA"
      }
    },
    {
      "type": "Feature",
      "geometry": {
        "type": "Point",
        "coordinates": [
          -80.282,
          40.769222
        ]
      },
      "properties": {
        "id": "24999",
        "call_sign": "WKPL",
        "frequency": "92.1  MHz",
        "service": "FM",
        "owner": "FM RADIO LICENSES, LLC",
        "city": "ELLWOOD CITY",
        "state": "PA"
      }
    },
    {
      "type": "Feature",
      "geometry": {
        "type": "Point",
        "coordinates": [
          -80.282,
          40.769222
        ]
      },
      "properties": {
        "id": "24999",
        "call_sign": "WKPL",
        "frequency": "92.1  MHz",
        "service": "FM",
        "owner": "FM RADIO LICENSES, LLC",
        "city": "ELLWOOD CITY",
        "state": "PA"
      }
    },
    {
      "type": "Feature",
      "geometry": {
        "type": "Point",
        "coordinates": [
          -80.282,
          40.7695
        ]
      },
      "properties": {
        "id": "24999",
        "call_sign": "WKPL",
        "frequency": "92.1  MHz",
        "service": "FS",
        "owner": "FM RADIO LICENSES, LLC",
        "city": "ELLWOOD CITY",
        "state": "PA"
      }
    },
    {
      "type": "Feature",
      "geometry": {
        "type": "Point",
        "coordinates": [
          -80.081833,
          42.125528
        ]
      },
      "properties": {
        "id": "139247",
        "call_sign": "W221DI",
        "frequency": "92.1  MHz",
        "service": "FX",
        "owner": "HOLY FAMILY COMMUNICATIONS",
        "city": "ERIE",
        "state": "PA"
      }
    },
    {
      "type": "Feature",
      "geometry": {
        "type": "Point",
        "coordinates": [
          -78.983611,
          40.370889
        ]
      },
      "properties": {
        "id": "64848",
        "call_sign": "WJHT",
        "frequency": "92.1  MHz",
        "service": "FM",
        "owner": "SOUTHERN BELLE MEDIA FAMILY, LLC",
        "city": "JOHNSTOWN",
        "state": "PA"
      }
    },
    {
      "type": "Feature",
      "geometry": {
        "type": "Point",
        "coordinates": [
          -77.491083,
          41.146167
        ]
      },
      "properties": {
        "id": "37741",
        "call_sign": "WSQV",
        "frequency": "92.1  MHz",
        "service": "FM",
        "owner": "SCHLESINGER COMMUNICATIONS, INC.",
        "city": "LOCK HAVEN",
        "state": "PA"
      }
    },
    {
      "type": "Feature",
      "geometry": {
        "type": "Point",
        "coordinates": [
          -77.806139,
          39.810278
        ]
      },
      "properties": {
        "id": "39495",
        "call_sign": "WBHB",
        "frequency": "92.1  MHz",
        "service": "FM",
        "owner": "HJV LIMITED PARTNERSHIP",
        "city": "MERCERSBURG",
        "state": "PA"
      }
    },
    {
      "type": "Feature",
      "geometry": {
        "type": "Point",
        "coordinates": [
          -75.858806,
          41.186472
        ]
      },
      "properties": {
        "id": "66366",
        "call_sign": "WQFM",
        "frequency": "92.1  MHz",
        "service": "FM",
        "owner": "TIMES SHAMROCK MEDIA, L.P.",
        "city": "NANTICOKE",
        "state": "PA"
      }
    },
    {
      "type": "Feature",
      "geometry": {
        "type": "Point",
        "coordinates": [
          -75.858806,
          41.186472
        ]
      },
      "properties": {
        "id": "66366",
        "call_sign": "WQFM",
        "frequency": "92.1  MHz",
        "service": "FS",
        "owner": "TIMES SHAMROCK MEDIA, L.P.",
        "city": "NANTICOKE",
        "state": "PA"
      }
    },
    {
      "type": "Feature",
      "geometry": {
        "type": "Point",
        "coordinates": [
          -75.874917,
          41.183139
        ]
      },
      "properties": {
        "id": "66366",
        "call_sign": "WQFM",
        "frequency": "92.1  MHz",
        "service": "FS",
        "owner": "TIMES SHAMROCK MEDIA, L.P.",
        "city": "NANTICOKE",
        "state": "PA"
      }
    },
    {
      "type": "Feature",
      "geometry": {
        "type": "Point",
        "coordinates": [
          -76.724944,
          40.391194
        ]
      },
      "properties": {
        "id": "12050",
        "call_sign": "WKHL",
        "frequency": "92.1  MHz",
        "service": "FM",
        "owner": "K-LOVE, INC.",
        "city": "PALMYRA",
        "state": "PA"
      }
    },
    {
      "type": "Feature",
      "geometry": {
        "type": "Point",
        "coordinates": [
          -79.953111,
          40.444222
        ]
      },
      "properties": {
        "id": "68946",
        "call_sign": "WPTS-FM",
        "frequency": "92.1  MHz",
        "service": "FM",
        "owner": "UNIVERSITY OF PITTSBURGH - COMMON WEALTH SYSTEM EDU",
        "city": "PITTSBURGH",
        "state": "PA"
      }
    },
    {
      "type": "Feature",
      "geometry": {
        "type": "Point",
        "coordinates": [
          -79.953056,
          40.444167
        ]
      },
      "properties": {
        "id": "68946",
        "call_sign": "WPTS-FM",
        "frequency": "92.1  MHz",
        "service": "FS",
        "owner": "UNIVERSITY OF PITTSBURGH - COMMON WEALTH SYSTEM EDU",
        "city": "PITTSBURGH",
        "state": "PA"
      }
    },
    {
      "type": "Feature",
      "geometry": {
        "type": "Point",
        "coordinates": [
          -76.563,
          42.024222
        ]
      },
      "properties": {
        "id": "5200",
        "call_sign": "W221AS",
        "frequency": "92.1  MHz",
        "service": "FX",
        "owner": "BIBLE LIGHTHOUSE, INC.",
        "city": "SAYRE",
        "state": "PA"
      }
    },
    {
      "type": "Feature",
      "geometry": {
        "type": "Point",
        "coordinates": [
          -79.703028,
          39.777556
        ]
      },
      "properties": {
        "id": "49936",
        "call_sign": "WKTQ",
        "frequency": "92.3  MHz",
        "service": "FM",
        "owner": "BROADCAST COMMUNICATIONS, INC.",
        "city": "CHALKHILL",
        "state": "PA"
      }
    },
    {
      "type": "Feature",
      "geometry": {
        "type": "Point",
        "coordinates": [
          -79.700833,
          40.288889
        ]
      },
      "properties": {
        "id": "156023",
        "call_sign": "W222CB",
        "frequency": "92.3  MHz",
        "service": "FX",
        "owner": "BROADCAST COMMUNICATIONS, INC.",
        "city": "IRWIN",
        "state": "PA"
      }
    },
    {
      "type": "Feature",
      "geometry": {
        "type": "Point",
        "coordinates": [
          -75.892694,
          40.322028
        ]
      },
      "properties": {
        "id": "138520",
        "call_sign": "W222BY",
        "frequency": "92.3  MHz",
        "service": "FX",
        "owner": "K-LOVE, INC.",
        "city": "LAURELDALE",
        "state": "PA"
      }
    },
    {
      "type": "Feature",
      "geometry": {
        "type": "Point",
        "coordinates": [
          -77.093556,
          41.898111
        ]
      },
      "properties": {
        "id": "78437",
        "call_sign": "WOGA",
        "frequency": "92.3  MHz",
        "service": "FM",
        "owner": "SOUTHERN BELLE, LLC",
        "city": "MANSFIELD",
        "state": "PA"
      }
    },
    {
      "type": "Feature",
      "geometry": {
        "type": "Point",
        "coordinates": [
          -78.834472,
          39.957306
        ]
      },
      "properties": {
        "id": "140904",
        "call_sign": "W222AP",
        "frequency": "92.3  MHz",
        "service": "FX",
        "owner": "PITTSBURGH COMMUNITY BROADCASTING CORPORATION",
        "city": "NEW BALTIMORE",
        "state": "PA"
      }
    },
    {
      "type": "Feature",
      "geometry": {
        "type": "Point",
        "coordinates": [
          -76.714389,
          40.958417
        ]
      },
      "properties": {
        "id": "8552",
        "call_sign": "WHNA",
        "frequency": "92.3  MHz",
        "service": "FM",
        "owner": "SOUTHERN BELLE, LLC",
        "city": "RIVERSIDE",
        "state": "PA"
      }
    },
    {
      "type": "Feature",
      "geometry": {
        "type": "Point",
        "coordinates": [
          -75.300889,
          40.859472
        ]
      },
      "properties": {
        "id": "142659",
        "call_sign": "W222BV",
        "frequency": "92.3  MHz",
        "service": "FX",
        "owner": "MAJOR KEYSTONE LLC",
        "city": "STROUDSBURG",
        "state": "PA"
      }
    },
    {
      "type": "Feature",
      "geometry": {
        "type": "Point",
        "coordinates": [
          -79.167528,
          41.813944
        ]
      },
      "properties": {
        "id": "34927",
        "call_sign": "WRRN",
        "frequency": "92.3  MHz",
        "service": "FM",
        "owner": "LILLY BROADCASTING OF PENNSYLVANIA LLC",
        "city": "WARREN",
        "state": "PA"
      }
    },
    {
      "type": "Feature",
      "geometry": {
        "type": "Point",
        "coordinates": [
          -79.63225,
          39.913972
        ]
      },
      "properties": {
        "id": "148636",
        "call_sign": "W223BY",
        "frequency": "92.5  MHz",
        "service": "FX",
        "owner": "K-LOVE, INC.",
        "city": "CONNELLSVILLE",
        "state": "PA"
      }
    },
    {
      "type": "Feature",
      "geometry": {
        "type": "Point",
        "coordinates": [
          -79.146139,
          40.638111
        ]
      },
      "properties": {
        "id": "56644",
        "call_sign": "WQMU",
        "frequency": "92.5  MHz",
        "service": "FM",
        "owner": "THE ST PIER GROUP LLC",
        "city": "INDIANA",
        "state": "PA"
      }
    },
    {
      "type": "Feature",
      "geometry": {
        "type": "Point",
        "coordinates": [
          -76.306056,
          40.038417
        ]
      },
      "properties": {
        "id": "155427",
        "call_sign": "W223CH",
        "frequency": "92.5  MHz",
        "service": "FX",
        "owner": "FOUR RIVERS COMMUNITY BROADCASTING CORPORATION",
        "city": "LANCASTER",
        "state": "PA"
      }
    },
    {
      "type": "Feature",
      "geometry": {
        "type": "Point",
        "coordinates": [
          -77.513889,
          40.572306
        ]
      },
      "properties": {
        "id": "62367",
        "call_sign": "WIBF",
        "frequency": "92.5  MHz",
        "service": "FM",
        "owner": "SOUTHERN BELLE, LLC",
        "city": "MEXICO",
        "state": "PA"
      }
    },
    {
      "type": "Feature",
      "geometry": {
        "type": "Point",
        "coordinates": [
          -75.236833,
          40.038722
        ]
      },
      "properties": {
        "id": "74213",
        "call_sign": "WXTU",
        "frequency": "92.5  MHz",
        "service": "FM",
        "owner": "BEASLEY MEDIA GROUP LICENSES, LLC",
        "city": "PHILADELPHIA",
        "state": "PA"
      }
    },
    {
      "type": "Feature",
      "geometry": {
        "type": "Point",
        "coordinates": [
          -75.236,
          40.041778
        ]
      },
      "properties": {
        "id": "74213",
        "call_sign": "WXTU",
        "frequency": "92.5  MHz",
        "service": "FS",
        "owner": "BEASLEY MEDIA GROUP LICENSES, LLC",
        "city": "PHILADELPHIA",
        "state": "PA"
      }
    },
    {
      "type": "Feature",
      "geometry": {
        "type": "Point",
        "coordinates": [
          -75.236556,
          40.039278
        ]
      },
      "properties": {
        "id": "74213",
        "call_sign": "WXTU",
        "frequency": "92.5  MHz",
        "service": "FS",
        "owner": "BEASLEY MEDIA GROUP LICENSES, LLC",
        "city": "PHILADELPHIA",
        "state": "PA"
      }
    },
    {
      "type": "Feature",
      "geometry": {
        "type": "Point",
        "coordinates": [
          -79.961444,
          40.397278
        ]
      },
      "properties": {
        "id": "145973",
        "call_sign": "W223CS",
        "frequency": "92.5  MHz",
        "service": "FX",
        "owner": "SALEM COMMUNICATIONS HOLDING CORPORATION",
        "city": "PITTSBURGH",
        "state": "PA"
      }
    },
    {
      "type": "Feature",
      "geometry": {
        "type": "Point",
        "coordinates": [
          -75.866861,
          41.183694
        ]
      },
      "properties": {
        "id": "139590",
        "call_sign": "W223CC",
        "frequency": "92.5  MHz",
        "service": "FX",
        "owner": "FAMILY LIFE MINISTRIES, INC.",
        "city": "WILKES-BARRE",
        "state": "PA"
      }
    },
    {
      "type": "Feature",
      "geometry": {
        "type": "Point",
        "coordinates": [
          -75.42975,
          40.571694
        ]
      },
      "properties": {
        "id": "41200",
        "call_sign": "W224AU",
        "frequency": "92.7  MHz",
        "service": "FX",
        "owner": "MERCER COUNTY COMMUNITY COLLEGE",
        "city": "ALLENTOWN",
        "state": "PA"
      }
    },
    {
      "type": "Feature",
      "geometry": {
        "type": "Point",
        "coordinates": [
          -77.626278,
          39.914361
        ]
      },
      "properties": {
        "id": "195520",
        "call_sign": "WEMR-LP",
        "frequency": "92.7  MHz",
        "service": "FL",
        "owner": "CHAMBERSBURG AREA SCHOOL DISTRICT",
        "city": "CHAMBERSBURG",
        "state": "PA"
      }
    },
    {
      "type": "Feature",
      "geometry": {
        "type": "Point",
        "coordinates": [
          -79.261417,
          41.244778
        ]
      },
      "properties": {
        "id": "11661",
        "call_sign": "WCCR-FM",
        "frequency": "92.7  MHz",
        "service": "FM",
        "owner": "SOUTHERN BELLE, LLC",
        "city": "CLARION",
        "state": "PA"
      }
    },
    {
      "type": "Feature",
      "geometry": {
        "type": "Point",
        "coordinates": [
          -80.408972,
          41.384917
        ]
      },
      "properties": {
        "id": "201585",
        "call_sign": "W224DW",
        "frequency": "92.7  MHz",
        "service": "FX",
        "owner": "VCI RADIO, INC.",
        "city": "GREENVILLE",
        "state": "PA"
      }
    },
    {
      "type": "Feature",
      "geometry": {
        "type": "Point",
        "coordinates": [
          -80.117,
          42.123667
        ]
      },
      "properties": {
        "id": "189528",
        "call_sign": "WICU-FM",
        "frequency": "92.7  MHz",
        "service": "FM",
        "owner": "SJL OF PENNSYLVANIA, INC.",
        "city": "LAWRENCE PARK",
        "state": "PA"
      }
    },
    {
      "type": "Feature",
      "geometry": {
        "type": "Point",
        "coordinates": [
          -76.957778,
          41.218611
        ]
      },
      "properties": {
        "id": "36238",
        "call_sign": "W224AI",
        "frequency": "92.7  MHz",
        "service": "FX",
        "owner": "SALT AND LIGHT MEDIA MINISTRIES, INC.",
        "city": "LOYALSOCK",
        "state": "PA"
      }
    },
    {
      "type": "Feature",
      "geometry": {
        "type": "Point",
        "coordinates": [
          -78.415556,
          40.347306
        ]
      },
      "properties": {
        "id": "40503",
        "call_sign": "WJSM-FM",
        "frequency": "92.7  MHz",
        "service": "FM",
        "owner": "MARTINSBURG BROADCASTING, INC.",
        "city": "MARTINSBURG",
        "state": "PA"
      }
    },
    {
      "type": "Feature",
      "geometry": {
        "type": "Point",
        "coordinates": [
          -76.783611,
          42.031944
        ]
      },
      "properties": {
        "id": "77925",
        "call_sign": "WENI-FM",
        "frequency": "92.7  MHz",
        "service": "FM",
        "owner": "SOUTHERN BELLE, LLC",
        "city": "SOUTH WAVERLY",
        "state": "PA"
      }
    },
    {
      "type": "Feature",
      "geometry": {
        "type": "Point",
        "coordinates": [
          -76.800528,
          40.075639
        ]
      },
      "properties": {
        "id": "62368",
        "call_sign": "WKYJ",
        "frequency": "92.7  MHz",
        "service": "FM",
        "owner": "K-LOVE, INC.",
        "city": "STARVIEW",
        "state": "PA"
      }
    },
    {
      "type": "Feature",
      "geometry": {
        "type": "Point",
        "coordinates": [
          -75.479944,
          40.088139
        ]
      },
      "properties": {
        "id": "193177",
        "call_sign": "WZML-LP",
        "frequency": "92.9  MHz",
        "service": "FL",
        "owner": "THE INGE DAVIDSON FOUNDATION",
        "city": "BRYN MAWR",
        "state": "PA"
      }
    },
    {
      "type": "Feature",
      "geometry": {
        "type": "Point",
        "coordinates": [
          -80.060611,
          41.788944
        ]
      },
      "properties": {
        "id": "133366",
        "call_sign": "WXCS-LP",
        "frequency": "92.9  MHz",
        "service": "FL",
        "owner": "CAMBRIDGE COMMUNITY RADIO ASSOCIATION",
        "city": "CAMBRIDGE SPRINGS",
        "state": "PA"
      }
    },
    {
      "type": "Feature",
      "geometry": {
        "type": "Point",
        "coordinates": [
          -76.112453,
          40.007561
        ]
      },
      "properties": {
        "id": "135143",
        "call_sign": "WNUZ-LP",
        "frequency": "92.9  MHz",
        "service": "FL",
        "owner": "WLRI INCORPORATED",
        "city": "GAP",
        "state": "PA"
      }
    },
    {
      "type": "Feature",
      "geometry": {
        "type": "Point",
        "coordinates": [
          -77.513889,
          40.572306
        ]
      },
      "properties": {
        "id": "151391",
        "call_sign": "W225CK",
        "frequency": "92.9  MHz",
        "service": "FX",
        "owner": "SOUTHERN BELLE, LLC",
        "city": "LEWISTOWN",
        "state": "PA"
      }
    },
    {
      "type": "Feature",
      "geometry": {
        "type": "Point",
        "coordinates": [
          -75.174889,
          40.035389
        ]
      },
      "properties": {
        "id": "195802",
        "call_sign": "WRLG-LP",
        "frequency": "92.9  MHz",
        "service": "FL",
        "owner": "GERMANTOWN LIFE ENRICHMENT CENTER",
        "city": "PHILADELPHIA",
        "state": "PA"
      }
    },
    {
      "type": "Feature",
      "geometry": {
        "type": "Point",
        "coordinates": [
          -75.174889,
          40.035389
        ]
      },
      "properties": {
        "id": "192746",
        "call_sign": "WGGT-LP",
        "frequency": "92.9  MHz",
        "service": "FL",
        "owner": "G-TOWN RADIO",
        "city": "PHILADELPHIA",
        "state": "PA"
      }
    },