{
  "type": "FeatureCollection",
  "features": [
    {
      "type": "Feature",
      "geometry": {
        "type": "Point",
        "coordinates": [
          -88.200444,
          36.054194
        ]
      },
      "properties": {
        "id": "767841",
        "call_sign": "WJIG",
        "frequency": "88.1  MHz",
        "service": "FM",
        "owner": "MEET MINISTRY",
        "city": "BRUCETON",
        "state": "TN"
      }
    },
    {
      "type": "Feature",
      "geometry": {
        "type": "Point",
        "coordinates": [
          -85.281056,
          35.207278
        ]
      },
      "properties": {
        "id": "69325",
        "call_sign": "WUTC",
        "frequency": "88.1  MHz",
        "service": "FM",
        "owner": "UNIVERSITY OF TENNESSEE",
        "city": "CHATTANOOGA",
        "state": "TN"
      }
    },
    {
      "type": "Feature",
      "geometry": {
        "type": "Point",
        "coordinates": [
          -88.858389,
          35.660611
        ]
      },
      "properties": {
        "id": "1524",
        "call_sign": "WAMP",
        "frequency": "88.1  MHz",
        "service": "FM",
        "owner": "AMERICAN FAMILY ASSOCIATION",
        "city": "JACKSON",
        "state": "TN"
      }
    },
    {
      "type": "Feature",
      "geometry": {
        "type": "Point",
        "coordinates": [
          -86.2575,
          36.293472
        ]
      },
      "properties": {
        "id": "176028",
        "call_sign": "WRSN",
        "frequency": "88.1  MHz",
        "service": "FM",
        "owner": "RISEN RADIO, INC.",
        "city": "LEBANON",
        "state": "TN"
      }
    },
    {
      "type": "Feature",
      "geometry": {
        "type": "Point",
        "coordinates": [
          -86.804694,
          36.166722
        ]
      },
      "properties": {
        "id": "21666",
        "call_sign": "WFSK-FM",
        "frequency": "88.1  MHz",
        "service": "FM",
        "owner": "FISK UNIVERSITY",
        "city": "NASHVILLE",
        "state": "TN"
      }
    },
    {
      "type": "Feature",
      "geometry": {
        "type": "Point",
        "coordinates": [
          -88.241694,
          35.216194
        ]
      },
      "properties": {
        "id": "88091",
        "call_sign": "WAZD",
        "frequency": "88.1  MHz",
        "service": "FM",
        "owner": "AMERICAN FAMILY ASSOCIATION",
        "city": "SAVANNAH",
        "state": "TN"
      }
    },
    {
      "type": "Feature",
      "geometry": {
        "type": "Point",
        "coordinates": [
          -87.305556,
          36.293389
        ]
      },
      "properties": {
        "id": "83853",
        "call_sign": "WAYQ",
        "frequency": "88.3  MHz",
        "service": "FM",
        "owner": "HOPE MEDIA GROUP",
        "city": "CLARKSVILLE",
        "state": "TN"
      }
    },
    {
      "type": "Feature",
      "geometry": {
        "type": "Point",
        "coordinates": [
          -85.783861,
          35.838944
        ]
      },
      "properties": {
        "id": "176989",
        "call_sign": "WRCC",
        "frequency": "88.3  MHz",
        "service": "FM",
        "owner": "SOUTH CENTRAL OKLAHOMA CHRISTIAN BROADCASTING INC",
        "city": "DIBRELL",
        "state": "TN"
      }
    },
    {
      "type": "Feature",
      "geometry": {
        "type": "Point",
        "coordinates": [
          -89.408972,
          36.045361
        ]
      },
      "properties": {
        "id": "88256",
        "call_sign": "W202BG",
        "frequency": "88.3  MHz",
        "service": "FX",
        "owner": "BIBLE BROADCASTING NETWORK, INC.",
        "city": "DYERSBURG",
        "state": "TN"
      }
    },
    {
      "type": "Feature",
      "geometry": {
        "type": "Point",
        "coordinates": [
          -82.137611,
          36.431472
        ]
      },
      "properties": {
        "id": "53101",
        "call_sign": "WCQR-FM",
        "frequency": "88.3  MHz",
        "service": "FM",
        "owner": "POSITIVE ALTERNATIVE RADIO, INC.",
        "city": "KINGSPORT",
        "state": "TN"
      }
    },
    {
      "type": "Feature",
      "geometry": {
        "type": "Point",
        "coordinates": [
          -83.942778,
          36.003639
        ]
      },
      "properties": {
        "id": "81317",
        "call_sign": "WYLV",
        "frequency": "88.3  MHz",
        "service": "FM",
        "owner": "K-LOVE, INC.",
        "city": "MAYNARDVILLE",
        "state": "TN"
      }
    },
    {
      "type": "Feature",
      "geometry": {
        "type": "Point",
        "coordinates": [
          -86.353056,
          35.848944
        ]
      },
      "properties": {
        "id": "41998",
        "call_sign": "WMTS-FM",
        "frequency": "88.3  MHz",
        "service": "FM",
        "owner": "MIDDLE TENNESSEE STATE UNIVERSITY",
        "city": "MURFREESBORO",
        "state": "TN"
      }
    },
    {
      "type": "Feature",
      "geometry": {
        "type": "Point",
        "coordinates": [
          -86.457778,
          35.48175
        ]
      },
      "properties": {
        "id": "81729",
        "call_sign": "WBIA",
        "frequency": "88.3  MHz",
        "service": "FM",
        "owner": "AMERICAN FAMILY ASSOCIATION",
        "city": "SHELBYVILLE",
        "state": "TN"
      }
    },
    {
      "type": "Feature",
      "geometry": {
        "type": "Point",
        "coordinates": [
          -85.333806,
          35.129222
        ]
      },
      "properties": {
        "id": "92786",
        "call_sign": "W203AZ",
        "frequency": "88.5  MHz",
        "service": "FX",
        "owner": "CSN INTERNATIONAL, INC.",
        "city": "CHATTANOOGA",
        "state": "TN"
      }
    },
    {
      "type": "Feature",
      "geometry": {
        "type": "Point",
        "coordinates": [
          -85.314417,
          35.161194
        ]
      },
      "properties": {
        "id": "92786",
        "call_sign": "W203AZ",
        "frequency": "88.5  MHz",
        "service": "FX",
        "owner": "CSN INTERNATIONAL, INC.",
        "city": "CHATTANOOGA",
        "state": "TN"
      }
    },
    {
      "type": "Feature",
      "geometry": {
        "type": "Point",
        "coordinates": [
          -85.504203,
          36.175942
        ]
      },
      "properties": {
        "id": "65217",
        "call_sign": "WTTU",
        "frequency": "88.5  MHz",
        "service": "FM",
        "owner": "TENNESSEE TECHNOLOGICAL UNIVERSITY",
        "city": "COOKEVILLE",
        "state": "TN"
      }
    },
    {
      "type": "Feature",
      "geometry": {
        "type": "Point",
        "coordinates": [
          -85.505528,
          36.176722
        ]
      },
      "properties": {
        "id": "65217",
        "call_sign": "WTTU",
        "frequency": "88.5  MHz",
        "service": "FM",
        "owner": "TENNESSEE TECHNOLOGICAL UNIVERSITY",
        "city": "COOKEVILLE",
        "state": "TN"
      }
    },
    {
      "type": "Feature",
      "geometry": {
        "type": "Point",
        "coordinates": [
          -84.859389,
          35.723389
        ]
      },
      "properties": {
        "id": "173912",
        "call_sign": "WWQS",
        "frequency": "88.5  MHz",
        "service": "FM",
        "owner": "THE POWER FOUNDATION",
        "city": "DECATUR",
        "state": "TN"
      }
    },
    {
      "type": "Feature",
      "geometry": {
        "type": "Point",
        "coordinates": [
          -86.528028,
          36.488361
        ]
      },
      "properties": {
        "id": "70470",
        "call_sign": "WVCP",
        "frequency": "88.5  MHz",
        "service": "FM",
        "owner": "VOLUNTEER STATE COMMUNITY COLLEGE",
        "city": "GALLATIN",
        "state": "TN"
      }
    },
    {
      "type": "Feature",
      "geometry": {
        "type": "Point",
        "coordinates": [
          -87.327528,
          35.203417
        ]
      },
      "properties": {
        "id": "89511",
        "call_sign": "WZXX",
        "frequency": "88.5  MHz",
        "service": "FM",
        "owner": "RADIO BY GRACE, INC.",
        "city": "LAWRENCEBURG",
        "state": "TN"
      }
    },
    {
      "type": "Feature",
      "geometry": {
        "type": "Point",
        "coordinates": [
          -87.3275,
          35.203333
        ]
      },
      "properties": {
        "id": "89511",
        "call_sign": "WZXX",
        "frequency": "88.5  MHz",
        "service": "FS",
        "owner": "RADIO BY GRACE, INC.",
        "city": "LAWRENCEBURG",
        "state": "TN"
      }
    },
    {
      "type": "Feature",
      "geometry": {
        "type": "Point",
        "coordinates": [
          -89.822306,
          35.154806
        ]
      },
      "properties": {
        "id": "41147",
        "call_sign": "WQOX",
        "frequency": "88.5  MHz",
        "service": "FM",
        "owner": "SHELBY COUNTY SCHOOLS",
        "city": "MEMPHIS",
        "state": "TN"
      }
    },
    {
      "type": "Feature",
      "geometry": {
        "type": "Point",
        "coordinates": [
          -83.222944,
          36.493417
        ]
      },
      "properties": {
        "id": "90783",
        "call_sign": "WSDC",
        "frequency": "88.5  MHz",
        "service": "FM",
        "owner": "DUCK CREEK BAPTIST CHURCH",
        "city": "SNEEDVILLE",
        "state": "TN"
      }
    },
    {
      "type": "Feature",
      "geometry": {
        "type": "Point",
        "coordinates": [
          -86.184167,
          35.340583
        ]
      },
      "properties": {
        "id": "84363",
        "call_sign": "WKTH",
        "frequency": "88.5  MHz",
        "service": "FM",
        "owner": "K-LOVE, INC.",
        "city": "TULLAHOMA",
        "state": "TN"
      }
    },
    {
      "type": "Feature",
      "geometry": {
        "type": "Point",
        "coordinates": [
          -86.184167,
          35.340583
        ]
      },
      "properties": {
        "id": "84363",
        "call_sign": "WKTH",
        "frequency": "88.5  MHz",
        "service": "FM",
        "owner": "K-LOVE, INC.",
        "city": "TULLAHOMA",
        "state": "TN"
      }
    },
    {
      "type": "Feature",
      "geometry": {
        "type": "Point",
        "coordinates": [
          -86.144444,
          35.398056
        ]
      },
      "properties": {
        "id": "84363",
        "call_sign": "WKTH",
        "frequency": "88.5  MHz",
        "service": "FM",
        "owner": "K-LOVE, INC.",
        "city": "TULLAHOMA",
        "state": "TN"
      }
    },
    {
      "type": "Feature",
      "geometry": {
        "type": "Point",
        "coordinates": [
          -88.602,
          35.722
        ]
      },
      "properties": {
        "id": "25543",
        "call_sign": "WIGH",
        "frequency": "88.7  MHz",
        "service": "FM",
        "owner": "AMERICAN FAMILY ASSOCIATION",
        "city": "JACKSON",
        "state": "TN"
      }
    },
    {
      "type": "Feature",
      "geometry": {
        "type": "Point",
        "coordinates": [
          -84.628,
          36.187028
        ]
      },
      "properties": {
        "id": "176955",
        "call_sign": "WWQK",
        "frequency": "88.7  MHz",
        "service": "FM",
        "owner": "THE POWER FOUNDATION",
        "city": "OAK RIDGE",
        "state": "TN"
      }
    },
    {
      "type": "Feature",
      "geometry": {
        "type": "Point",
        "coordinates": [
          -86.83025,
          36.047194
        ]
      },
      "properties": {
        "id": "58421",
        "call_sign": "WAYM",
        "frequency": "88.7  MHz",
        "service": "FM",
        "owner": "HOPE MEDIA GROUP",
        "city": "SPRING HILL",
        "state": "TN"
      }
    },
    {
      "type": "Feature",
      "geometry": {
        "type": "Point",
        "coordinates": [
          -85.37775,
          34.962028
        ]
      },
      "properties": {
        "id": "66021",
        "call_sign": "WMBW",
        "frequency": "88.9  MHz",
        "service": "FM",
        "owner": "THE MOODY BIBLE INSTITUTE OF CHICAGO",
        "city": "CHATTANOOGA",
        "state": "TN"
      }
    },
    {
      "type": "Feature",
      "geometry": {
        "type": "Point",
        "coordinates": [
          -89.149778,
          36.413389
        ]
      },
      "properties": {
        "id": "93051",
        "call_sign": "WTAI",
        "frequency": "88.9  MHz",
        "service": "FM",
        "owner": "K-LOVE, INC.",
        "city": "UNION CITY",
        "state": "TN"
      }
    },
    {
      "type": "Feature",
      "geometry": {
        "type": "Point",
        "coordinates": [
          -83.942778,
          36.003639
        ]
      },
      "properties": {
        "id": "22014",
        "call_sign": "WOFM",
        "frequency": "89.1  MHz",
        "service": "FM",
        "owner": "K-LOVE, INC.",
        "city": "ALCOA",
        "state": "TN"
      }
    },
    {
      "type": "Feature",
      "geometry": {
        "type": "Point",
        "coordinates": [
          -87.393056,
          36.097556
        ]
      },
      "properties": {
        "id": "122915",
        "call_sign": "W206BO",
        "frequency": "89.1  MHz",
        "service": "FX",
        "owner": "CSN INTERNATIONAL",
        "city": "DICKSON",
        "state": "TN"
      }
    },
    {
      "type": "Feature",
      "geometry": {
        "type": "Point",
        "coordinates": [
          -82.339028,
          36.268722
        ]
      },
      "properties": {
        "id": "121234",
        "call_sign": "W206BE",
        "frequency": "89.1  MHz",
        "service": "FX",
        "owner": "PENSACOLA CHRISTIAN COLLEGE, INC.",
        "city": "JOHNSON CITY",
        "state": "TN"
      }
    },
    {
      "type": "Feature",
      "geometry": {
        "type": "Point",
        "coordinates": [
          -85.407444,
          36.439778
        ]
      },
      "properties": {
        "id": "172649",
        "call_sign": "WOCG",
        "frequency": "89.1  MHz",
        "service": "FM",
        "owner": "COOKEVILLE CHRISTIAN BROADCASTING",
        "city": "LIVINGSTON",
        "state": "TN"
      }
    },
    {
      "type": "Feature",
      "geometry": {
        "type": "Point",
        "coordinates": [
          -86.756389,
          36.141167
        ]
      },
      "properties": {
        "id": "67633",
        "call_sign": "WECV",
        "frequency": "89.1  MHz",
        "service": "FM",
        "owner": "COMMUNITY BROADCASTING, INC.",
        "city": "NASHVILLE",
        "state": "TN"
      }
    },
    {
      "type": "Feature",
      "geometry": {
        "type": "Point",
        "coordinates": [
          -86.752778,
          36.142556
        ]
      },
      "properties": {
        "id": "67633",
        "call_sign": "WECV",
        "frequency": "89.1  MHz",
        "service": "FS",
        "owner": "COMMUNITY BROADCASTING, INC.",
        "city": "NASHVILLE",
        "state": "TN"
      }
    },
    {
      "type": "Feature",
      "geometry": {
        "type": "Point",
        "coordinates": [
          -88.058917,
          35.206472
        ]
      },
      "properties": {
        "id": "57955",
        "call_sign": "WDNX",
        "frequency": "89.1  MHz",
        "service": "FM",
        "owner": "RURAL LIFE FOUNDATION, INC",
        "city": "OLIVE HILL",
        "state": "TN"
      }
    },
    {
      "type": "Feature",
      "geometry": {
        "type": "Point",
        "coordinates": [
          -84.883278,
          35.200639
        ]
      },
      "properties": {
        "id": "58444",
        "call_sign": "W207CI",
        "frequency": "89.3  MHz",
        "service": "FX",
        "owner": "HOPE MEDIA GROUP",
        "city": "CLEVELAND",
        "state": "TN"
      }
    },
    {
      "type": "Feature",
      "geometry": {
        "type": "Point",
        "coordinates": [
          -84.976056,
          35.777278
        ]
      },
      "properties": {
        "id": "65986",
        "call_sign": "WMKW",
        "frequency": "89.3  MHz",
        "service": "FM",
        "owner": "THE MOODY BIBLE INSTITUTE OF CHICAGO",
        "city": "CROSSVILLE",
        "state": "TN"
      }
    },
    {
      "type": "Feature",
      "geometry": {
        "type": "Point",
        "coordinates": [
          -88.787333,
          35.654222
        ]
      },
      "properties": {
        "id": "140689",
        "call_sign": "W207CQ",
        "frequency": "89.3  MHz",
        "service": "FX",
        "owner": "HOPE MEDIA GROUP",
        "city": "JACKSON",
        "state": "TN"
      }
    },
    {
      "type": "Feature",
      "geometry": {
        "type": "Point",
        "coordinates": [
          -88.510278,
          36.115389
        ]
      },
      "properties": {
        "id": "93702",
        "call_sign": "WAJJ",
        "frequency": "89.3  MHz",
        "service": "FM",
        "owner": "MADISONVILLE BAPTIST TEMPLE INC.",
        "city": "MCKENZIE",
        "state": "TN"
      }
    },
    {
      "type": "Feature",
      "geometry": {
        "type": "Point",
        "coordinates": [
          -90.190917,
          35.467583
        ]
      },
      "properties": {
        "id": "13996",
        "call_sign": "WYPL",
        "frequency": "89.3  MHz",
        "service": "FM",
        "owner": "THE MEMPHIS PUBLIC LIBRARIES",
        "city": "MEMPHIS",
        "state": "TN"
      }
    },
    {
      "type": "Feature",
      "geometry": {
        "type": "Point",
        "coordinates": [
          -84.537181,
          36.4053
        ]
      },
      "properties": {
        "id": "768397",
        "call_sign": "WHCK",
        "frequency": "89.5  MHz",
        "service": "FM",
        "owner": "APPALACHIAN EDUCATIONAL COMMUNICATION CORPORATION",
        "city": "HUNTSVILLE",
        "state": "TN"
      }
    },
    {
      "type": "Feature",
      "geometry": {
        "type": "Point",
        "coordinates": [
          -82.135389,
          36.433972
        ]
      },
      "properties": {
        "id": "18253",
        "call_sign": "WETS-FM",
        "frequency": "89.5  MHz",
        "service": "FM",
        "owner": "EAST TENNESSEE STATE UNIVERSITY",
        "city": "JOHNSON CITY",
        "state": "TN"
      }
    },
    {
      "type": "Feature",
      "geometry": {
        "type": "Point",
        "coordinates": [
          -82.135389,
          36.433972
        ]
      },
      "properties": {
        "id": "18253",
        "call_sign": "WETS-FM",
        "frequency": "89.5  MHz",
        "service": "FS",
        "owner": "EAST TENNESSEE STATE UNIVERSITY",
        "city": "JOHNSON CITY",
        "state": "TN"
      }
    },
    {
      "type": "Feature",
      "geometry": {
        "type": "Point",
        "coordinates": [
          -86.439444,
          36.085333
        ]
      },
      "properties": {
        "id": "41997",
        "call_sign": "WMOT",
        "frequency": "89.5  MHz",
        "service": "FM",
        "owner": "MIDDLE TENNESSEE STATE UNIVERSITY",
        "city": "MURFREESBORO",
        "state": "TN"
      }
    },
    {
      "type": "Feature",
      "geometry": {
        "type": "Point",
        "coordinates": [
          -86.353056,
          35.848889
        ]
      },
      "properties": {
        "id": "41997",
        "call_sign": "WMOT",
        "frequency": "89.5  MHz",
        "service": "FS",
        "owner": "MIDDLE TENNESSEE STATE UNIVERSITY",
        "city": "MURFREESBORO",
        "state": "TN"
      }
    },
    {
      "type": "Feature",
      "geometry": {
        "type": "Point",
        "coordinates": [
          -85.316361,
          35.17175
        ]
      },
      "properties": {
        "id": "65216",
        "call_sign": "WYBK",
        "frequency": "89.7  MHz",
        "service": "FM",
        "owner": "BIBLE BROADCASTING NETWORK, INC.",
        "city": "CHATTANOOGA",
        "state": "TN"
      }
    },
    {
      "type": "Feature",
      "geometry": {
        "type": "Point",
        "coordinates": [
          -85.316083,
          35.171472
        ]
      },
      "properties": {
        "id": "65216",
        "call_sign": "WYBK",
        "frequency": "89.7  MHz",
        "service": "FS",
        "owner": "BIBLE BROADCASTING NETWORK, INC.",
        "city": "CHATTANOOGA",
        "state": "TN"
      }
    },
    {
      "type": "Feature",
      "geometry": {
        "type": "Point",
        "coordinates": [
          -87.323611,
          35.267833
        ]
      },
      "properties": {
        "id": "81646",
        "call_sign": "WAWI",
        "frequency": "89.7  MHz",
        "service": "FM",
        "owner": "AMERICAN FAMILY ASSOCIATION",
        "city": "LAWRENCEBURG",
        "state": "TN"
      }
    },
    {
      "type": "Feature",
      "geometry": {
        "type": "Point",
        "coordinates": [
          -89.47175,
          35.775361
        ]
      },
      "properties": {
        "id": "81643",
        "call_sign": "WAUV",
        "frequency": "89.7  MHz",
        "service": "FM",
        "owner": "AMERICAN FAMILY ASSOCIATION",
        "city": "RIPLEY",
        "state": "TN"
      }
    },
    {
      "type": "Feature",
      "geometry": {
        "type": "Point",
        "coordinates": [
          -84.23075,
          36.198111
        ]
      },
      "properties": {
        "id": "14724",
        "call_sign": "WDVX",
        "frequency": "89.9  MHz",
        "service": "FM",
        "owner": "CUMBERLAND COMMUNITIES COMMUNICATIONS CORPORATION",
        "city": "CLINTON",
        "state": "TN"
      }
    },
    {
      "type": "Feature",
      "geometry": {
        "type": "Point",
        "coordinates": [
          -84.23075,
          36.198111
        ]
      },
      "properties": {
        "id": "14724",
        "call_sign": "WDVX",
        "frequency": "89.9  MHz",
        "service": "FS",
        "owner": "CUMBERLAND COMMUNITIES COMMUNICATIONS CORPORATION",
        "city": "CLINTON",
        "state": "TN"
      }
    },
    {
      "type": "Feature",
      "geometry": {
        "type": "Point",
        "coordinates": [
          -85.409694,
          36.142278
        ]
      },
      "properties": {
        "id": "176039",
        "call_sign": "WRIM",
        "frequency": "89.9  MHz",
        "service": "FM",
        "owner": "RISEN RADIO, INC.",
        "city": "COOKEVILLE",
        "state": "TN"
      }
    },
    {
      "type": "Feature",
      "geometry": {
        "type": "Point",
        "coordinates": [
          -86.901944,
          35.314778
        ]
      },
      "properties": {
        "id": "177227",
        "call_sign": "WZTN",
        "frequency": "89.9  MHz",
        "service": "FM",
        "owner": "ROAD MAP MINISTRIES",
        "city": "CORNERSVILLE",
        "state": "TN"
      }
    },
    {
      "type": "Feature",
      "geometry": {
        "type": "Point",
        "coordinates": [
          -86.879028,
          35.332
        ]
      },
      "properties": {
        "id": "177227",
        "call_sign": "WZTN",
        "frequency": "89.9  MHz",
        "service": "FM",
        "owner": "ROAD MAP MINISTRIES",
        "city": "CORNERSVILLE",
        "state": "TN"
      }
    },
    {
      "type": "Feature",
      "geometry": {
        "type": "Point",
        "coordinates": [
          -86.795833,
          36.268111
        ]
      },
      "properties": {
        "id": "64258",
        "call_sign": "W210CD",
        "frequency": "89.9  MHz",
        "service": "FX",
        "owner": "HOPE MEDIA GROUP",
        "city": "HENDERSONVILLE",
        "state": "TN"
      }
    },
    {
      "type": "Feature",
      "geometry": {
        "type": "Point",
        "coordinates": [
          -82.587361,
          36.527056
        ]
      },
      "properties": {
        "id": "123363",
        "call_sign": "W210BR",
        "frequency": "89.9  MHz",
        "service": "FX",
        "owner": "POSITIVE ALTERNATIVE RADIO, INC.",
        "city": "KINGSPORT",
        "state": "TN"
      }
    },
    {
      "type": "Feature",
      "geometry": {
        "type": "Point",
        "coordinates": [
          -89.806194,
          35.143694
        ]
      },
      "properties": {
        "id": "61272",
        "call_sign": "WEVL",
        "frequency": "89.9  MHz",
        "service": "FM",
        "owner": "SOUTHERN COMMUNICATION VOLUNTEERS, INC.",
        "city": "MEMPHIS",
        "state": "TN"
      }
    },
    {
      "type": "Feature",
      "geometry": {
        "type": "Point",
        "coordinates": [
          -87.949194,
          36.038111
        ]
      },
      "properties": {
        "id": "91932",
        "call_sign": "WAYW",
        "frequency": "89.9  MHz",
        "service": "FM",
        "owner": "HOPE MEDIA GROUP",
        "city": "NEW JOHNSONVILLE",
        "state": "TN"
      }
    },
    {
      "type": "Feature",
      "geometry": {
        "type": "Point",
        "coordinates": [
          -86.225,
          35.38175
        ]
      },
      "properties": {
        "id": "89005",
        "call_sign": "W210BO",
        "frequency": "89.9  MHz",
        "service": "FX",
        "owner": "BIBLE BROADCASTING NETWORK, INC.",
        "city": "TULLAHOMA",
        "state": "TN"
      }
    },
    {
      "type": "Feature",
      "geometry": {
        "type": "Point",
        "coordinates": [
          -87.765278,
          35.301444
        ]
      },
      "properties": {
        "id": "84036",
        "call_sign": "W210BE",
        "frequency": "89.9  MHz",
        "service": "FX",
        "owner": "AMERICAN FAMILY ASSOCIATION",
        "city": "WAYNESBORO",
        "state": "TN"
      }
    },
    {
      "type": "Feature",
      "geometry": {
        "type": "Point",
        "coordinates": [
          -88.833389,
          35.647028
        ]
      },
      "properties": {
        "id": "41885",
        "call_sign": "WKNP",
        "frequency": "90.1  MHz",
        "service": "FM",
        "owner": "MID-SOUTH PUBLIC COMMUNICATIONS FOUNDATION",
        "city": "JACKSON",
        "state": "TN"
      }
    },
    {
      "type": "Feature",
      "geometry": {
        "type": "Point",
        "coordinates": [
          -88.833389,
          35.647028
        ]
      },
      "properties": {
        "id": "41885",
        "call_sign": "WKNP",
        "frequency": "90.1  MHz",
        "service": "FM",
        "owner": "MID-SOUTH PUBLIC COMMUNICATIONS FOUNDATION",
        "city": "JACKSON",
        "state": "TN"
      }
    },
    {
      "type": "Feature",
      "geometry": {
        "type": "Point",
        "coordinates": [
          -82.135694,
          36.433917
        ]
      },
      "properties": {
        "id": "43700",
        "call_sign": "W211CD",
        "frequency": "90.1  MHz",
        "service": "FX",
        "owner": "THE MOODY BIBLE INSTITUTE OF CHICAGO",
        "city": "JOHNSON CITY",
        "state": "TN"
      }
    },
    {
      "type": "Feature",
      "geometry": {
        "type": "Point",
        "coordinates": [
          -84.57575,
          35.765889
        ]
      },
      "properties": {
        "id": "91391",
        "call_sign": "WKTS",
        "frequency": "90.1  MHz",
        "service": "FM",
        "owner": "FOOTHILLS RESOURCE GROUP, INC.",
        "city": "KINGSTON",
        "state": "TN"
      }
    },
    {
      "type": "Feature",
      "geometry": {
        "type": "Point",
        "coordinates": [
          -85.459139,
          35.734222
        ]
      },
      "properties": {
        "id": "92532",
        "call_sign": "WZYZ",
        "frequency": "90.1  MHz",
        "service": "FM",
        "owner": "CHURCH FAITH TRINITY ASSEMBLIES",
        "city": "SPENCER",
        "state": "TN"
      }
    },
    {
      "type": "Feature",
      "geometry": {
        "type": "Point",
        "coordinates": [
          -85.333861,
          35.12925
        ]
      },
      "properties": {
        "id": "92753",
        "call_sign": "W211BG",
        "frequency": "90.1  MHz",
        "service": "FX",
        "owner": "K-LOVE, INC.",
        "city": "WALDEN",
        "state": "TN"
      }
    },
    {
      "type": "Feature",
      "geometry": {
        "type": "Point",
        "coordinates": [
          -82.586528,
          36.527028
        ]
      },
      "properties": {
        "id": "34914",
        "call_sign": "WCSK",
        "frequency": "90.3  MHz",
        "service": "FM",
        "owner": "KINGSPORT CITY SCHOOLS BD. OF EDUC .",
        "city": "KINGSPORT",
        "state": "TN"
      }
    },
    {
      "type": "Feature",
      "geometry": {
        "type": "Point",
        "coordinates": [
          -83.925889,
          35.952028
        ]
      },
      "properties": {
        "id": "69329",
        "call_sign": "WUTK-FM",
        "frequency": "90.3  MHz",
        "service": "FM",
        "owner": "UNIVERSITY OF TENNESSEE",
        "city": "KNOXVILLE",
        "state": "TN"
      }
    },
    {
      "type": "Feature",
      "geometry": {
        "type": "Point",
        "coordinates": [
          -88.859778,
          36.339778
        ]
      },
      "properties": {
        "id": "66572",
        "call_sign": "WUTM",
        "frequency": "90.3  MHz",
        "service": "FM",
        "owner": "THE UNIVERSITY OF TENNESSEE",
        "city": "MARTIN",
        "state": "TN"
      }
    },
    {
      "type": "Feature",
      "geometry": {
        "type": "Point",
        "coordinates": [
          -86.848611,
          36.035611
        ]
      },
      "properties": {
        "id": "53821",
        "call_sign": "WPLN-FM",
        "frequency": "90.3  MHz",
        "service": "FM",
        "owner": "NASHVILLE PUBLIC RADIO",
        "city": "NASHVILLE",
        "state": "TN"
      }
    },
    {
      "type": "Feature",
      "geometry": {
        "type": "Point",
        "coordinates": [
          -86.848611,
          36.035611
        ]
      },
      "properties": {
        "id": "53821",
        "call_sign": "WPLN-FM",
        "frequency": "90.3  MHz",
        "service": "FS",
        "owner": "NASHVILLE PUBLIC RADIO",
        "city": "NASHVILLE",
        "state": "TN"
      }
    },
    {
      "type": "Feature",
      "geometry": {
        "type": "Point",
        "coordinates": [
          -86.848611,
          36.035611
        ]
      },
      "properties": {
        "id": "53821",
        "call_sign": "WPLN-FM",
        "frequency": "90.3  MHz",
        "service": "FS",
        "owner": "NASHVILLE PUBLIC RADIO",
        "city": "NASHVILLE",
        "state": "TN"
      }
    },
    {
      "type": "Feature",
      "geometry": {
        "type": "Point",
        "coordinates": [
          -86.848611,
          36.035611
        ]
      },
      "properties": {
        "id": "53821",
        "call_sign": "WPLN-FM",
        "frequency": "90.3  MHz",
        "service": "FS",
        "owner": "NASHVILLE PUBLIC RADIO",
        "city": "NASHVILLE",
        "state": "TN"
      }
    },
    {
      "type": "Feature",
      "geometry": {
        "type": "Point",
        "coordinates": [
          -84.628,
          36.187028
        ]
      },
      "properties": {
        "id": "174041",
        "call_sign": "WWQW",
        "frequency": "90.3  MHz",
        "service": "FM",
        "owner": "THE POWER FOUNDATION",
        "city": "WARTBURG",
        "state": "TN"
      }
    },
    {
      "type": "Feature",
      "geometry": {
        "type": "Point",
        "coordinates": [
          -85.226056,
          35.255611
        ]
      },
      "properties": {
        "id": "61269",
        "call_sign": "WSMC-FM",
        "frequency": "90.5  MHz",
        "service": "FM",
        "owner": "SOUTHERN ADVENTIST UNIVERSITY",
        "city": "COLLEGEDALE",
        "state": "TN"
      }
    },
    {
      "type": "Feature",
      "geometry": {
        "type": "Point",
        "coordinates": [
          -85.45775,
          36.131167
        ]
      },
      "properties": {
        "id": "64257",
        "call_sign": "W213BT",
        "frequency": "90.5  MHz",
        "service": "FX",
        "owner": "HOPE MEDIA GROUP",
        "city": "COOKEVILLE",
        "state": "TN"
      }
    },
    {
      "type": "Feature",
      "geometry": {
        "type": "Point",
        "coordinates": [
          -82.290944,
          36.299528
        ]
      },
      "properties": {
        "id": "82695",
        "call_sign": "WUMC",
        "frequency": "90.5  MHz",
        "service": "FM",
        "owner": "MILLIGAN UNIVERSITY",
        "city": "ELIZABETHTON",
        "state": "TN"
      }
    },
    {
      "type": "Feature",
      "geometry": {
        "type": "Point",
        "coordinates": [
          -88.562556,
          35.178972
        ]
      },
      "properties": {
        "id": "93338",
        "call_sign": "WXKV",
        "frequency": "90.5  MHz",
        "service": "FM",
        "owner": "K-LOVE, INC.",
        "city": "SELMER",
        "state": "TN"
      }
    },
    {
      "type": "Feature",
      "geometry": {
        "type": "Point",
        "coordinates": [
          -86.829722,
          36.046444
        ]
      },
      "properties": {
        "id": "93256",
        "call_sign": "W214BQ",
        "frequency": "90.7  MHz",
        "service": "FX",
        "owner": "CSN INTERNATIONAL",
        "city": "BRENTWOOD",
        "state": "TN"
      }
    },
    {
      "type": "Feature",
      "geometry": {
        "type": "Point",
        "coordinates": [
          -86.865556,
          36.140833
        ]
      },
      "properties": {
        "id": "93256",
        "call_sign": "W214BQ",
        "frequency": "90.7  MHz",
        "service": "FX",
        "owner": "CSN INTERNATIONAL",
        "city": "BRENTWOOD",
        "state": "TN"
      }
    },
    {
      "type": "Feature",
      "geometry": {
        "type": "Point",
        "coordinates": [
          -89.486472,
          36.100639
        ]
      },
      "properties": {
        "id": "41886",
        "call_sign": "WZKV",
        "frequency": "90.7  MHz",
        "service": "FM",
        "owner": "K-LOVE, INC.",
        "city": "DYERSBURG",
        "state": "TN"
      }
    },
    {
      "type": "Feature",
      "geometry": {
        "type": "Point",
        "coordinates": [
          -87.448083,
          35.499111
        ]
      },
      "properties": {
        "id": "82543",
        "call_sign": "WAUO",
        "frequency": "90.7  MHz",
        "service": "FM",
        "owner": "CSN INTERNATIONAL, INC.",
        "city": "HOHENWALD",
        "state": "TN"
      }
    },
    {
      "type": "Feature",
      "geometry": {
        "type": "Point",
        "coordinates": [
          -87.5575,
          35.565611
        ]
      },
      "properties": {
        "id": "82543",
        "call_sign": "WAUO",
        "frequency": "90.7  MHz",
        "service": "FM",
        "owner": "CSN INTERNATIONAL, INC.",
        "city": "HOHENWALD",
        "state": "TN"
      }
    },
    {
      "type": "Feature",
      "geometry": {
        "type": "Point",
        "coordinates": [
          -87.5575,
          35.565611
        ]
      },
      "properties": {
        "id": "82543",
        "call_sign": "WAUO",
        "frequency": "90.7  MHz",
        "service": "FM",
        "owner": "CSN INTERNATIONAL, INC.",
        "city": "HOHENWALD",
        "state": "TN"
      }
    },
    {
      "type": "Feature",
      "geometry": {
        "type": "Point",
        "coordinates": [
          -83.296528,
          35.905639
        ]
      },
      "properties": {
        "id": "84765",
        "call_sign": "WGSN",
        "frequency": "90.7  MHz",
        "service": "FM",
        "owner": "NEW LIFE STUDIOS, INC.",
        "city": "NEWPORT",
        "state": "TN"
      }
    },
    {
      "type": "Feature",
      "geometry": {
        "type": "Point",
        "coordinates": [
          -85.344583,
          35.009583
        ]
      },
      "properties": {
        "id": "94111",
        "call_sign": "W215BH",
        "frequency": "90.9  MHz",
        "service": "FX",
        "owner": "HOPE MEDIA GROUP",
        "city": "CHATTANOOGA",
        "state": "TN"
      }
    },
    {
      "type": "Feature",
      "geometry": {
        "type": "Point",
        "coordinates": [
          -85.374972,
          36.184778
        ]
      },
      "properties": {
        "id": "60780",
        "call_sign": "WWOG",
        "frequency": "90.9  MHz",
        "service": "FM",
        "owner": "SOMERSET EDUCATIONAL BROADCASTING FOUNDATION",
        "city": "COOKEVILLE",
        "state": "TN"
      }
    },
    {
      "type": "Feature",
      "geometry": {
        "type": "Point",
        "coordinates": [
          -88.186417,
          36.258111
        ]
      },
      "properties": {
        "id": "93121",
        "call_sign": "WPRH",
        "frequency": "90.9  MHz",
        "service": "FM",
        "owner": "AMERICAN FAMILY ASSOCIATION",
        "city": "PARIS",
        "state": "TN"
      }
    },
    {
      "type": "Feature",
      "geometry": {
        "type": "Point",
        "coordinates": [
          -84.29825,
          35.323694
        ]
      },
      "properties": {
        "id": "93012",
        "call_sign": "WTSE",
        "frequency": "91.1  MHz",
        "service": "FM",
        "owner": "GRACE RADIO MINISTRIES, INC",
        "city": "BENTON",
        "state": "TN"
      }
    },
    {
      "type": "Feature",
      "geometry": {
        "type": "Point",
        "coordinates": [
          -83.922694,
          35.993694
        ]
      },
      "properties": {
        "id": "22901",
        "call_sign": "WKCS",
        "frequency": "91.1  MHz",
        "service": "FM",
        "owner": "FULTON HIGH SCHOOL",
        "city": "KNOXVILLE",
        "state": "TN"
      }
    },
    {
      "type": "Feature",
      "geometry": {
        "type": "Point",
        "coordinates": [
          -89.822028,
          35.153972
        ]
      },
      "properties": {
        "id": "41887",
        "call_sign": "WKNO-FM",
        "frequency": "91.1  MHz",
        "service": "FM",
        "owner": "MID-SOUTH PUBLIC COMMUNICATIONS FOUNDATION",
        "city": "MEMPHIS",
        "state": "TN"
      }
    },
    {
      "type": "Feature",
      "geometry": {
        "type": "Point",
        "coordinates": [
          -89.822028,
          35.153972
        ]
      },
      "properties": {
        "id": "41887",
        "call_sign": "WKNO-FM",
        "frequency": "91.1  MHz",
        "service": "FM",
        "owner": "MID-SOUTH PUBLIC COMMUNICATIONS FOUNDATION",
        "city": "MEMPHIS",
        "state": "TN"
      }
    },
    {
      "type": "Feature",
      "geometry": {
        "type": "Point",
        "coordinates": [
          -86.865556,
          36.140889
        ]
      },
      "properties": {
        "id": "69816",
        "call_sign": "WNXP",
        "frequency": "91.1  MHz",
        "service": "FM",
        "owner": "NASHVILLE PUBLIC RADIO",
        "city": "NASHVILLE",
        "state": "TN"
      }
    },
    {
      "type": "Feature",
      "geometry": {
        "type": "Point",
        "coordinates": [
          -82.943472,
          36.098167
        ]
      },
      "properties": {
        "id": "172987",
        "call_sign": "WZTH",
        "frequency": "91.1  MHz",
        "service": "FM",
        "owner": "SOLID FOUNDATION BROADCASTING CORPORATION",
        "city": "TUSCULUM",
        "state": "TN"
      }
    },
    {
      "type": "Feature",
      "geometry": {
        "type": "Point",
        "coordinates": [
          -89.438611,
          36.057778
        ]
      },
      "properties": {
        "id": "65970",
        "call_sign": "W217CD",
        "frequency": "91.3  MHz",
        "service": "FX",
        "owner": "THE MOODY BIBLE INSTITUTE OF CHICAGO",
        "city": "DYERSBURG",
        "state": "TN"
      }
    },
    {
      "type": "Feature",
      "geometry": {
        "type": "Point",
        "coordinates": [
          -83.655778,
          36.561194
        ]
      },
      "properties": {
        "id": "37551",
        "call_sign": "WLMU",
        "frequency": "91.3  MHz",
        "service": "FM",
        "owner": "LINCOLN MEMORIAL UNIVERSITY",
        "city": "HARROGATE",
        "state": "TN"
      }
    },
    {
      "type": "Feature",
      "geometry": {
        "type": "Point",
        "coordinates": [
          -85.751639,
          35.661444
        ]
      },
      "properties": {
        "id": "70895",
        "call_sign": "WCPI",
        "frequency": "91.3  MHz",
        "service": "FM",
        "owner": "WARREN COUNTY EDUCATIONAL FOUNDATION",
        "city": "MCMINNVILLE",
        "state": "TN"
      }
    },
    {
      "type": "Feature",
      "geometry": {
        "type": "Point",
        "coordinates": [
          -85.1255,
          35.581722
        ]
      },
      "properties": {
        "id": "122254",
        "call_sign": "W217BG",
        "frequency": "91.3  MHz",
        "service": "FX",
        "owner": "FAMILY WORSHIP CENTER CHURCH, INC.",
        "city": "PIKEVILLE",
        "state": "TN"
      }
    },
    {
      "type": "Feature",
      "geometry": {
        "type": "Point",
        "coordinates": [
          -82.134,
          36.43425
        ]
      },
      "properties": {
        "id": "2460",
        "call_sign": "WHCB",
        "frequency": "91.5  MHz",
        "service": "FM",
        "owner": "APPALACHIAN EDUCATIONAL COMMUNICATION CORPORATION",
        "city": "BRISTOL",
        "state": "TN"
      }
    },
    {
      "type": "Feature",
      "geometry": {
        "type": "Point",
        "coordinates": [
          -87.513139,
          36.010278
        ]
      },
      "properties": {
        "id": "67638",
        "call_sign": "WNRZ",
        "frequency": "91.5  MHz",
        "service": "FM",
        "owner": "COMMUNITY BROADCASTING, INC.",
        "city": "DICKSON",
        "state": "TN"
      }
    },
    {
      "type": "Feature",
      "geometry": {
        "type": "Point",
        "coordinates": [
          -88.680889,
          35.461194
        ]
      },
      "properties": {
        "id": "22547",
        "call_sign": "WFHU",
        "frequency": "91.5  MHz",
        "service": "FM",
        "owner": "FREED-HARDEMAN UNIVERSITY",
        "city": "HENDERSON",
        "state": "TN"
      }
    },
    {
      "type": "Feature",
      "geometry": {
        "type": "Point",
        "coordinates": [
          -83.939722,
          36.005278
        ]
      },
      "properties": {
        "id": "787351",
        "call_sign": "WJZF-LP",
        "frequency": "91.5  MHz",
        "service": "FL",
        "owner": "BELLA BREAST CANCER FOUNDATION",
        "city": "KNOXVILLE",
        "state": "TN"
      }
    },
    {
      "type": "Feature",
      "geometry": {
        "type": "Point",
        "coordinates": [
          -86.30025,
          36.203639
        ]
      },
      "properties": {
        "id": "14728",
        "call_sign": "WFMQ",
        "frequency": "91.5  MHz",
        "service": "FM",
        "owner": "COMMUNITY BROADCASTING, INC.",
        "city": "LEBANON",
        "state": "TN"
      }
    },
    {
      "type": "Feature",
      "geometry": {
        "type": "Point",
        "coordinates": [
          -86.497194,
          36.576694
        ]
      },
      "properties": {
        "id": "172966",
        "call_sign": "WPDQ",
        "frequency": "91.5  MHz",
        "service": "FM",
        "owner": "SOUTHERN WABASH COMMUNICATIONS OF MIDDLE TENNESSEE, INC.",
        "city": "PORTLAND",
        "state": "TN"
      }
    },
    {
      "type": "Feature",
      "geometry": {
        "type": "Point",
        "coordinates": [
          -85.300222,
          34.943694
        ]
      },
      "properties": {
        "id": "10670",
        "call_sign": "WJBP",
        "frequency": "91.5  MHz",
        "service": "FM",
        "owner": "INTENTIONAL LIFE MEDIA",
        "city": "RED BANK",
        "state": "TN"
      }
    },
    {
      "type": "Feature",
      "geometry": {
        "type": "Point",
        "coordinates": [
          -85.300222,
          34.943694
        ]
      },
      "properties": {
        "id": "10670",
        "call_sign": "WJBP",
        "frequency": "91.5  MHz",
        "service": "FS",
        "owner": "INTENTIONAL LIFE MEDIA",
        "city": "RED BANK",
        "state": "TN"
      }
    },
    {
      "type": "Feature",
      "geometry": {
        "type": "Point",
        "coordinates": [
          -86.144444,
          35.398139
        ]
      },
      "properties": {
        "id": "94201",
        "call_sign": "WEYM",
        "frequency": "91.5  MHz",
        "service": "FM",
        "owner": "HOPE MEDIA GROUP",
        "city": "TULLAHOMA",
        "state": "TN"
      }
    },
    {
      "type": "Feature",
      "geometry": {
        "type": "Point",
        "coordinates": [
          -85.467194,
          36.142833
        ]
      },
      "properties": {
        "id": "66292",
        "call_sign": "WHRS",
        "frequency": "91.7  MHz",
        "service": "FM",
        "owner": "NASHVILLE PUBLIC RADIO",
        "city": "COOKEVILLE",
        "state": "TN"
      }
    },
    {
      "type": "Feature",
      "geometry": {
        "type": "Point",
        "coordinates": [
          -89.857861,
          35.154806
        ]
      },
      "properties": {
        "id": "66625",
        "call_sign": "WYXR",
        "frequency": "91.7  MHz",
        "service": "FM",
        "owner": "CROSSTOWN RADIO PARTNERSHIP, INC.",
        "city": "MEMPHIS",
        "state": "TN"
      }
    },
    {
      "type": "Feature",
      "geometry": {
        "type": "Point",
        "coordinates": [
          -86.621389,
          35.800333
        ]
      },
      "properties": {
        "id": "66111",
        "call_sign": "WFCM-FM",
        "frequency": "91.7  MHz",
        "service": "FM",
        "owner": "THE MOODY BIBLE INSTITUTE OF CHICAGO",
        "city": "MURFREESBORO",
        "state": "TN"
      }
    },
    {
      "type": "Feature",
      "geometry": {
        "type": "Point",
        "coordinates": [
          -85.279944,
          35.000417
        ]
      },
      "properties": {
        "id": "194668",
        "call_sign": "WTCS-LP",
        "frequency": "91.9  MHz",
        "service": "FL",
        "owner": "IGLESIA CRISTO SALVA",
        "city": "CHATTANOOGA",
        "state": "TN"
      }
    },
    {
      "type": "Feature",
      "geometry": {
        "type": "Point",
        "coordinates": [
          -87.357222,
          36.537
        ]
      },
      "properties": {
        "id": "3346",
        "call_sign": "WAPX-FM",
        "frequency": "91.9  MHz",
        "service": "FM",
        "owner": "AUSTIN PEAY STATE UNIVERSITY",
        "city": "CLARKSVILLE",
        "state": "TN"
      }
    },
    {
      "type": "Feature",
      "geometry": {
        "type": "Point",
        "coordinates": [
          -87.043944,
          35.617833
        ]
      },
      "properties": {
        "id": "89820",
        "call_sign": "W220EE",
        "frequency": "91.9  MHz",
        "service": "FX",
        "owner": "BIBLE BROADCASTING NETWORK, INC.",
        "city": "COLUMBIA",
        "state": "TN"
      }
    },
    {
      "type": "Feature",
      "geometry": {
        "type": "Point",
        "coordinates": [
          -85.373056,
          35.361667
        ]
      },
      "properties": {
        "id": "788795",
        "call_sign": "WVPC-LP",
        "frequency": "91.9  MHz",
        "service": "FL",
        "owner": "VIVO POR CRISTO RADIO CORP",
        "city": "DUNLAP",
        "state": "TN"
      }
    },
    {
      "type": "Feature",
      "geometry": {
        "type": "Point",
        "coordinates": [
          -87.949194,
          36.038111
        ]
      },
      "properties": {
        "id": "89016",
        "call_sign": "W220CC",
        "frequency": "91.9  MHz",
        "service": "FX",
        "owner": "CSN INTERNATIONAL",
        "city": "JOHNSONVILLE",
        "state": "TN"
      }
    },
    {
      "type": "Feature",
      "geometry": {
        "type": "Point",
        "coordinates": [
          -83.939639,
          36.005361
        ]
      },
      "properties": {
        "id": "69161",
        "call_sign": "WUOT",
        "frequency": "91.9  MHz",
        "service": "FM",
        "owner": "UNIVERSITY OF TENNESSEE",
        "city": "KNOXVILLE",
        "state": "TN"
      }
    },
    {
      "type": "Feature",
      "geometry": {
        "type": "Point",
        "coordinates": [
          -83.956306,
          35.995639
        ]
      },
      "properties": {
        "id": "69161",
        "call_sign": "WUOT",
        "frequency": "91.9  MHz",
        "service": "FS",
        "owner": "UNIVERSITY OF TENNESSEE",
        "city": "KNOXVILLE",
        "state": "TN"
      }
    },
    {
      "type": "Feature",
      "geometry": {
        "type": "Point",
        "coordinates": [
          -86.360278,
          35.275639
        ]
      },
      "properties": {
        "id": "171691",
        "call_sign": "WGBQ",
        "frequency": "91.9  MHz",
        "service": "FM",
        "owner": "AMERICAN FAMILY ASSOCIATION",
        "city": "LYNCHBURG",
        "state": "TN"
      }
    },
    {
      "type": "Feature",
      "geometry": {
        "type": "Point",
        "coordinates": [
          -82.157333,
          36.565917
        ]
      },
      "properties": {
        "id": "200495",
        "call_sign": "W221EC",
        "frequency": "92.1  MHz",
        "service": "FX",
        "owner": "MOUNTAIN MUSIC MINISTRIES, LLC",
        "city": "BRISTOL",
        "state": "TN"
      }
    },
    {
      "type": "Feature",
      "geometry": {
        "type": "Point",
        "coordinates": [
          -86.753056,
          36.297278
        ]
      },
      "properties": {
        "id": "52521",
        "call_sign": "WQQK",
        "frequency": "92.1  MHz",
        "service": "FM",
        "owner": "CUMULUS LICENSING LLC",
        "city": "GOODLETTSVILLE",
        "state": "TN"
      }
    },
    {
      "type": "Feature",
      "geometry": {
        "type": "Point",
        "coordinates": [
          -85.776389,
          35.666667
        ]
      },
      "properties": {
        "id": "200902",
        "call_sign": "W221ED",
        "frequency": "92.1  MHz",
        "service": "FX",
        "owner": "MAIN STREET MEDIA, LLC",
        "city": "MCMINNVILLE",
        "state": "TN"
      }
    },
    {
      "type": "Feature",
      "geometry": {
        "type": "Point",
        "coordinates": [
          -89.822222,
          35.154444
        ]
      },
      "properties": {
        "id": "143750",
        "call_sign": "W221CR",
        "frequency": "92.1  MHz",
        "service": "FX",
        "owner": "IHM LICENSES, LLC",
        "city": "MEMPHIS",
        "state": "TN"
      }
    },
    {
      "type": "Feature",
      "geometry": {
        "type": "Point",
        "coordinates": [
          -87.188083,
          35.12175
        ]
      },
      "properties": {
        "id": "7053",
        "call_sign": "WEUZ",
        "frequency": "92.1  MHz",
        "service": "FM",
        "owner": "BROADCAST ONE, INC.",
        "city": "MINOR HILL",
        "state": "TN"
      }
    },
    {
      "type": "Feature",
      "geometry": {
        "type": "Point",
        "coordinates": [
          -86.353056,
          35.848889
        ]
      },
      "properties": {
        "id": "147653",
        "call_sign": "W222BZ",
        "frequency": "92.3  MHz",
        "service": "FX",
        "owner": "MIDDLE TENNESSEE STATE UNIVERSITY",
        "city": "BLUHMTOWN",
        "state": "TN"
      }
    },
    {
      "type": "Feature",
      "geometry": {
        "type": "Point",
        "coordinates": [
          -85.323583,
          35.135083
        ]
      },
      "properties": {
        "id": "57827",
        "call_sign": "WDEF-FM",
        "frequency": "92.3  MHz",
        "service": "FM",
        "owner": "JACKSON TELECASTERS, INC.",
        "city": "CHATTANOOGA",
        "state": "TN"
      }
    },
    {
      "type": "Feature",
      "geometry": {
        "type": "Point",
        "coordinates": [
          -85.323333,
          35.134722
        ]
      },
      "properties": {
        "id": "57827",
        "call_sign": "WDEF-FM",
        "frequency": "92.3  MHz",
        "service": "FS",
        "owner": "JACKSON TELECASTERS, INC.",
        "city": "CHATTANOOGA",
        "state": "TN"
      }
    },
    {
      "type": "Feature",
      "geometry": {
        "type": "Point",
        "coordinates": [
          -87.390833,
          36.549444
        ]
      },
      "properties": {
        "id": "785824",
        "call_sign": "NEW",
        "frequency": "92.3  MHz",
        "service": "FL",
        "owner": "CONVERSION MINISTRIES, INC",
        "city": "CLARKSVILLE",
        "state": "TN"
      }
    },
    {
      "type": "Feature",
      "geometry": {
        "type": "Point",
        "coordinates": [
          -82.339028,
          36.268722
        ]
      },
      "properties": {
        "id": "78833",
        "call_sign": "W222AG",
        "frequency": "92.3  MHz",
        "service": "FX",
        "owner": "BRISTOL BROADCASTING COMPANY, INC.",
        "city": "JOHNSON CITY",
        "state": "TN"
      }
    },
    {
      "type": "Feature",
      "geometry": {
        "type": "Point",
        "coordinates": [
          -83.944444,
          36.0025
        ]
      },
      "properties": {
        "id": "144172",
        "call_sign": "W222BA",
        "frequency": "92.3  MHz",
        "service": "FX",
        "owner": "THOMAS H. MOFFIT, JR.",
        "city": "KARNS",
        "state": "TN"
      }
    },
    {
      "type": "Feature",
      "geometry": {
        "type": "Point",
        "coordinates": [
          -88.782,
          35.901722
        ]
      },
      "properties": {
        "id": "50125",
        "call_sign": "WHHG",
        "frequency": "92.3  MHz",
        "service": "FM",
        "owner": "FOREVER SOUTH",
        "city": "MILAN",
        "state": "TN"
      }
    },
    {
      "type": "Feature",
      "geometry": {
        "type": "Point",
        "coordinates": [
          -83.220444,
          35.997861
        ]
      },
      "properties": {
        "id": "157122",
        "call_sign": "W222AN",
        "frequency": "92.3  MHz",
        "service": "FX",
        "owner": "BRISTOL BROADCASTING COMPANY, INC.",
        "city": "NEWPORT",
        "state": "TN"
      }
    },
    {
      "type": "Feature",
      "geometry": {
        "type": "Point",
        "coordinates": [
          -86.794139,
          36.263833
        ]
      },
      "properties": {
        "id": "155247",
        "call_sign": "W223BV",
        "frequency": "92.5  MHz",
        "service": "FX",
        "owner": "K-LOVE, INC.",
        "city": "BRENTWOOD",
        "state": "TN"
      }
    },
    {
      "type": "Feature",
      "geometry": {
        "type": "Point",
        "coordinates": [
          -84.927833,
          36.405639
        ]
      },
      "properties": {
        "id": "135001",
        "call_sign": "WSAB-LP",
        "frequency": "92.5  MHz",
        "service": "FL",
        "owner": "JAMESTOWN INSPIRATIONAL MEDIA, INC.",
        "city": "JAMESTOWN",
        "state": "TN"
      }
    },
    {
      "type": "Feature",
      "geometry": {
        "type": "Point",
        "coordinates": [
          -86.7825,
          35.450917
        ]
      },
      "properties": {
        "id": "200361",
        "call_sign": "W223CY",
        "frequency": "92.5  MHz",
        "service": "FX",
        "owner": "WJJM, INC.",
        "city": "LEWISBURG",
        "state": "TN"
      }
    },
    {
      "type": "Feature",
      "geometry": {
        "type": "Point",
        "coordinates": [
          -83.666556,
          35.814528
        ]
      },
      "properties": {
        "id": "139539",
        "call_sign": "W223DM",
        "frequency": "92.5  MHz",
        "service": "FX",
        "owner": "LOUD MEDIA LLC",
        "city": "SEVIERVILLE",
        "state": "TN"
      }
    },
    {
      "type": "Feature",
      "geometry": {
        "type": "Point",
        "coordinates": [
          -83.13575,
          36.273194
        ]
      },
      "properties": {
        "id": "786398",
        "call_sign": "WYBG-LP",
        "frequency": "92.5  MHz",
        "service": "FL",
        "owner": "BLACK IN APPALACHIA: RESEARCH, EDUCATION & SUPPORT",
        "city": "WHITESBURG",
        "state": "TN"
      }
    },
    {
      "type": "Feature",
      "geometry": {
        "type": "Point",
        "coordinates": [
          -85.323583,
          35.135083
        ]
      },
      "properties": {
        "id": "151761",
        "call_sign": "W224AZ",
        "frequency": "92.7  MHz",
        "service": "FX",
        "owner": "RADIO BY GRACE, INC.",
        "city": "CHATTANOOGA",
        "state": "TN"
      }
    },
    {
      "type": "Feature",
      "geometry": {
        "type": "Point",
        "coordinates": [
          -88.799222,
          36.157278
        ]
      },
      "properties": {
        "id": "200099",
        "call_sign": "W224DR",
        "frequency": "92.7  MHz",
        "service": "FX",
        "owner": "THUNDERBOLT BROADCASTING COMPANY",
        "city": "GREENFIELD",
        "state": "TN"
      }
    },
    {
      "type": "Feature",
      "geometry": {
        "type": "Point",
        "coordinates": [
          -84.432139,
          35.867861
        ]
      },
      "properties": {
        "id": "70637",
        "call_sign": "WIJV",
        "frequency": "92.7  MHz",
        "service": "FM",
        "owner": "PROGRESSIVE MEDIA INC.",
        "city": "HARRIMAN",
        "state": "TN"
      }
    },
    {
      "type": "Feature",
      "geometry": {
        "type": "Point",
        "coordinates": [
          -85.476944,
          35.954167
        ]
      },
      "properties": {
        "id": "200952",
        "call_sign": "W224DM",
        "frequency": "92.7  MHz",
        "service": "FX",
        "owner": "MAIN STREET MEDIA, LLC",
        "city": "SPARTA",
        "state": "TN"
      }
    },
    {
      "type": "Feature",
      "geometry": {
        "type": "Point",
        "coordinates": [
          -87.743028,
          35.165389
        ]
      },
      "properties": {
        "id": "201998",
        "call_sign": "W224EC",
        "frequency": "92.7  MHz",
        "service": "FX",
        "owner": "JUKEBOX MEDIA LLC",
        "city": "WAYNESBORO",
        "state": "TN"
      }
    },
    {
      "type": "Feature",
      "geometry": {
        "type": "Point",
        "coordinates": [
          -89.944528,
          35.172306
        ]
      },
      "properties": {
        "id": "4653",
        "call_sign": "WMFS-FM",
        "frequency": "92.9  MHz",
        "service": "FM",
        "owner": "AUDACY LICENSE, LLC",
        "city": "BARTLETT",
        "state": "TN"
      }
    },
    {
      "type": "Feature",
      "geometry": {
        "type": "Point",
        "coordinates": [
          -82.337889,
          36.269528
        ]
      },
      "properties": {
        "id": "36982",
        "call_sign": "WFHG-FM",
        "frequency": "92.9  MHz",
        "service": "FM",
        "owner": "BRISTOL BROADCASTING COMPANY, INC.",
        "city": "BLUFF CITY",
        "state": "TN"
      }
    },
    {
      "type": "Feature",
      "geometry": {
        "type": "Point",
        "coordinates": [
          -86.968611,
          36.120611
        ]
      },
      "properties": {
        "id": "61035",
        "call_sign": "WJXA",
        "frequency": "92.9  MHz",
        "service": "FM",
        "owner": "MIDWEST COMMUNICATIONS, INC.",
        "city": "NASHVILLE",
        "state": "TN"
      }
    },
    {
      "type": "Feature",
      "geometry": {
        "type": "Point",
        "coordinates": [
          -89.059778,
          35.724528
        ]
      },
      "properties": {
        "id": "24609",
        "call_sign": "WTJS",
        "frequency": "93.1  MHz",
        "service": "FM",
        "owner": "GRACE BROADCASTING SERVICES, INC.",
        "city": "ALAMO",
        "state": "TN"
      }
    },
    {
      "type": "Feature",
      "geometry": {
        "type": "Point",
        "coordinates": [
          -84.790583,
          35.131528
        ]
      },
      "properties": {
        "id": "63493",
        "call_sign": "WSAA",
        "frequency": "93.1  MHz",
        "service": "FM",
        "owner": "K-LOVE, INC.",
        "city": "BENTON",
        "state": "TN"
      }
    },
    {
      "type": "Feature",
      "geometry": {
        "type": "Point",
        "coordinates": [
          -84.790583,
          35.131528
        ]
      },
      "properties": {
        "id": "63493",
        "call_sign": "WSAA",
        "frequency": "93.1  MHz",
        "service": "FM",
        "owner": "K-LOVE, INC.",
        "city": "BENTON",
        "state": "TN"
      }
    },
    {
      "type": "Feature",
      "geometry": {
        "type": "Point",
        "coordinates": [
          -84.022972,
          35.962861
        ]
      },
      "properties": {
        "id": "29741",
        "call_sign": "WNOX",
        "frequency": "93.1  MHz",
        "service": "FM",
        "owner": "SM-WNOX, LLC",
        "city": "KARNS",
        "state": "TN"
      }
    },
    {
      "type": "Feature",
      "geometry": {
        "type": "Point",
        "coordinates": [
          -87.408083,
          35.088361
        ]
      },
      "properties": {
        "id": "53666",
        "call_sign": "W226AF",
        "frequency": "93.1  MHz",
        "service": "FX",
        "owner": "ROGER WRIGHT",
        "city": "LORETTO",
        "state": "TN"
      }
    },
    {
      "type": "Feature",
      "geometry": {
        "type": "Point",
        "coordinates": [
          -85.892222,
          35.218222
        ]
      },
      "properties": {
        "id": "135206",
        "call_sign": "WMTN-LP",
        "frequency": "93.1  MHz",
        "service": "FL",
        "owner": "ST. ANDREW'S-SEWANEE SCHOOL",
        "city": "SEWANEE",
        "state": "TN"
      }
    },
    {
      "type": "Feature",
      "geometry": {
        "type": "Point",
        "coordinates": [
          -85.411083,
          36.184222
        ]
      },
      "properties": {
        "id": "87687",
        "call_sign": "W227EC",
        "frequency": "93.3  MHz",
        "service": "FX",
        "owner": "STONECOM COOKEVILLE, LLC",
        "city": "COOKEVILLE",
        "state": "TN"
      }
    },
    {
      "type": "Feature",
      "geometry": {
        "type": "Point",
        "coordinates": [
          -85.375778,
          35.361444
        ]
      },
      "properties": {
        "id": "200723",
        "call_sign": "W227DM",
        "frequency": "93.3  MHz",
        "service": "FX",
        "owner": "TRAVIS HICKMAN D/B/A TENNESSEE VALLEY BROADCASTING",
        "city": "DUNLAP",
        "state": "TN"
      }
    },
    {
      "type": "Feature",
      "geometry": {
        "type": "Point",
        "coordinates": [
          -89.922306,
          35.314528
        ]
      },
      "properties": {
        "id": "201654",
        "call_sign": "W227DQ",
        "frequency": "93.3  MHz",
        "service": "FX",
        "owner": "WMQM, INC.",
        "city": "LAKELAND",
        "state": "TN"
      }
    },
    {
      "type": "Feature",
      "geometry": {
        "type": "Point",
        "coordinates": [
          -83.331556,
          36.227028
        ]
      },
      "properties": {
        "id": "59720",
        "call_sign": "W227DH",
        "frequency": "93.3  MHz",
        "service": "FX",
        "owner": "RADIO ACQUISITION CORP.",
        "city": "MORRISTOWN",
        "state": "TN"
      }
    },
    {
      "type": "Feature",
      "geometry": {
        "type": "Point",
        "coordinates": [
          -86.865556,
          36.140889
        ]
      },
      "properties": {
        "id": "146836",
        "call_sign": "W227DC",
        "frequency": "93.3  MHz",
        "service": "FX",
        "owner": "WYCQ, INC.",
        "city": "NASHVILLE",
        "state": "TN"
      }
    },
    {
      "type": "Feature",
      "geometry": {
        "type": "Point",
        "coordinates": [
          -84.818333,
          35.930833
        ]
      },
      "properties": {
        "id": "200350",
        "call_sign": "W227EB",
        "frequency": "93.3  MHz",
        "service": "FX",
        "owner": "3B TENNESSEE, INC.",
        "city": "ROCKWOOD",
        "state": "TN"
      }
    },
    {
      "type": "Feature",
      "geometry": {
        "type": "Point",
        "coordinates": [
          -87.38175,
          36.571222
        ]
      },
      "properties": {
        "id": "193011",
        "call_sign": "KWUS-LP",
        "frequency": "93.5  MHz",
        "service": "FL",
        "owner": "RADIO-4-US",
        "city": "CLARKSVILLE",
        "state": "TN"
      }
    },
    {
      "type": "Feature",
      "geometry": {
        "type": "Point",
        "coordinates": [
          -89.639222,
          35.586722
        ]
      },
      "properties": {
        "id": "57886",
        "call_sign": "WKBQ",
        "frequency": "93.5  MHz",
        "service": "FM",
        "owner": "GRACE BROADCASTING SERVICES, INC.",
        "city": "COVINGTON",
        "state": "TN"
      }
    },
    {
      "type": "Feature",
      "geometry": {
        "type": "Point",
        "coordinates": [
          -85.290222,
          35.125917
        ]
      },
      "properties": {
        "id": "60659",
        "call_sign": "WMPZ",
        "frequency": "93.5  MHz",
        "service": "FM",
        "owner": "BREWER MEDIA GROUP, LLC",
        "city": "HARRISON",
        "state": "TN"
      }
    },
    {
      "type": "Feature",
      "geometry": {
        "type": "Point",
        "coordinates": [
          -86.040083,
          36.4235
        ]
      },
      "properties": {
        "id": "140683",
        "call_sign": "W228CB",
        "frequency": "93.5  MHz",
        "service": "FX",
        "owner": "FUN MEDIA GROUP OF TENNESSEE, LLC",
        "city": "HARTSVILLE",
        "state": "TN"
      }
    },
    {
      "type": "Feature",
      "geometry": {
        "type": "Point",
        "coordinates": [
          -84.179333,
          35.710611
        ]
      },
      "properties": {
        "id": "73210",
        "call_sign": "WKZX-FM",
        "frequency": "93.5  MHz",
        "service": "FM",
        "owner": "BP BROADCASTERS, LLC",
        "city": "LENOIR CITY",
        "state": "TN"
      }
    },
    {
      "type": "Feature",
      "geometry": {
        "type": "Point",
        "coordinates": [
          -90.003361,
          35.053833
        ]
      },
      "properties": {
        "id": "195039",
        "call_sign": "WMDA-LP",
        "frequency": "93.5  MHz",
        "service": "FL",
        "owner": "MEMPHIS DAWAH ASSOCIATION",
        "city": "MEMPHIS",
        "state": "TN"
      }
    },
    {
      "type": "Feature",
      "geometry": {
        "type": "Point",
        "coordinates": [
          -90.008333,
          35.055556
        ]
      },
      "properties": {
        "id": "195039",
        "call_sign": "WMDA-LP",
        "frequency": "93.5  MHz",
        "service": "FL",
        "owner": "MEMPHIS DAWAH ASSOCIATION",
        "city": "MEMPHIS",
        "state": "TN"
      }
    },
    {
      "type": "Feature",
      "geometry": {
        "type": "Point",
        "coordinates": [
          -86.372,
          35.79225
        ]
      },
      "properties": {
        "id": "195426",
        "call_sign": "WRHW-LP",
        "frequency": "93.5  MHz",
        "service": "FL",
        "owner": "REMNANT BROADCASTING CORPORATION",
        "city": "MURFREESBORO",
        "state": "TN"
      }
    },
    {
      "type": "Feature",
      "geometry": {
        "type": "Point",
        "coordinates": [
          -88.167528,
          35.285611
        ]
      },
      "properties": {
        "id": "65212",
        "call_sign": "WKWX",
        "frequency": "93.5  MHz",
        "service": "FM",
        "owner": "MELCO, INC.",
        "city": "SAVANNAH",
        "state": "TN"
      }
    },
    {
      "type": "Feature",
      "geometry": {
        "type": "Point",
        "coordinates": [
          -87.855028,
          36.087556
        ]
      },
      "properties": {
        "id": "153485",
        "call_sign": "W228DG",
        "frequency": "93.5  MHz",
        "service": "FX",
        "owner": "DCDL MEDIA INC.",
        "city": "WAVERLY",
        "state": "TN"
      }
    },
    {
      "type": "Feature",
      "geometry": {
        "type": "Point",
        "coordinates": [
          -88.695611,
          35.957
        ]
      },
      "properties": {
        "id": "5299",
        "call_sign": "WTKB-FM",
        "frequency": "93.7  MHz",
        "service": "FM",
        "owner": "SOLID ROCK BROADCASTING, LLC",
        "city": "ATWOOD",
        "state": "TN"
      }
    },
    {
      "type": "Feature",
      "geometry": {
        "type": "Point",
        "coordinates": [
          -85.411278,
          36.18425
        ]
      },
      "properties": {
        "id": "31426",
        "call_sign": "WBXE",
        "frequency": "93.7  MHz",
        "service": "FM",
        "owner": "STONECOM COOKEVILLE, LLC",
        "city": "BAXTER",
        "state": "TN"
      }
    },
    {
      "type": "Feature",
      "geometry": {
        "type": "Point",
        "coordinates": [
          -82.831806,
          36.170111
        ]
      },
      "properties": {
        "id": "140573",
        "call_sign": "W229BA",
        "frequency": "93.7  MHz",
        "service": "FX",
        "owner": "POSITIVE ALTERNATIVE RADIO, INC.",
        "city": "GREENEVILLE",
        "state": "TN"
      }
    },
    {
      "type": "Feature",
      "geometry": {
        "type": "Point",
        "coordinates": [
          -86.172833,
          36.388417
        ]
      },
      "properties": {
        "id": "201604",
        "call_sign": "W230CV",
        "frequency": "93.7  MHz",
        "service": "FX",
        "owner": "FUN MEDIA GROUP OF TENNESSEE, LLC",
        "city": "HARTSVILLE",
        "state": "TN"
      }
    },
    {
      "type": "Feature",
      "geometry": {
        "type": "Point",
        "coordinates": [
          -82.411111,
          36.328333
        ]
      },
      "properties": {
        "id": "201655",
        "call_sign": "W229DH",
        "frequency": "93.7  MHz",
        "service": "FX",
        "owner": "KENNETH HILL",
        "city": "JOHNSON CITY",
        "state": "TN"
      }
    },
    {
      "type": "Feature",
      "geometry": {
        "type": "Point",
        "coordinates": [
          -86.984444,
          36.136167
        ]
      },
      "properties": {
        "id": "18714",
        "call_sign": "WFRW",
        "frequency": "93.7  MHz",
        "service": "FM",
        "owner": "K-LOVE, INC.",
        "city": "KINGSTON SPRINGS",
        "state": "TN"
      }
    },
    {
      "type": "Feature",
      "geometry": {
        "type": "Point",
        "coordinates": [
          -83.939722,
          36.005278
        ]
      },
      "properties": {
        "id": "144875",
        "call_sign": "W229DO",
        "frequency": "93.7  MHz",
        "service": "FX",
        "owner": "MID-CENTURY RADIO LLC",
        "city": "KNOXVILLE",
        "state": "TN"
      }
    },
    {
      "type": "Feature",
      "geometry": {
        "type": "Point",
        "coordinates": [
          -84.09325,
          36.386472
        ]
      },
      "properties": {
        "id": "138957",
        "call_sign": "W229AK",
        "frequency": "93.7  MHz",
        "service": "FX",
        "owner": "BIBLE BROADCASTING NETWORK, INC.",
        "city": "LAFOLLETTE",
        "state": "TN"
      }
    },
    {
      "type": "Feature",
      "geometry": {
        "type": "Point",
        "coordinates": [
          -89.845361,
          35.174806
        ]
      },
      "properties": {
        "id": "138455",
        "call_sign": "W229CT",
        "frequency": "93.7  MHz",
        "service": "FX",
        "owner": "BOTT BROADCASTING COMPANY/TENNESSEE",
        "city": "MEMPHIS",
        "state": "TN"
      }
    },
    {
      "type": "Feature",
      "geometry": {
        "type": "Point",
        "coordinates": [
          -83.571694,
          36.447361
        ]
      },
      "properties": {
        "id": "200874",
        "call_sign": "W229DA",
        "frequency": "93.7  MHz",
        "service": "FX",
        "owner": "WNTT, INC",
        "city": "TAZEWELL",
        "state": "TN"
      }
    },
    {
      "type": "Feature",
      "geometry": {
        "type": "Point",
        "coordinates": [
          -87.042222,
          35.618139
        ]
      },
      "properties": {
        "id": "145252",
        "call_sign": "W230BX",
        "frequency": "93.9  MHz",
        "service": "FX",
        "owner": "MIDDLE TENNESSEE STATE UNIVERSITY",
        "city": "COLUMBIA",
        "state": "TN"
      }
    },
    {
      "type": "Feature",
      "geometry": {
        "type": "Point",
        "coordinates": [
          -86.474972,
          36.46725
        ]
      },
      "properties": {
        "id": "67635",
        "call_sign": "W230AD",
        "frequency": "93.9  MHz",
        "service": "FX",
        "owner": "COMMUNITY BROADCASTING, INC.",
        "city": "GALLATIN",
        "state": "TN"
      }
    },
    {
      "type": "Feature",
      "geometry": {
        "type": "Point",
        "coordinates": [
          -83.565833,
          35.703611
        ]
      },
      "properties": {
        "id": "11058",
        "call_sign": "W230BR",
        "frequency": "93.9  MHz",
        "service": "FX",
        "owner": "CUMBERLAND COMMUNITIES COMMUNICATIONS CORPORATION",
        "city": "GATLINBURG",
        "state": "TN"
      }
    },
    {
      "type": "Feature",
      "geometry": {
        "type": "Point",
        "coordinates": [
          -86.2575,
          36.293472
        ]
      },
      "properties": {
        "id": "201604",
        "call_sign": "W230CV",
        "frequency": "93.9  MHz",
        "service": "FX",
        "owner": "FUN MEDIA GROUP OF TENNESSEE, LLC",
        "city": "HARTSVILLE",
        "state": "TN"
      }
    },
    {
      "type": "Feature",
      "geometry": {
        "type": "Point",
        "coordinates": [
          -84.853611,
          35.165
        ]
      },
      "properties": {
        "id": "70782",
        "call_sign": "WQMT",
        "frequency": "93.9  MHz",
        "service": "FM",
        "owner": "EAST TENNESSEE RADIO GROUP III, L.P.",
        "city": "HOPEWELL",
        "state": "TN"
      }
    },
    {
      "type": "Feature",
      "geometry": {
        "type": "Point",
        "coordinates": [
          -84.022583,
          36.123861
        ]
      },
      "properties": {
        "id": "202398",
        "call_sign": "W230DC",
        "frequency": "93.9  MHz",
        "service": "FX",
        "owner": "STAIR COMPANY INC.",
        "city": "LA FOLLETTE",
        "state": "TN"
      }
    },
    {
      "type": "Feature",
      "geometry": {
        "type": "Point",
        "coordinates": [
          -84.020333,
          36.122528
        ]
      },
      "properties": {
        "id": "202398",
        "call_sign": "W230DC",
        "frequency": "93.9  MHz",
        "service": "FX",
        "owner": "STAIR COMPANY INC.",
        "city": "LA FOLLETTE",
        "state": "TN"
      }
    },
    {
      "type": "Feature",
      "geometry": {
        "type": "Point",
        "coordinates": [
          -84.346972,
          35.725167
        ]
      },
      "properties": {
        "id": "200943",
        "call_sign": "W284DC",
        "frequency": "93.9  MHz",
        "service": "FX",
        "owner": "RADIO LOUDON LLC",
        "city": "LOUDON",
        "state": "TN"
      }
    },
    {
      "type": "Feature",
      "geometry": {
        "type": "Point",
        "coordinates": [
          -86.364972,
          35.377833
        ]
      },
      "properties": {
        "id": "183375",
        "call_sign": "WDUC",
        "frequency": "93.9  MHz",
        "service": "FM",
        "owner": "COFFEE COUNTY BROADCASTING, INC.",
        "city": "LYNCHBURG",
        "state": "TN"
      }
    },
    {
      "type": "Feature",
      "geometry": {
        "type": "Point",
        "coordinates": [
          -88.589222,
          35.190917
        ]
      },
      "properties": {
        "id": "71358",
        "call_sign": "WWGM",
        "frequency": "93.9  MHz",
        "service": "FM",
        "owner": "SOUTHERN BROADCASTING LLC",
        "city": "SELMER",
        "state": "TN"
      }
    },
    {
      "type": "Feature",
      "geometry": {
        "type": "Point",
        "coordinates": [
          -83.668889,
          35.811472
        ]
      },
      "properties": {
        "id": "11058",
        "call_sign": "W230BR",
        "frequency": "93.9  MHz",
        "service": "FX",
        "owner": "CUMBERLAND COMMUNITIES COMMUNICATIONS CORPORATION",
        "city": "SEYMOUR",
        "state": "TN"
      }
    },
    {
      "type": "Feature",
      "geometry": {
        "type": "Point",
        "coordinates": [
          -85.411083,
          36.184222
        ]
      },
      "properties": {
        "id": "142617",
        "call_sign": "W231DG",
        "frequency": "94.1  MHz",
        "service": "FX",
        "owner": "STONECOM COOKEVILLE, LLC",
        "city": "COOKEVILLE",
        "state": "TN"
      }
    },
    {
      "type": "Feature",
      "geometry": {
        "type": "Point",
        "coordinates": [
          -88.833389,
          35.647028
        ]
      },
      "properties": {
        "id": "140692",
        "call_sign": "W231BU",
        "frequency": "94.1  MHz",
        "service": "FX",
        "owner": "FOREVER SOUTH LICENSES, LLC",
        "city": "EAST UNION",
        "state": "TN"
      }
    },
    {
      "type": "Feature",
      "geometry": {
        "type": "Point",
        "coordinates": [
          -89.862583,
          34.989528
        ]
      },
      "properties": {
        "id": "2686",
        "call_sign": "WKVF",
        "frequency": "94.1  MHz",
        "service": "FM",
        "owner": "K-LOVE, INC.",
        "city": "GERMANTOWN",
        "state": "TN"
      }
    },
    {
      "type": "Feature",
      "geometry": {
        "type": "Point",
        "coordinates": [
          -89.862583,
          34.989528
        ]
      },
      "properties": {
        "id": "2686",
        "call_sign": "WKVF",
        "frequency": "94.1  MHz",
        "service": "FS",
        "owner": "K-LOVE, INC.",
        "city": "GERMANTOWN",
        "state": "TN"
      }
    },
    {
      "type": "Feature",
      "geometry": {
        "type": "Point",
        "coordinates": [
          -84.818278,
          35.864222
        ]
      },
      "properties": {
        "id": "203271",
        "call_sign": "W231DY",
        "frequency": "94.1  MHz",
        "service": "FX",
        "owner": "3B TENNESSEE, INC.",
        "city": "KINGSTON",
        "state": "TN"
      }
    },
    {
      "type": "Feature",
      "geometry": {
        "type": "Point",
        "coordinates": [
          -83.332111,
          36.228417
        ]
      },
      "properties": {
        "id": "48752",
        "call_sign": "WMXK",
        "frequency": "94.1  MHz",
        "service": "FM",
        "owner": "K-LOVE, INC.",
        "city": "MORRISTOWN",
        "state": "TN"
      }
    },
    {
      "type": "Feature",
      "geometry": {
        "type": "Point",
        "coordinates": [
          -88.292528,
          36.313944
        ]
      },
      "properties": {
        "id": "4806",
        "call_sign": "WLZK",
        "frequency": "94.1  MHz",
        "service": "FM",
        "owner": "FOREVER SOUTH LICENSES, LLC",
        "city": "PARIS",
        "state": "TN"
      }
    },
    {
      "type": "Feature",
      "geometry": {
        "type": "Point",
        "coordinates": [
          -86.638333,
          36.020611
        ]
      },
      "properties": {
        "id": "68347",
        "call_sign": "WAIV",
        "frequency": "94.1  MHz",
        "service": "FM",
        "owner": "K-LOVE, INC.",
        "city": "SMYRNA",
        "state": "TN"
      }
    },
    {
      "type": "Feature",
      "geometry": {
        "type": "Point",
        "coordinates": [
          -86.558028,
          35.995333
        ]
      },
      "properties": {
        "id": "68347",
        "call_sign": "WAIV",
        "frequency": "94.1  MHz",
        "service": "FS",
        "owner": "K-LOVE, INC.",
        "city": "SMYRNA",
        "state": "TN"
      }
    },
    {
      "type": "Feature",
      "geometry": {
        "type": "Point",
        "coordinates": [
          -89.129222,
          36.103389
        ]
      },
      "properties": {
        "id": "20390",
        "call_sign": "WTJF-FM",
        "frequency": "94.3  MHz",
        "service": "FM",
        "owner": "FOREVER SOUTH LICENSES, LLC",
        "city": "DYER",
        "state": "TN"
      }
    },
    {
      "type": "Feature",
      "geometry": {
        "type": "Point",
        "coordinates": [
          -82.586528,
          36.527028
        ]
      },
      "properties": {
        "id": "158040",
        "call_sign": "W232BP",
        "frequency": "94.3  MHz",
        "service": "FX",
        "owner": "HOLSTON VALLEY BROADCASTING CORPORATION",
        "city": "KINGSPORT",
        "state": "TN"
      }
    },
    {
      "type": "Feature",
      "geometry": {
        "type": "Point",
        "coordinates": [
          -87.325028,
          35.255083
        ]
      },
      "properties": {
        "id": "53668",
        "call_sign": "W232DY",
        "frequency": "94.3  MHz",
        "service": "FX",
        "owner": "ROGER WRIGHT",
        "city": "LAWRENCEBURG",
        "state": "TN"
      }
    },
    {
      "type": "Feature",
      "geometry": {
        "type": "Point",
        "coordinates": [
          -86.782472,
          35.450889
        ]
      },
      "properties": {
        "id": "40477",
        "call_sign": "WJJM-FM",
        "frequency": "94.3  MHz",
        "service": "FM",
        "owner": "WJJM, INC.",
        "city": "LEWISBURG",
        "state": "TN"
      }
    },
    {
      "type": "Feature",
      "geometry": {
        "type": "Point",
        "coordinates": [
          -84.06825,
          35.966194
        ]
      },
      "properties": {
        "id": "31837",
        "call_sign": "WNFZ",
        "frequency": "94.3  MHz",
        "service": "FM",
        "owner": "MIDWEST COMMUNICATIONS, INC.",
        "city": "POWELL",
        "state": "TN"
      }
    },
    {
      "type": "Feature",
      "geometry": {
        "type": "Point",
        "coordinates": [
          -85.290222,
          35.125917
        ]
      },
      "properties": {
        "id": "6752",
        "call_sign": "WJTT",
        "frequency": "94.3  MHz",
        "service": "FM",
        "owner": "BREWER BROADCASTING OF CHATTANOOGA, INC.",
        "city": "RED BANK",
        "state": "TN"
      }
    },
    {
      "type": "Feature",
      "geometry": {
        "type": "Point",
        "coordinates": [
          -84.599944,
          35.46425
        ]
      },
      "properties": {
        "id": "145157",
        "call_sign": "W233CI",
        "frequency": "94.5  MHz",
        "service": "FX",
        "owner": "MARK AND MARY LEFLER",
        "city": "ATHENS",
        "state": "TN"
      }
    },
    {
      "type": "Feature",
      "geometry": {
        "type": "Point",
        "coordinates": [
          -87.026944,
          36.077833
        ]
      },
      "properties": {
        "id": "50126",
        "call_sign": "WHPY-FM",
        "frequency": "94.5  MHz",
        "service": "FM",
        "owner": "KENSINGTON DIGITAL MEDIA, L.L.C.",
        "city": "BELLEVUE",
        "state": "TN"
      }
    },
    {
      "type": "Feature",
      "geometry": {
        "type": "Point",
        "coordinates": [
          -86.030806,
          35.160917
        ]
      },
      "properties": {
        "id": "148120",
        "call_sign": "W233BN",
        "frequency": "94.5  MHz",
        "service": "FX",
        "owner": "WISEMAN MEDIA",
        "city": "COWAN",
        "state": "TN"
      }
    },
    {
      "type": "Feature",
      "geometry": {
        "type": "Point",
        "coordinates": [
          -82.87,
          36.068889
        ]
      },
      "properties": {
        "id": "785564",
        "call_sign": "WFTH-LP",
        "frequency": "94.5  MHz",
        "service": "FL",
        "owner": "APPALACHIAN BAPTIST CHURCH",
        "city": "GREENVILLE",
        "state": "TN"
      }
    },
    {
      "type": "Feature",
      "geometry": {
        "type": "Point",
        "coordinates": [
          -82.984333,
          36.416194
        ]
      },
      "properties": {
        "id": "138953",
        "call_sign": "W233BP",
        "frequency": "94.5  MHz",
        "service": "FX",
        "owner": "BOULDIN RADIO, LLC",
        "city": "ROGERSVILLE",
        "state": "TN"
      }
    },
    {
      "type": "Feature",
      "geometry": {
        "type": "Point",
        "coordinates": [
          -88.928111,
          35.277556
        ]
      },
      "properties": {
        "id": "31865",
        "call_sign": "WOJG",
        "frequency": "94.7  MHz",
        "service": "FM",
        "owner": "SHAW'S BROADCASTING CO",
        "city": "BOLIVAR",
        "state": "TN"
      }
    },
    {
      "type": "Feature",
      "geometry": {
        "type": "Point",
        "coordinates": [
          -85.118556,
          35.133389
        ]
      },
      "properties": {
        "id": "200391",
        "call_sign": "W234CZ",
        "frequency": "94.7  MHz",
        "service": "FX",
        "owner": "WDYN, INC.",
        "city": "CHATTANOOGA",
        "state": "TN"
      }
    },
    {
      "type": "Feature",
      "geometry": {
        "type": "Point",
        "coordinates": [
          -85.343583,
          36.173944
        ]
      },
      "properties": {
        "id": "13819",
        "call_sign": "WGSQ",
        "frequency": "94.7  MHz",
        "service": "FM",
        "owner": "COOKEVILLE COMMUNICATIONS, LLC",
        "city": "COOKEVILLE",
        "state": "TN"
      }
    },
    {
      "type": "Feature",
      "geometry": {
        "type": "Point",
        "coordinates": [
          -87.025,
          35.487833
        ]
      },
      "properties": {
        "id": "145034",
        "call_sign": "W234CD",
        "frequency": "94.7  MHz",
        "service": "FX",
        "owner": "MIDDLE TENNESSEE STATE UNIVERSITY",
        "city": "HOLLYWOOD",
        "state": "TN"
      }
    },
    {
      "type": "Feature",
      "geometry": {
        "type": "Point",
        "coordinates": [
          -85.60975,
          35.042361
        ]
      },
      "properties": {
        "id": "135232",
        "call_sign": "WJCR-LP",
        "frequency": "94.7  MHz",
        "service": "FL",
        "owner": "JASPER CHRIST-CENTERED RADIO, INC",
        "city": "JASPER",
        "state": "TN"
      }
    },
    {
      "type": "Feature",
      "geometry": {
        "type": "Point",
        "coordinates": [
          -83.944639,
          36.002306
        ]
      },
      "properties": {
        "id": "153535",
        "call_sign": "W234CU",
        "frequency": "94.7  MHz",
        "service": "FX",
        "owner": "PROGRESSIVE MEDIA, INC.",
        "city": "KNOXVILLE",
        "state": "TN"
      }
    },
    {
      "type": "Feature",
      "geometry": {
        "type": "Point",
        "coordinates": [
          -87.064167,
          35.168972
        ]
      },
      "properties": {
        "id": "141167",
        "call_sign": "W234AW",
        "frequency": "94.7  MHz",
        "service": "FX",
        "owner": "RURAL LIFE FOUNDATION, INC.",
        "city": "PULASKI",
        "state": "TN"
      }
    },
    {
      "type": "Feature",
      "geometry": {
        "type": "Point",
        "coordinates": [
          -89.822222,
          35.154444
        ]
      },
      "properties": {
        "id": "859",
        "call_sign": "WWAI",
        "frequency": "94.9  MHz",
        "service": "FM",
        "owner": "K-LOVE, INC.",
        "city": "BARTLETT",
        "state": "TN"
      }
    },
    {
      "type": "Feature",
      "geometry": {
        "type": "Point",
        "coordinates": [
          -85.323,
          34.992028
        ]
      },
      "properties": {
        "id": "148230",
        "call_sign": "W235AO",
        "frequency": "94.9  MHz",
        "service": "FX",
        "owner": "WDYN, INC.",
        "city": "CHATTANOOGA",
        "state": "TN"
      }
    },
    {
      "type": "Feature",
      "geometry": {
        "type": "Point",
        "coordinates": [
          -87.350833,
          36.528917
        ]
      },
      "properties": {
        "id": "194382",
        "call_sign": "WGIC-LP",
        "frequency": "94.9  MHz",
        "service": "FL",
        "owner": "IMMACULATE CONCEPTION PARISH",
        "city": "CLARKSVILLE",
        "state": "TN"
      }
    },
    {
      "type": "Feature",
      "geometry": {
        "type": "Point",
        "coordinates": [
          -84.884667,
          35.197028
        ]
      },
      "properties": {
        "id": "196481",
        "call_sign": "WTNE-LP",
        "frequency": "94.9  MHz",
        "service": "FL",
        "owner": "WORLD HARVEST OUTREACH MINISTRIES INTERNATIONAL",
        "city": "CLEVELAND",
        "state": "TN"
      }
    },
    {
      "type": "Feature",
      "geometry": {
        "type": "Point",
        "coordinates": [
          -87.785306,
          35.029528
        ]
      },
      "properties": {
        "id": "50128",
        "call_sign": "WMSR-FM",
        "frequency": "94.9  MHz",
        "service": "FM",
        "owner": "SINGING RIVER MEDIA GROUP, LLC",
        "city": "COLLINWOOD",
        "state": "TN"
      }
    },
    {
      "type": "Feature",
      "geometry": {
        "type": "Point",
        "coordinates": [
          -82.690972,
          36.076222
        ]
      },
      "properties": {
        "id": "54601",
        "call_sign": "WAEZ",
        "frequency": "94.9  MHz",
        "service": "FM",
        "owner": "BRISTOL BROADCASTING COMPANY, INC.",
        "city": "GREENEVILLE",
        "state": "TN"
      }
    },
    {
      "type": "Feature",
      "geometry": {
        "type": "Point",
        "coordinates": [
          -82.690972,
          36.076222
        ]
      },
      "properties": {
        "id": "54601",
        "call_sign": "WAEZ",
        "frequency": "94.9  MHz",
        "service": "FM",
        "owner": "BRISTOL BROADCASTING COMPANY, INC.",
        "city": "GREENEVILLE",
        "state": "TN"
      }
    },
    {
      "type": "Feature",
      "geometry": {
        "type": "Point",
        "coordinates": [
          -86.865556,
          36.140889
        ]
      },
      "properties": {
        "id": "142861",
        "call_sign": "W235BW",
        "frequency": "94.9  MHz",
        "service": "FX",
        "owner": "WYCQ, INC.",
        "city": "NASHVILLE",
        "state": "TN"
      }
    },
    {
      "type": "Feature",
      "geometry": {
        "type": "Point",
        "coordinates": [
          -84.599944,
          35.46425
        ]
      },
      "properties": {
        "id": "156098",
        "call_sign": "W236DC",
        "frequency": "95.1  MHz",
        "service": "FX",
        "owner": "CHARLES LYNN",
        "city": "ATHENS",
        "state": "TN"
      }
    },
    {
      "type": "Feature",
      "geometry": {
        "type": "Point",
        "coordinates": [
          -88.6675,
          36.263889
        ]
      },
      "properties": {
        "id": "67055",
        "call_sign": "WCDZ",
        "frequency": "95.1  MHz",
        "service": "FM",
        "owner": "THUNDERBOLT BROADCASTING COMPANY",
        "city": "DRESDEN",
        "state": "TN"
      }
    },
    {
      "type": "Feature",
      "geometry": {
        "type": "Point",
        "coordinates": [
          -84.29575,
          35.792306
        ]
      },
      "properties": {
        "id": "157012",
        "call_sign": "W236DA",
        "frequency": "95.1  MHz",
        "service": "FX",
        "owner": "LIFETALK RADIO, INC.",
        "city": "LENOIR CITY",
        "state": "TN"
      }
    },
    {
      "type": "Feature",
      "geometry": {
        "type": "Point",
        "coordinates": [
          -86.353056,
          35.848889
        ]
      },
      "properties": {
        "id": "141270",
        "call_sign": "W236CI",
        "frequency": "95.1  MHz",
        "service": "FX",
        "owner": "WYCQ, INC.",
        "city": "MURFREESBORO",
        "state": "TN"
      }
    },
    {
      "type": "Feature",
      "geometry": {
        "type": "Point",
        "coordinates": [
          -89.2445,
          35.608389
        ]
      },
      "properties": {
        "id": "66659",
        "call_sign": "WTBG",
        "frequency": "95.3  MHz",
        "service": "FM",
        "owner": "THE MIRROR-EXCHANGE, INC.",
        "city": "BROWNSVILLE",
        "state": "TN"
      }
    },
    {
      "type": "Feature",
      "geometry": {
        "type": "Point",
        "coordinates": [
          -86.524139,
          35.355056
        ]
      },
      "properties": {
        "id": "144990",
        "call_sign": "W237DY",
        "frequency": "95.3  MHz",
        "service": "FX",
        "owner": "MIDDLE TENNESSEE STATE UNIVERSITY",
        "city": "CHESTNUT RIDGE",
        "state": "TN"
      }
    },
    {
      "type": "Feature",
      "geometry": {
        "type": "Point",
        "coordinates": [
          -84.021861,
          36.07175
        ]
      },
      "properties": {
        "id": "5153",
        "call_sign": "WYFC",
        "frequency": "95.3  MHz",
        "service": "FM",
        "owner": "BIBLE BROADCASTING NETWORK, INC.",
        "city": "CLINTON",
        "state": "TN"
      }
    },
    {
      "type": "Feature",
      "geometry": {
        "type": "Point",
        "coordinates": [
          -86.139611,
          35.282028
        ]
      },
      "properties": {
        "id": "148088",
        "call_sign": "W237DT",
        "frequency": "95.3  MHz",
        "service": "FX",
        "owner": "CHRISTOPHER WISEMAN",
        "city": "ESTILL SPRINGS",
        "state": "TN"
      }
    },
    {
      "type": "Feature",
      "geometry": {
        "type": "Point",
        "coordinates": [
          -82.587472,
          36.526944
        ]
      },
      "properties": {
        "id": "138394",
        "call_sign": "W237DV",
        "frequency": "95.3  MHz",
        "service": "FX",
        "owner": "BRISTOL BROADCASTING COMPANY, INC.",
        "city": "KINGSPORT",
        "state": "TN"
      }
    },
    {
      "type": "Feature",
      "geometry": {
        "type": "Point",
        "coordinates": [
          -87.105,
          35.282222
        ]
      },
      "properties": {
        "id": "200434",
        "call_sign": "W237FD",
        "frequency": "95.3  MHz",
        "service": "FX",
        "owner": "RADIO7MEDIA, LLC.",
        "city": "LAWRENCEBURG",
        "state": "TN"
      }
    },
    {
      "type": "Feature",
      "geometry": {
        "type": "Point",
        "coordinates": [
          -85.333861,
          35.12925
        ]
      },
      "properties": {
        "id": "66956",
        "call_sign": "WALV-FM",
        "frequency": "95.3  MHz",
        "service": "FM",
        "owner": "RADIO TRAINING NETWORK, INC.",
        "city": "OOLTEWAH",
        "state": "TN"
      }
    },
    {
      "type": "Feature",
      "geometry": {
        "type": "Point",
        "coordinates": [
          -84.509361,
          35.320917
        ]
      },
      "properties": {
        "id": "200255",
        "call_sign": "W238CW",
        "frequency": "95.5  MHz",
        "service": "FX",
        "owner": "GEORGE C. HUDSON, III",
        "city": "ETOWAH",
        "state": "TN"
      }
    },
    {
      "type": "Feature",
      "geometry": {
        "type": "Point",
        "coordinates": [
          -82.847667,
          36.169556
        ]
      },
      "properties": {
        "id": "202062",
        "call_sign": "W238DC",
        "frequency": "95.5  MHz",
        "service": "FX",
        "owner": "RADIO GREENEVILLE, INC.",
        "city": "GREENEVILLE",
        "state": "TN"
      }
    },
    {
      "type": "Feature",
      "geometry": {
        "type": "Point",
        "coordinates": [
          -86.865556,
          36.140833
        ]
      },
      "properties": {
        "id": "74065",
        "call_sign": "WSM-FM",
        "frequency": "95.5  MHz",
        "service": "FM",
        "owner": "CUMULUS LICENSING LLC",
        "city": "NASHVILLE",
        "state": "TN"
      }
    },
    {
      "type": "Feature",
      "geometry": {
        "type": "Point",
        "coordinates": [
          -86.865556,
          36.140833
        ]
      },
      "properties": {
        "id": "74065",
        "call_sign": "WSM-FM",
        "frequency": "95.5  MHz",
        "service": "FS",
        "owner": "CUMULUS LICENSING LLC",
        "city": "NASHVILLE",
        "state": "TN"
      }
    },
    {
      "type": "Feature",
      "geometry": {
        "type": "Point",
        "coordinates": [
          -83.195278,
          35.962778
        ]
      },
      "properties": {
        "id": "783613",
        "call_sign": "WORB-LP",
        "frequency": "95.5  MHz",
        "service": "FL",
        "owner": "APPALACHIAN MINISTRIES",
        "city": "NEWPORT",
        "state": "TN"
      }
    },
    {
      "type": "Feature",
      "geometry": {
        "type": "Point",
        "coordinates": [
          -89.034778,
          36.427833
        ]
      },
      "properties": {
        "id": "201134",
        "call_sign": "W238CU",
        "frequency": "95.5  MHz",
        "service": "FX",
        "owner": "FOREVER SOUTH LICENSES, LLC",
        "city": "UNION CITY",
        "state": "TN"
      }
    },
    {
      "type": "Feature",
      "geometry": {
        "type": "Point",
        "coordinates": [
          -84.627139,
          36.187278
        ]
      },
      "properties": {
        "id": "157856",
        "call_sign": "W238CP",
        "frequency": "95.5  MHz",
        "service": "FX",
        "owner": "MORGAN COUNTRY BROADCASTING COMPANY, INC.",
        "city": "WARTBURG",
        "state": "TN"
      }
    },
    {
      "type": "Feature",
      "geometry": {
        "type": "Point",
        "coordinates": [
          -85.363889,
          35.078611
        ]
      },
      "properties": {
        "id": "201241",
        "call_sign": "W239CO",
        "frequency": "95.7  MHz",
        "service": "FX",
        "owner": "BRIDGEPORT, INC.",
        "city": "CHATTANOOGA",
        "state": "TN"
      }
    },
    {
      "type": "Feature",
      "geometry": {
        "type": "Point",
        "coordinates": [
          -85.131611,
          35.410889
        ]
      },